t,x_s1,x_s2,x_s3,x_s_d1,x_s_d2,x_s_d3,propellers_rpms1,propellers_rpms2,propellers_rpms3,propellers_rpms4,rollRad,pitchRad,yawRad,v_s1,v_s2,v_s3,v_s_d1,v_s_d2,v_s_d3,insideCount
0,-0.0599999986588955,2.94000005722046,1.17999994754791,-0.0599999986588955,2.94000005722046,1.17999994754791,0,0,0,0,0,0,0,0,0,0,-1.06581410364015E-15,4.44089209850063E-16,4.44089209850063E-16,0
0.02001953125,-0.0599999986588955,2.94000005722046,1.17811644077301,-0.0600018744611685,2.93999925011514,1.18000110875888,0,0,0,0,-0.01635288,0.0001297794,-0.01587137,-1.10653664009419E-09,-7.76775763711157E-08,-0.0941759571433067,-0.000280531511337879,-0.000120704872184653,0.000173662369087018,5
0.040008544921875,-0.0599999986588955,2.94000005722046,1.17242503166199,-0.060014880898484,2.93999365380853,1.18000916036316,0,0,0,0,-0.03270202,0.0005238493,-0.03175127,-1.08383135799528E-09,-7.60859677484405E-08,-0.284568399190903,-0.00111143977225461,-0.000478221483967637,0.00068803416424398,5
0.060028076171875,-0.0599058829247952,2.93990302085876,1.16596519947052,-0.0600499614395074,2.93997855963176,1.18003087688917,1867.736,3252.71,3184.193,1722.621,-0.04941975,0.0003290266,-0.01369397,0.0047058523632586,-0.00484938966110349,-0.32299131155014,-0.0024818548295203,-0.00106787279814456,0.00153638636661368,5
0.08001708984375,-0.0598203651607037,2.93960738182068,1.16000306606293,-0.0601176241590912,2.9399494462538,1.18007276333581,1926.001,2314.512,3251.568,2829.337,-0.07542871,-0.002135855,0.02094674,0.00427579740062356,-0.0147775560617447,-0.298106998205185,-0.00437432711648753,-0.0018821507536715,0.00270791686320324,5
0.100006103515625,-0.0599374398589134,2.93904495239258,1.15498661994934,-0.0602282404704493,2.93990185114529,1.18014124010193,980.0338,1498.709,3915.274,3896.642,-0.1031916,-0.008062454,0.06330629,-0.00585382105782628,-0.028115801513195,-0.250822246074677,-0.00677739276378709,-0.00291612276782231,0.00419552897277328,4
0.120025634765625,-0.0604638271033764,2.93818354606628,1.15081334114075,-0.0603921815631679,2.93983131187307,1.18024272744792,346.3174,980.3736,4173.003,4613.322,-0.1214268,-0.01542023,0.1039998,-0.0263193659484386,-0.0430673509836197,-0.208664447069168,-0.00968281574750508,-0.00416624510959472,0.00599412420418488,4
0.1400146484375,-0.0615635402500629,2.93704128265381,1.14728283882141,-0.0606187761383957,2.93973381455767,1.18038300028418,353.4506,747.4706,3974.599,4854.822,-0.1253997,-0.02116521,0.1351017,-0.054985623806715,-0.0571108460426331,-0.176525324583054,-0.0130687916036232,-0.00562313592726786,0.00809020455552005,4
0.160003662109375,-0.0633407682180405,2.93568110466003,1.14427518844604,-0.0609177895434042,2.93960515744296,1.18056810382587,820.7313,814.6779,3463.37,4692.314,-0.1184606,-0.02352317,0.1522667,-0.0888615399599075,-0.0680129453539848,-0.150384485721588,-0.0169265510445065,-0.00728302204135792,0.0104783414199936,3
0.180023193359375,-0.0658467784523964,2.93417239189148,1.14182579517365,-0.061299173422313,2.9394410586145,1.18080419861474,1348.33,1083.158,3007.246,4255.26,-0.1079789,-0.02277961,0.1557781,-0.125300720334053,-0.0754303783178329,-0.122468166053295,-0.0212503155312517,-0.00914341710800856,0.0131549576067545,3
0.20001220703125,-0.0690847486257553,2.93255400657654,1.14006185531616,-0.0617708265342762,2.93923811945689,1.181096174359,1637.018,1381.707,2917.347,3666.326,-0.09982859,-0.02030021,0.1501559,-0.161898508667946,-0.0809135437011719,-0.0881989896297455,-0.0260142813927851,-0.0111932185284278,0.0161040794142088,3
0.220001220703125,-0.073010042309761,2.93082642555237,1.13903617858887,-0.0623420644491781,2.93899233174064,1.18144979784016,1641.203,1580.345,3148.833,3113.11,-0.09584291,-0.01735529,0.1421896,-0.196264922618866,-0.0863850116729736,-0.0512859895825386,-0.03121219533433,-0.0134297356845702,0.019321835755004,3
0.240020751953125,-0.0775497555732727,2.92897391319275,1.13863396644592,-0.0630225615075555,2.93869953286731,1.18187105793587,1523.519,1623.872,3418.358,2777.754,-0.09475581,-0.01467881,0.1377371,-0.226985290646553,-0.0926249101758003,-0.0201130174100399,-0.0368405636651345,-0.0158514653389075,0.022806063868137,3
0.260009765625,-0.0826385617256165,2.92699289321899,1.13863611221313,-0.0638185570309634,2.93835703823113,1.18236381708338,1439.798,1501.436,3531.935,2744.092,-0.09439095,-0.0125877,0.1393021,-0.254440784454346,-0.0990562811493874,0.000104410573840141,-0.0428699302682246,-0.0184457333472145,0.0265385290140116,3
0.280029296875,-0.0882444381713867,2.92490124702454,1.13885295391083,-0.0647405670799769,2.93796032306502,1.18293458522515,1400.345,1275.715,3477.236,2977.595,-0.0932149,-0.01110591,0.1456832,-0.280293762683868,-0.104583218693733,0.0108418185263872,-0.0493064925116944,-0.0212152062638476,0.0305230676586995,3
0.300018310546875,-0.0943701788783073,2.92273306846619,1.13920783996582,-0.0657936070281142,2.93750722939386,1.1835864671163,1350.808,1061.885,3344.684,3324.76,-0.09054268,-0.009935189,0.1533085,-0.30628702044487,-0.108406357467175,0.0177434906363487,-0.0561185469977389,-0.0241462430024218,0.0347400538887172,3
0.32000732421875,-0.101035535335541,2.92052626609802,1.13972640037537,-0.0669865614821475,2.93699393441958,1.18432496275165,1280.413,940.8359,3238.569,3590.313,-0.08598814,-0.008524778,0.1583612,-0.333267658948898,-0.110345095396042,0.0259252637624741,-0.0633036493784043,-0.0272377918282996,0.0391879745362408,3
0.34002685546875,-0.108251139521599,2.91831254959106,1.14046323299408,-0.068328931055223,2.93641635029375,1.18515595346331,1252.419,943.7323,3171.747,3650.14,-0.07944582,-0.006294648,0.1584847,-0.360780388116837,-0.110685430467129,0.0368398539721966,-0.0708617428582823,-0.0304898283040037,0.0438667944422071,4
0.360015869140625,-0.116002604365349,2.91611528396606,1.14145362377167,-0.0698237345322385,2.93577317811757,1.18608130802295,1321.125,1048.019,3118.5,3498.07,-0.07154902,-0.0029625,0.1534775,-0.387573450803757,-0.109861217439175,0.0495222993195057,-0.0787580297418618,-0.0338873799532906,0.0487549721754506,4
0.3800048828125,-0.124251022934914,2.91395020484924,1.14270877838135,-0.0714797725314022,2.93506063123087,1.18710647443246,1455.346,1181.39,3091.385,3231.164,-0.06362239,0.001257795,0.1450413,-0.41242116689682,-0.108258038759232,0.0627560541033745,-0.0869921272359981,-0.0374302820709642,0.0538522707687797,4
0.4000244140625,-0.132942944765091,2.91182684898376,1.14421880245209,-0.0733065984369745,2.93427459907931,1.1882373666918,1577.905,1272.955,3106.236,2982.577,-0.05702147,0.005822477,0.1357547,-0.434595912694931,-0.10616897046566,0.0755005404353142,-0.0955658248284375,-0.0411193046236092,0.0591597980003546,4
0.420013427734375,-0.142023339867592,2.90975069999695,1.14595890045166,-0.0753050585276311,2.93341471753282,1.18947450868777,1632.48,1289.4,3157.199,2844.497,-0.0524403,0.01017532,0.127856,-0.454020470380783,-0.103805616497993,0.0870072990655899,-0.104441553474511,-0.0449382827008623,0.0646542968418633,4
0.44000244140625,-0.151445880532265,2.90772485733032,1.14789700508118,-0.077483988232608,2.93247718495301,1.19082336997196,1607.2,1238.084,3220.004,2842.187,-0.04966103,0.01397497,0.1224586,-0.47112712264061,-0.101293668150902,0.0969070643186569,-0.113620829717891,-0.048887868829098,0.0703367061060819,4
0.46002197265625,-0.161176711320877,2.90575194358826,1.14999866485596,-0.0798530997696509,2.93145782244394,1.19228996286983,1539.938,1157.651,3253.968,2939.091,-0.04788524,0.01718343,0.1193448,-0.486541569232941,-0.0986442938446999,0.105084791779518,-0.123107133063502,-0.0529695601420796,0.0762091797723108,4
0.480010986328125,-0.171193569898605,2.90383625030518,1.15224015712738,-0.0824109101018722,2.93035726811493,1.19387336931088,1476.1,1086.931,3246.167,3066.5,-0.04628681,0.01998804,0.1173747,-0.500842750072479,-0.0957820937037468,0.112076111137867,-0.132860437136906,-0.0571661344090936,0.082246939608052,5
0.5,-0.181481122970581,2.90198349952698,1.15461719036102,-0.085166398670376,2.92917165836334,1.1955791479969,1431.873,1046.202,3217.285,3168.925,-0.04434003,0.02264362,0.1152213,-0.514377892017365,-0.0926424488425255,0.118851855397224,-0.142884000065179,-0.0614789935111996,0.0884520025491718,5
0.52001953125,-0.192024439573288,2.9001989364624,1.15713655948639,-0.0881295333471192,2.92789670429234,1.19741346951549,1421.242,1044.311,3178.928,3211.855,-0.04192188,0.0253747,0.1118948,-0.527166366577148,-0.0892331674695015,0.125970974564552,-0.153182839569029,-0.0659102964334391,0.0948274748038155,5
0.540008544921875,-0.202804744243622,2.89848613739014,1.15981101989746,-0.0912963635428427,2.92653410573011,1.19937388826368,1447.675,1074.127,3146.466,3184.045,-0.03929068,0.02828961,0.1070485,-0.539015650749207,-0.085643894970417,0.133723735809326,-0.163714777034477,-0.0704418948965508,0.101347245800684,5
0.560028076171875,-0.21379816532135,2.89684534072876,1.16265439987183,-0.0946814376832659,2.92507760289551,1.20146941041005,1484.619,1113.876,3139.448,3113.163,-0.03689011,0.03132797,0.1010559,-0.549670994281769,-0.0820350423455238,0.142168760299683,-0.174501277970274,-0.0750830249092739,0.108024603712238,5
0.58001708984375,-0.224976554512978,2.89527368545532,1.16566932201385,-0.0982790918331175,2.92352963282165,1.20369652970884,1520.657,1148.835,3145.263,3035.839,-0.03514414,0.03434339,0.09465612,-0.558917999267578,-0.0785806477069855,0.15074747800827,-0.185498893714783,-0.0798149917263209,0.114832651747179,5
0.600006103515625,-0.236311376094818,2.89376521110535,1.16885352134705,-0.102098762959148,2.92188613504538,1.20606108809202,1539.732,1166.865,3164.832,2978.704,-0.03430844,0.03715766,0.0886218,-0.566742956638336,-0.0754263177514076,0.159210905432701,-0.196713446836865,-0.0846403006364086,0.121774994352997,5
0.620025634765625,-0.247776880860329,2.89231157302856,1.17219686508179,-0.106151036002673,2.92014255516215,1.2085696381425,1532.64,1166.732,3183.175,2965.552,-0.03442296,0.03962679,0.08347259,-0.573275685310364,-0.0726766809821129,0.167168736457825,-0.208152193747382,-0.0895620738704106,0.128856123593688,5
0.6400146484375,-0.259352266788483,2.89090371131897,1.17568826675415,-0.110427588881679,2.91830247393137,1.21121702809507,1510.286,1157.003,3191.905,2985.637,-0.03533695,0.04169967,0.07929658,-0.578768789768219,-0.0703896805644035,0.174569427967072,-0.21977002223474,-0.0945609009039674,0.136048112861281,5
0.660003662109375,-0.271022260189056,2.88953161239624,1.17932212352753,-0.114938248900541,2.91636166293851,1.21400934151928,1467.478,1144.393,3198.432,3030.065,-0.03678411,0.04338507,0.0759061,-0.583500325679779,-0.0686025470495224,0.181693121790886,-0.231574097577923,-0.0996398647564507,0.143355397804799,5
0.680023193359375,-0.282775491476059,2.88818502426147,1.18309187889099,-0.119694071710854,2.91431536524554,1.21695342239012,1425.343,1139.005,3192.18,3078.054,-0.03845178,0.04477045,0.07289901,-0.587661266326904,-0.0673330724239349,0.18848717212677,-0.243572831403349,-0.104802584715715,0.150783185621694,5
0.70001220703125,-0.294602692127228,2.88685345649719,1.18699371814728,-0.124683985757554,2.91216834463331,1.22004241688759,1406.995,1146.722,3174.986,3101.157,-0.04016473,0.04596753,0.0698553,-0.591359913349152,-0.066581703722477,0.195094868540764,-0.255719729227087,-0.11002905550423,0.158302694011575,5
0.720001220703125,-0.306495249271393,2.88552618026733,1.19103062152863,-0.129918284978346,2.90991617190799,1.22328269744952,1394.343,1163.105,3164.531,3104.997,-0.04193307,0.04702149,0.06662344,-0.594628572463989,-0.0663665235042572,0.201846212148666,-0.268023157655716,-0.11532287703907,0.16591910230247,5
0.740020751953125,-0.318443924188614,2.8841917514801,1.1952018737793,-0.135408560960145,2.90755385953358,1.22668143982036,1388.613,1184.596,3154.978,3096.662,-0.0438319,0.04794849,0.06322765,-0.597434341907501,-0.0667177885770798,0.208564430475235,-0.280492548100696,-0.120688107393104,0.173638248987353,5
0.760009765625,-0.330439209938049,2.88283848762512,1.19950604438782,-0.141140917956636,2.9050873864615,1.23023004187122,1396.276,1208,3147.082,3072.871,-0.0459896,0.04873755,0.05980241,-0.599765121936798,-0.0676675662398338,0.215209797024727,-0.293080296154222,-0.126104263719567,0.181430664670081,5
0.780029296875,-0.34247225522995,2.88145327568054,1.20394444465637,-0.147135516931739,2.90250807799222,1.23394098419916,1388.103,1226.721,3151.996,3057.421,-0.04854144,0.04932014,0.05664356,-0.601653218269348,-0.0692604407668114,0.221917778253555,-0.305815338775367,-0.131583796783543,0.189314262706778,5
0.800018310546875,-0.354535430669785,2.88002276420593,1.20851051807404,-0.153376545303595,2.89982273783796,1.23780447806275,1372.988,1240.578,3153.15,3056.444,-0.05149648,0.04965869,0.05393832,-0.603157222270966,-0.0715244710445404,0.228306710720062,-0.318649478366155,-0.137105968505107,0.197259206488328,5
0.82000732421875,-0.366623520851135,2.87853312492371,1.21320152282715,-0.159875221826383,2.89702653888221,1.24182746840525,1351.71,1250.69,3158.383,3061.155,-0.05477164,0.04973495,0.05176766,-0.604405224323273,-0.0744783878326416,0.234551012516022,-0.331592781842754,-0.14267511039705,0.205271727915392,4
0.84002685546875,-0.378733605146408,2.87697076797485,1.21801030635834,-0.166644154783139,2.89411405613301,1.24601776035448,1322.749,1259.06,3156.96,3081.043,-0.05826304,0.049552,0.05012521,-0.605504274368286,-0.0781122148036957,0.240437343716621,-0.344656091553402,-0.148295887618918,0.213358538918022,4
0.860015869140625,-0.390864968299866,2.8753228187561,1.22293055057526,-0.173664618315387,2.89109334680413,1.25036376171199,1305.728,1269.375,3148.411,3094.815,-0.06185884,0.04915337,0.04886209,-0.606568217277527,-0.0824017077684402,0.246014982461929,-0.357790534090669,-0.153947271308859,0.221489384528856,4
0.8800048828125,-0.403018712997437,2.87357616424561,1.22796249389648,-0.180948461186242,2.88795931270381,1.25487280742661,1278.564,1281.28,3146.2,3111.67,-0.0655111,0.04855471,0.04791889,-0.607687771320343,-0.0873339921236038,0.251598000526428,-0.371007022483504,-0.159633957038354,0.229671020432672,4
0.9000244140625,-0.415196716785431,2.87171864509583,1.23310172557831,-0.188508963212068,2.88470623989808,1.25955311833725,1253.866,1294.736,3140.122,3128.146,-0.06912448,0.04779913,0.04719942,-0.608902037143707,-0.0928791388869286,0.256964027881622,-0.384317079523421,-0.165360902742685,0.237910579786325,4
0.920013427734375,-0.427401602268219,2.86973857879639,1.23834443092346,-0.196324452211266,2.88134345332121,1.26439127833112,1250.414,1311.029,3130.047,3126.178,-0.07265796,0.0469355,0.0466038,-0.610243201255798,-0.0990011245012283,0.262134283781052,-0.397671404529394,-0.171106895716105,0.246177543119742,4
0.94000244140625,-0.43963634967804,2.86762499809265,1.24369215965271,-0.204407453948074,2.87786556348678,1.26939504145298,1237.227,1327.015,3129.599,3126.25,-0.07617866,0.04595046,0.04622348,-0.611736595630646,-0.105682522058487,0.267388314008713,-0.411081631631503,-0.176876941799768,0.254479112513653,4
0.96002197265625,-0.451904147863388,2.86536717414856,1.24914109706879,-0.21277195700315,2.87426655149935,1.27457306730061,1222.14,1340.646,3127.407,3132.225,-0.07967485,0.04484886,0.04611226,-0.613391518592834,-0.112886473536491,0.272449225187302,-0.424559845004915,-0.182676240476657,0.262822768648136,3
0.980010986328125,-0.464209079742432,2.86295580863953,1.25468754768372,-0.221393324468958,2.87055701793193,1.27991010445463,1222.159,1353.467,3122.196,3128.249,-0.08313217,0.04365002,0.04625907,-0.615248441696167,-0.120574034750462,0.277320057153702,-0.438056556301695,-0.188483498293199,0.271177875878363,3
1,-0.476556301116943,2.86038136482239,1.26033294200897,-0.230284798736574,2.86673126495361,1.28541435058594,1205.667,1363.971,3126.009,3135.066,-0.08659109,0.04232886,0.04676661,-0.617359459400177,-0.128725931048393,0.282272607088089,-0.451584000205995,-0.194303979492187,0.279552008056641,3
1.02001953125,-0.488951474428177,2.85763549804688,1.26607346534729,-0.239461107372567,2.86278295570393,1.29109492275982,1186.156,1371.807,3126.232,3150.508,-0.08997063,0.0409019,0.04762139,-0.619758248329163,-0.137293457984924,0.287024646997452,-0.465154707681581,-0.200143075797255,0.287952922446475,3
1.04000854492188,-0.501401364803314,2.85471105575562,1.27190518379211,-0.248894644448595,2.85872396824263,1.29693473159157,1184.69,1380.1,3120.769,3154.358,-0.09320052,0.03941095,0.04871628,-0.622494876384735,-0.146223098039627,0.291584521532059,-0.47871923339115,-0.205979512261105,0.296350010028666,3
1.06002807617188,-0.513913691043854,2.85160136222839,1.27783060073853,-0.258614425333445,2.85454181806712,1.30295173897666,1170.364,1387.891,3123.32,3164.878,-0.09630044,0.03785181,0.05007492,-0.625613451004028,-0.155484959483147,0.296273946762085,-0.49231101665365,-0.211827676888493,0.304763971334579,3
1.08001708984375,-0.526495933532715,2.84830117225647,1.28384613990784,-0.268590868588476,2.85024923324404,1.30912763259543,1161.098,1394.967,3119.305,3177.59,-0.09922405,0.0362574,0.05162998,-0.629116058349609,-0.165013641119003,0.300779163837433,-0.505880764601332,-0.21766636033551,0.313164291730931,3
1.10000610351563,-0.53915673494339,2.84480547904968,1.28995442390442,-0.278838480013141,2.84583997233313,1.31547139222872,1155.71,1401.559,3122.188,3181.433,-0.1019245,0.03465136,0.05333282,-0.633039057254791,-0.174779757857323,0.305416017770767,-0.519441457145546,-0.223501147495394,0.321559006401169,3
1.12002563476563,-0.551904022693634,2.8411111831665,1.29615390300751,-0.28937326791995,2.84130714740473,1.32199292778458,1149.374,1407.753,3121.345,3190.684,-0.1044007,0.03304756,0.05518066,-0.637363851070404,-0.184718698263168,0.309973746538162,-0.533006127404302,-0.22933764615472,0.329956183466192,3
1.1400146484375,-0.564745962619781,2.83721566200256,1.30244326591492,-0.300162704591434,2.83666475422696,1.32867210305637,1159.752,1413.969,3116.605,3188.704,-0.1066649,0.03147594,0.0571089,-0.642095744609833,-0.194773331284523,0.314468443393707,-0.54652589017629,-0.235154822377061,0.338325560657667,3
1.16000366210938,-0.57769101858139,2.83311724662781,1.30882811546326,-0.311222084148811,2.83190621216671,1.33551838583369,1154.382,1418.325,3123.204,3194.2,-0.1087859,0.02991414,0.05919254,-0.647252261638641,-0.204926505684853,0.319245249032974,-0.560014026276883,-0.240958390526247,0.34667535943296,3
1.18002319335938,-0.590747237205505,2.82881474494934,1.31530809402466,-0.322568202252263,2.82702429452064,1.34254217343029,1146.401,1420.3,3127.304,3206.375,-0.1107135,0.02837621,0.0614217,-0.652812421321869,-0.215124040842056,0.323996990919113,-0.573483731835696,-0.246754028528194,0.355013748824923,3
1.20001220703125,-0.603922784328461,2.82430863380432,1.32188189029694,-0.334165615614823,2.82203425154496,1.34972152476313,1158.545,1422.82,3125.286,3205.102,-0.1124131,0.0268992,0.06370519,-0.658781945705414,-0.225310981273651,0.328690499067307,-0.586886736182789,-0.252520966862155,0.363310846989412,3
1.22000122070313,-0.617226362228394,2.81959915161133,1.3285551071167,-0.346030421585499,2.81692915700008,1.35706640485806,1156.445,1423.932,3132.561,3211.333,-0.1139449,0.0254616,0.06610069,-0.6651771068573,-0.235468953847885,0.333662271499634,-0.600236516861372,-0.258265004538453,0.371574997167698,3
1.24002075195313,-0.630665719509125,2.81468820571899,1.33532786369324,-0.358180209983518,2.8117014424782,1.36458770265112,1152.34,1423.311,3136.612,3223.789,-0.1152691,0.02407824,0.06858003,-0.671970725059509,-0.245544523000717,0.338640153408051,-0.613546334788502,-0.263991847359231,0.379814408499145,2
1.260009765625,-0.644248962402344,2.80957841873169,1.34220004081726,-0.37057666480527,2.80636759428526,1.37226169871082,1167.108,1423.936,3134.475,3223.358,-0.1163706,0.02278572,0.07104059,-0.679159641265869,-0.255487263202667,0.343609482049942,-0.626768731761373,-0.26968107538565,0.387999702095469,2
1.280029296875,-0.657984018325806,2.80427265167236,1.34917855262756,-0.383256224448249,2.80091193399677,1.38011095014101,1167.072,1423.19,3143.154,3229.22,-0.1173122,0.02156148,0.07353274,-0.686752319335938,-0.265290498733521,0.348926514387131,-0.639937296597118,-0.275347140947359,0.39615167103453,2
1.30001831054688,-0.671878039836884,2.79877471923828,1.35626316070557,-0.396178686849666,2.79535175943725,1.38811056994974,1170.929,1422.071,3145.041,3237.593,-0.1180776,0.02042436,0.07601757,-0.694698393344879,-0.274901777505875,0.35422819852829,-0.653005218467598,-0.280969902652754,0.404241337183804,2
1.32000732421875,-0.68593817949295,2.79308843612671,1.36345911026001,-0.409361504843077,2.78967956113998,1.39627136227237,1176.627,1419.709,3154.021,3238.892,-0.1186364,0.01938155,0.07846995,-0.703009128570557,-0.284313291311264,0.359797298908234,-0.6659860834168,-0.286555206197011,0.41227711095171,2
1.34002685546875,-0.700170755386353,2.78721880912781,1.37076711654663,-0.422823591595166,2.78388720129772,1.40460503526004,1181.439,1417.392,3157.961,3245.66,-0.1189986,0.01843616,0.08089191,-0.711633324623108,-0.29347750544548,0.365399152040482,-0.67889305416841,-0.29210871513241,0.420267140691238,2
1.36001586914063,-0.714581787586212,2.78117179870605,1.37818777561188,-0.4365219692899,2.77799317206405,1.4130849835973,1201.404,1416.286,3156.017,3242.899,-0.1192052,0.01760737,0.08321831,-0.720553040504456,-0.30235555768013,0.371034920215607,-0.691680442442074,-0.297610771068296,0.428183143180414,2
1.3800048828125,-0.729177355766296,2.77495265007019,1.38572943210602,-0.450474904562636,2.77198961381608,1.4217225152016,1203.258,1412.734,3167.3,3247.879,-0.1193277,0.01686003,0.08551857,-0.72977614402771,-0.310962527990341,0.377082139253616,-0.704361775018035,-0.303067194200314,0.436033492140578,2
1.4000244140625,-0.743962228298187,2.76856708526611,1.39339351654053,-0.464702095472036,2.76586805102946,1.43052982410961,1201.94,1407.973,3175.737,3258.321,-0.1193091,0.01620248,0.08777798,-0.739246368408203,-0.319272696971893,0.383204936981201,-0.716950039288891,-0.308483572640673,0.443826227386424,2
1.42001342773438,-0.758940994739532,2.76202201843262,1.40117967128754,-0.479157861067077,2.75964813894125,1.43947863163655,1221.669,1405.563,3175.211,3254.692,-0.1191306,0.01566799,0.08990316,-0.748937427997589,-0.327251583337784,0.389306336641312,-0.729400843645231,-0.313840805920001,0.451533868397062,2
1.44000244140625,-0.77411812543869,2.75532388687134,1.40909469127655,-0.493861275572861,2.75332167044526,1.4485807456364,1227.355,1401.344,3185.318,3256.872,-0.1188633,0.01522242,0.09196056,-0.758853852748871,-0.334911555051804,0.395752161741257,-0.741727567798258,-0.319144650954242,0.459164697851088,2
1.46002197265625,-0.789496839046478,2.74847936630249,1.41713976860046,-0.50883280894277,2.74687983789241,1.45784883798541,1229.232,1396.295,3191.922,3265.71,-0.1184878,0.0148663,0.09394624,-0.768937945365906,-0.34223073720932,0.402251571416855,-0.753942941956197,-0.324400585196357,0.466726596353819,2
1.48001098632813,-0.80508017539978,2.74149560928345,1.42531478404999,-0.524024159888143,2.74034342397783,1.467253007885,1248.791,1393.622,3190.826,3262.469,-0.11801,0.0146259,0.09577531,-0.77916556596756,-0.349186539649963,0.408750176429749,-0.766004036374583,-0.329590137176618,0.474192988348404,2
1.5,-0.82087105512619,2.734379529953,1.43362712860107,-0.539455198877605,2.73370387899399,1.4768055561018,1252.283,1388.684,3202.459,3264.992,-0.117488,0.01446413,0.09751586,-0.789543330669403,-0.355806469917297,0.415618777275085,-0.777924000354858,-0.334718964672088,0.481572013878822,1
1.52001953125,-0.836871147155762,2.72713804244995,1.44207739830017,-0.555147149984933,2.72695207081487,1.48651962134853,1252.821,1383.248,3209.971,3273.187,-0.1168776,0.01438496,0.09916376,-0.800004959106445,-0.362077921628952,0.422512024641037,-0.789715229532175,-0.33979240117828,0.488871346433721,1
1.54000854492188,-0.853081583976746,2.71977853775024,1.45066428184509,-0.571049184024557,2.72010986981902,1.49636373793799,1273.477,1380.77,3207.911,3268.105,-0.1161815,0.01441551,0.1006345,-0.81052154302597,-0.367980122566223,0.429344147443771,-0.801336412291853,-0.344792671461508,0.496065412155667,1
1.56002807617188,-0.869503676891327,2.7123076915741,1.45939445495605,-0.587206756460638,2.71315771779009,1.50636604496784,1278.237,1375.91,3218.525,3268.912,-0.1154709,0.01451469,0.1020051,-0.821103751659393,-0.373544096946716,0.43651157617569,-0.812817768080001,-0.349732778105201,0.503172918321354,1
1.58001708984375,-0.886137306690216,2.7047324180603,1.46826684474945,-0.603567408310176,2.70611818636293,1.51649406782863,1283.842,1371.915,3221.11,3274.386,-0.1147455,0.01468551,0.1032653,-0.831680595874786,-0.378758460283279,0.443618476390839,-0.824119146742882,-0.35459544561987,0.510169010073001,0
1.60000610351563,-0.902982592582703,2.69705939292908,1.47728562355042,-0.620152298932711,2.69898217125626,1.52676090517188,1289.192,1366.413,3231.528,3273.454,-0.1139631,0.01492607,0.1044044,-0.842267155647278,-0.383651077747345,0.450937867164612,-0.835253140422976,-0.35938609205264,0.51706148254665,0
1.62002563476563,-0.92003858089447,2.68929529190063,1.48644936084747,-0.636983857763694,2.69174002171061,1.53718044188659,1293.558,1361.924,3235.235,3277.944,-0.1131183,0.01523336,0.1054288,-0.852801024913788,-0.388209581375122,0.458187639713287,-0.846231427202183,-0.364109742155907,0.523857565031302,0
1.6400146484375,-0.937303841114044,2.68144679069519,1.49575638771057,-0.654007271984653,2.68441532215046,1.54771874622704,1313.575,1360.318,3230.663,3272.616,-0.1122597,0.01562257,0.1062737,-0.863261342048645,-0.392423033714294,0.465351015329361,-0.857015715678588,-0.368749920209162,0.530533553325099,0
1.66000366210938,-0.954777240753174,2.6735200881958,1.50521349906921,-0.671244443874359,2.67699864863716,1.55838937674714,1314.06,1355.548,3241.937,3274.044,-0.1114512,0.01604824,0.1070215,-0.873669505119324,-0.396339803934097,0.472855150699615,-0.867618167158098,-0.373311858882592,0.53709697585572,0
1.68002319335938,-0.972456395626068,2.66552066802979,1.51481974124908,-0.688718488267733,2.66948005550297,1.56920664263081,1309.661,1350.446,3249.479,3281.928,-0.1106277,0.01651302,0.1076772,-0.883958041667938,-0.399969935417175,0.480310589075089,-0.87804994059578,-0.377800359562815,0.543554740547927,0
1.70001220703125,-0.990338385105133,2.65745449066162,1.52457129955292,-0.706372354049449,2.66188409024902,1.58013522651994,1327.711,1349.056,3245.596,3275.021,-0.1097696,0.0170493,0.1081529,-0.894098401069641,-0.403303265571594,0.487580597400665,-0.888274735793774,-0.382199803288802,0.549884375850026,0
1.72000122070313,-1.008420586586,2.64932703971863,1.53447282314301,-0.724228658537036,2.6542010212754,1.5911891296115,1331.038,1345.204,3254.247,3273.098,-0.1089451,0.01761365,0.1085328,-0.904111862182617,-0.406376481056213,0.495077252388,-0.898304216251578,-0.386515208538549,0.556093102023817,0
1.74002075195313,-1.02669942378998,2.64114308357239,1.54452228546143,-0.742311168965756,2.64642062220478,1.6023830649563,1328.305,1341.036,3258.691,3279.785,-0.1081318,0.01819965,0.1088356,-0.913940787315369,-0.409196376800537,0.502472639083862,-0.908148960779607,-0.390751127078638,0.562187467856884,0
1.760009765625,-1.04517078399658,2.63290786743164,1.55471611022949,-0.760560719141003,2.63856835059778,1.61368040586141,1343.982,1340.12,3253.83,3274.092,-0.1073302,0.01883301,0.1089799,-0.923569560050964,-0.411760538816452,0.509690225124359,-0.91777478390713,-0.394892849856044,0.568146310914365,0
1.780029296875,-1.06383144855499,2.62462568283081,1.56505882740021,-0.7790289055498,2.63062200592748,1.62511309301018,1342.672,1336.417,3263.372,3273.737,-0.1065866,0.01947307,0.1090454,-0.93302595615387,-0.414115011692047,0.517138600349426,-0.927207006545171,-0.398951271751399,0.573985306046387,0
1.80001831054688,-1.08267629146576,2.61630034446716,1.57554602622986,-0.797655223615693,2.62260762162281,1.63664367118754,1343.056,1334.325,3262.949,3278.147,-0.1058814,0.02012667,0.109022,-0.942241489887238,-0.416261374950409,0.524358093738556,-0.936412917636689,-0.402912318110697,0.579684203550397,0
1.82000732421875,-1.10170114040375,2.60793566703796,1.58617889881134,-0.816463410111527,2.61451498441355,1.64828683458664,1345.22,1330.982,3270.152,3274.209,-0.1051618,0.02079514,0.1088987,-0.951246976852417,-0.418231844902039,0.53164666891098,-0.94540321420156,-0.406780591562751,0.585249625391268,0
1.84002685546875,-1.12090086936951,2.5995352268219,1.59695327281952,-0.835478236913388,2.60633343565348,1.6600579181788,1345.377,1328.859,3270.074,3277.195,-0.1044316,0.02147275,0.1086949,-0.959989309310913,-0.420021384954453,0.538717746734619,-0.954187384555097,-0.410560174664568,0.59068744528817,0
1.86001586914063,-1.1402702331543,2.59110283851624,1.60786461830139,-0.854637305360818,2.59808982374295,1.67191829422076,1361.245,1329.755,3261.743,3270.25,-0.1037424,0.02217473,0.1083478,-0.968462228775024,-0.421625345945358,0.545570433139801,-0.962735018414262,-0.414237982720922,0.595978837827261,0
1.8800048828125,-1.15980434417725,2.58264088630676,1.61891782283783,-0.873964974649439,2.58977366760063,1.68388304221498,1355.957,1327.222,3270.828,3270.397,-0.103149,0.02285481,0.1079498,-0.976704359054565,-0.423097372055054,0.552661716938019,-0.971056158224177,-0.417818336715394,0.601130019760457,0
1.9000244140625,-1.17949748039246,2.57415175437927,1.63010907173157,-0.893486564535158,2.58137407284289,1.69596783629653,1345.364,1324.446,3275.638,3277.77,-0.1025722,0.02351829,0.1075107,-0.984658539295197,-0.424453616142273,0.559562385082245,-0.979159571260204,-0.421305008961645,0.606146418448853,0
1.92001342773438,-1.19934368133545,2.56563806533813,1.6414315700531,-0.913137923350175,2.5729186421402,1.70813296352707,1359.619,1325.593,3267.909,3269.022,-0.1019799,0.02420398,0.1069364,-0.992309093475342,-0.425683200359344,0.566124200820923,-0.987017247723777,-0.424685947625853,0.611010694492843,0
1.94000244140625,-1.2193375825882,2.55710172653198,1.65288758277893,-0.932943991899774,2.5643966441608,1.72039386345315,1358.697,1324.297,3273.39,3265.326,-0.1014419,0.02486748,0.1063193,-0.999693930149078,-0.42681959271431,0.572801411151886,-0.994638524886308,-0.427965170275055,0.615728628108227,0
1.96002197265625,-1.23947298526764,2.54854440689087,1.66447257995605,-0.952930593197372,2.55579696798345,1.73276652175022,1350.325,1322.584,3274.552,3271.936,-0.1009359,0.02550324,0.1056845,-1.00676846504211,-0.427869498729706,0.579252660274506,-1.00203140433628,-0.431146119769234,0.620305172659443,0
1.98001098632813,-1.25974357128143,2.53996777534485,1.67618072032928,-0.973031969359004,2.54714790738853,1.74521023115561,1361.74,1324.033,3266.326,3265.133,-0.1004512,0.02614257,0.1049432,-1.01353216171265,-0.428828179836273,0.585405170917511,-1.00917036754089,-0.434217816196637,0.624724530959079,0
2,-1.28014397621155,2.53137302398682,1.68801462650299,-0.993273599084619,2.53843849960327,1.7577407641983,1355.513,1322.827,3273.247,3263.672,-0.1000299,0.0267464,0.1041801,-1.02002644538879,-0.429737091064453,0.591696858406067,-1.01606400046349,-0.437183953857422,0.628992018127441,0
2.02001953125,-1.30066812038422,2.52276110649109,1.69996893405914,-1.01368176147806,2.52965743746343,1.77037438889544,1344.633,1321.539,3274.567,3270.416,-0.09961075,0.02731949,0.1034056,-1.02620244026184,-0.430600583553314,0.597713887691498,-1.0227194988233,-0.440047628868552,0.633112088657522,0
2.04000854492188,-1.32130908966064,2.51413297653198,1.71203625202179,-1.03418924440916,2.52083364047092,1.78306949773667,1357.666,1323.808,3264.593,3261.439,-0.09917878,0.02789857,0.1025237,-1.03205740451813,-0.431404113769531,0.603366374969482,-1.02911391720548,-0.442798968459032,0.637070538244476,0
2.06002807617188,-1.34206175804138,2.50548934936523,1.72421896457672,-1.05485361174044,2.51194234050386,1.79586172549507,1353.052,1323.589,3269.494,3258.365,-0.09880327,0.02843976,0.10163,-1.03763484954834,-0.432181507349014,0.609133183956146,-1.03526422946899,-0.445445276006189,0.640877874515594,0
2.08001708984375,-1.36291968822479,2.496830701828,1.73650991916656,-1.07560676837143,2.50301283698163,1.80870891805959,1347.527,1324.333,3264.965,3263.004,-0.09847837,0.02894849,0.1007258,-1.04288363456726,-0.432928591966629,0.614550054073334,-1.0411492471255,-0.447977434695423,0.644520980787238,0
2.10000610351563,-1.38387656211853,2.48815727233887,1.74890899658203,-1.09647498538954,2.49403382618922,1.82162733848484,1343.626,1323.542,3269.582,3258.384,-0.09813322,0.02943159,0.09979534,-1.04785263538361,-0.433672368526459,0.619951725006104,-1.04677621342161,-0.450398561093403,0.648004340974112,0
2.12002563476563,-1.40492653846741,2.47946929931641,1.76140928268433,-1.11748519122939,2.48499372157354,1.8346336567546,1337.613,1323.838,3266.52,3261.411,-0.09775718,0.02988869,0.09885746,-1.05250072479248,-0.434398949146271,0.62501460313797,-1.05215090364426,-0.452711140144745,0.65133153025393,0
2.1400146484375,-1.4260630607605,2.47076749801636,1.77400398254395,-1.13856809990831,2.47592233495728,1.84768498154507,1350.487,1326.839,3254.723,3252.482,-0.09738381,0.03034302,0.09783923,-1.05683445930481,-0.435090690851212,0.629734694957733,-1.05725481901126,-0.454907212340279,0.654491096999312,0
2.16000366210938,-1.44728124141693,2.46205186843872,1.78669607639313,-1.15975039167652,2.46680818657414,1.86079782920208,1341.575,1326.933,3260.113,3251.458,-0.09708181,0.03074959,0.09683973,-1.06090152263641,-0.435785830020905,0.634604334831238,-1.0620943502576,-0.456989527434725,0.657486997379635,0
2.18002319335938,-1.4685742855072,2.45332217216492,1.79947984218597,-1.18105931486702,2.45763955222766,1.87398906774178,1326.126,1326.328,3261.248,3259.58,-0.09677448,0.03111685,0.0958675,-1.06466031074524,-0.436487406492233,0.639188528060913,-1.0666743814704,-0.458960186914335,0.660322254877504,0
2.20001220703125,-1.4899365901947,2.44457864761353,1.8123471736908,-1.20242455577657,2.44844668594002,1.88721516963236,1337.401,1328.916,3250.979,3249.595,-0.09641495,0.03148923,0.09481541,-1.06811082363129,-0.437175154685974,0.643364429473877,-1.07097916161324,-0.460812413548163,0.662987118851036,0
2.22000122070313,-1.51136231422424,2.43582129478455,1.8252991437912,-1.22387315175433,2.43921795429519,1.90049287228091,1332.383,1329.561,3254.141,3245.324,-0.0960746,0.03182548,0.09378093,-1.07129442691803,-0.437870532274246,0.64760148525238,-1.07501419914593,-0.462548577472581,0.665484999299265,0
2.24002075195313,-1.53284597396851,2.42705011367798,1.83832967281342,-1.24543261682529,2.42994151877688,1.91383920817958,1320.48,1329.443,3252.391,3251.919,-0.0957236,0.03212561,0.0927848,-1.07417523860931,-0.438564896583557,0.651526391506195,-1.07878346314438,-0.464170386470068,0.667818353269249,0
2.260009765625,-1.55438113212585,2.4182653427124,1.85143136978149,-1.26703177594152,2.42064800401982,1.92721011658316,1330.913,1331.822,3241.634,3243.229,-0.0953433,0.032426,0.09172846,-1.07676303386688,-0.439240097999573,0.655086815357208,-1.08227399942825,-0.465672266718726,0.669979161506271,0
2.280029296875,-1.575963139534,2.4094672203064,1.86460638046265,-1.28873109644562,2.41131139261574,1.94064302965718,1322.393,1332.125,3245.916,3241.09,-0.09499069,0.03268785,0.09070357,-1.07910120487213,-0.439923405647278,0.65874856710434,-1.08549510920706,-0.467058220269158,0.671973181902092,0
2.30001831054688,-1.59758603572845,2.40065503120422,1.87784647941589,-1.31045892272318,2.4019625159737,1.95409358916289,1315.064,1333.074,3239.941,3245.749,-0.09463862,0.03292467,0.08969674,-1.08114349842072,-0.440598130226135,0.662005424499512,-1.08843572622736,-0.468323485621664,0.673793563918671,0
2.32000732421875,-1.61924493312836,2.39182949066162,1.89115083217621,-1.33224276726637,2.39258953623693,1.96757882664355,1311.876,1332.774,3242.594,3239.248,-0.09421571,0.0331472,0.08868366,-1.08293926715851,-0.441278874874115,0.665215909481049,-1.09109983431736,-0.469469776906228,0.675442773735451,0
2.34002685546875,-1.64093399047852,2.38299059867859,1.90451216697693,-1.35411046309062,2.38318047763645,1.98111597206157,1305.539,1333.374,3237.503,3241.99,-0.09372836,0.03335378,0.08768795,-1.08445119857788,-0.441939771175385,0.668065428733826,-1.09348983658457,-0.470498128112872,0.676922298990446,0
2.36001586914063,-1.6626478433609,2.37413954734802,1.91792368888855,-1.3759897762471,2.37376642042246,1.99466030916165,1318.562,1335.941,3224.899,3231.996,-0.0932101,0.03356871,0.08663241,-1.0856899023056,-0.442557245492935,0.670574367046356,-1.09559752564474,-0.471405007833448,0.678227058921845,0
2.3800048828125,-1.68438160419464,2.36527633666992,1.93138837814331,-1.39790843013262,2.36433543599182,2.00822900004707,1308.519,1336.138,3229.217,3231.004,-0.09273607,0.03374822,0.08561849,-1.08669781684875,-0.443161725997925,0.673234879970551,-1.09742594550583,-0.472191725819537,0.679358937915576,0
2.4000244140625,-1.70613050460815,2.35640144348145,1.94490039348602,-1.41989437329222,2.3548754988664,2.02183934619858,1292.475,1335.24,3229.414,3238.942,-0.09222473,0.03390349,0.0846479,-1.08743834495544,-0.443747758865356,0.675601363182068,-1.09897654259203,-0.472858904427064,0.68031883137712,0
2.42001342773438,-1.72788858413696,2.34751558303833,1.95845150947571,-1.44187496577138,2.34541786398928,2.035446380024,1304.38,1336.878,3218.766,3227.779,-0.0916202,0.03408047,0.08360831,-1.08791327476501,-0.444289088249207,0.677556335926056,-1.1002439936861,-0.473404253224357,0.681103443981416,0
2.44000244140625,-1.74965167045593,2.33861947059631,1.97204291820526,-1.46387808506052,2.33595053645515,2.04906735901791,1300.121,1337.23,3220.682,3222.587,-0.09100394,0.03423928,0.08259772,-1.08815729618073,-0.444798797369003,0.679570734500885,-1.10123038958312,-0.473828671822132,0.681714070030222,0
2.46002197265625,-1.77141439914703,2.32971429824829,1.98566842079163,-1.48593173759011,2.32646146587939,2.06271962049488,1288.533,1336.421,3217.983,3228.935,-0.09035306,0.03437971,0.08163548,-1.08813858032227,-0.445261567831039,0.681277871131897,-1.10193621258339,-0.474132367740737,0.682151008090402,0
2.48001098632813,-1.79317188262939,2.32080149650574,1.99932110309601,-1.5079630509786,2.31698200721197,2.07635805297935,1299.786,1337.474,3207.119,3219.351,-0.08964307,0.03453806,0.080618,-1.08786797523499,-0.445656001567841,0.682635247707367,-1.10235904000526,-0.474314298567936,0.682412758406602,0
2.5,-1.81491947174072,2.31188154220581,2.01300311088562,-1.52999999932945,2.30750012397766,2.08999997377396,1291.638,1337.121,3210.51,3216.952,-0.08893893,0.03467704,0.07963561,-1.08738100528717,-0.446003764867783,0.684103608131409,-1.10250000050292,-0.474374949932098,0.682500019669533,0
2.52001953125,-1.83665227890015,2.30295538902283,2.02670836448669,-1.55207058900185,2.29800376582252,2.10366272014916,1278.456,1335.763,3209.02,3223.577,-0.08817779,0.03480614,0.0786895,-1.08664345741272,-0.446291863918304,0.68526566028595,-1.10235860927677,-0.474314113237503,0.682412491765153,0
2.54000854492188,-1.85836541652679,2.29402565956116,2.04042935371399,-1.57410188948011,2.28852431271001,2.11730114464159,1291.622,1336.545,3197.937,3212.021,-0.08732505,0.03496508,0.07767158,-1.08565950393677,-0.446494609117508,0.686048209667206,-1.10193535162022,-0.474131997292339,0.682150475113189,0
2.56002807617188,-1.88005447387695,2.28509306907654,2.05416774749756,-1.59615552046312,2.27903525140514,2.1309533927802,1286.588,1336.274,3199.74,3207.803,-0.08646645,0.03511397,0.07667908,-1.08445930480957,-0.446626633405685,0.686919033527374,-1.10122909805959,-0.473828116115641,0.681713270515638,0
2.58001708984375,-1.90171480178833,2.27615976333618,2.06791639328003,-1.6181586096433,2.26956793682606,2.14457435313522,1281.426,1335.777,3193.012,3211.104,-0.08559666,0.03526136,0.07570388,-1.08300590515137,-0.446669042110443,0.687426686286926,-1.10024227275454,-0.473403512755585,0.681102378642802,0
2.60000610351563,-1.92334151268005,2.26722693443298,2.08167481422424,-1.64013916343638,2.26011031859448,2.15818136301212,1278.213,1333.965,3195.461,3204.878,-0.0846539,0.03541479,0.07472376,-1.0813410282135,-0.446635991334915,0.687927007675171,-1.09897439291323,-0.472857979480329,0.680317500623536,0
2.62002563476563,-1.94493019580841,2.25829672813416,2.09543681144714,-1.66212505926897,2.25065040183254,2.17179167986595,1272.16,1332.839,3190.895,3206.952,-0.08363018,0.03557508,0.0737545,-1.0794312953949,-0.44650411605835,0.688102781772614,-1.09742336725307,-0.472190616469403,0.679357341854299,0
2.6400146484375,-1.96647584438324,2.24937176704407,2.10919570922852,-1.68404365734903,2.24121944141343,2.18536033620513,1286.439,1333.147,3178.945,3195.647,-0.08254468,0.03576715,0.0727166,-1.07728147506714,-0.446249961853027,0.687950015068054,-1.09559452046326,-0.471403714787811,0.678225198571351,0
2.66000366210938,-1.98797416687012,2.24045419692993,2.12295460700989,-1.70592290617745,2.23180541187802,2.19890463348308,1279.29,1332.14,3181.78,3192.946,-0.08148314,0.03594942,0.0717071,-1.07492172718048,-0.445895910263062,0.68794459104538,-1.09348640563071,-0.470496651869278,0.67692017506657,0
2.68002319335938,-2.00942039489746,2.23154544830322,2.13670802116394,-1.72779052905813,2.22239638466312,2.21244173374556,1265.478,1329.742,3180.857,3199.979,-0.08038272,0.03613019,0.07072778,-1.07232177257538,-0.445435881614685,0.687670648097992,-1.09109597826566,-0.469468117754907,0.675440386655758,0
2.70001220703125,-2.03081011772156,2.22264838218689,2.1504487991333,-1.74957429229274,2.21302343991116,2.22592692089233,1278.538,1329.071,3171.103,3187.75,-0.07918643,0.03635017,0.06966747,-1.06948471069336,-0.444850444793701,0.687040746212006,-1.08843144721369,-0.468321644481621,0.673790915005369,0
2.72000122070313,-2.05213928222656,2.21376514434814,2.16417860984802,-1.77130202882336,2.20367460188472,2.23937742484041,1274.868,1327.982,3172.667,3182.296,-0.07797682,0.03657129,0.06862276,-1.06643164157867,-0.444151639938354,0.686488330364227,-1.08549040888332,-0.467056197851165,0.671970272177789,0
2.74002075195313,-2.07340168952942,2.20489883422852,2.17789149284363,-1.79300125102058,2.19433803277934,2.25281027705779,1265.059,1325.526,3169.717,3187.325,-0.0767278,0.03679504,0.06760538,-1.06313502788544,-0.4433274269104,0.685648381710052,-1.08226887897249,-0.465670063529659,0.669975991700231,0
2.760009765625,-2.09459352493286,2.19605159759521,2.19158124923706,-1.81460030360772,2.18504456385877,2.26618111951479,1278.473,1324.444,3159.261,3175.9,-0.07541326,0.03705426,0.06651414,-1.05960237979889,-0.442361503839493,0.684485375881195,-1.07877792518082,-0.464168003639063,0.667814925005998,0
2.77999877929688,-2.11571073532104,2.18722605705261,2.20525026321411,-1.83612684690458,2.17578229366013,2.27950707526701,1272.509,1322.895,3161.798,3172.007,-0.07411098,0.03731077,0.0654423,-1.05585730075836,-0.441272646188736,0.683449327945709,-1.07501419914593,-0.462548577472581,0.665484999299265,0
2.80001831054688,-2.13674831390381,2.17842531204224,2.21889281272888,-1.85760812647542,2.16653949917827,2.29280501061661,1260.514,1319.987,3159.879,3178.095,-0.07276821,0.03757071,0.06439278,-1.0518718957901,-0.440053939819336,0.682131886482239,-1.07097279461286,-0.460809674005774,0.6629831773745,0
2.82000732421875,-2.15770101547241,2.16965126991272,2.23250222206116,-1.87897323600723,2.1573466894188,2.30603103117811,1274.6,1318.556,3149.611,3165.597,-0.07134129,0.03787155,0.06325541,-1.04765093326569,-0.438688635826111,0.680471181869507,-1.06666760390385,-0.458957270716794,0.660318059240952,0
2.84002685546875,-2.17856526374817,2.16090750694275,2.24608063697815,-1.90028201942005,2.14817811521475,2.31922218318877,1271.175,1317.12,3151.071,3159.808,-0.0699181,0.03817474,0.06212623,-1.04321277141571,-0.437191277742386,0.67891651391983,-1.06208716414723,-0.456986435452194,0.657482548835001,0
2.86001586914063,-2.19933605194092,2.15219616889954,2.25962090492249,-1.9214641634913,2.13906403038149,2.33233493941432,1266.748,1314.972,3144.26,3162.618,-0.06849544,0.03848592,0.0610004,-1.03852653503418,-0.43555012345314,0.677011132240295,-1.05724722779031,-0.454903946049977,0.654486397671922,0
2.8800048828125,-2.2200083732605,2.14352083206177,2.27312302589417,-1.94254691640495,2.12999271078668,2.34538616777867,1265.978,1311.938,3145.983,3154.48,-0.06701259,0.03881301,0.05984944,-1.03362631797791,-0.433780521154404,0.675110936164856,-1.0521429102862,-0.45270770082608,0.651326581984514,0
2.9000244140625,-2.24057817459106,2.13488340377808,2.28658127784729,-1.96355695821617,2.12095267674793,2.3583923845069,1260.843,1309.62,3140.991,3155.884,-0.06547595,0.03915248,0.05869551,-1.02848374843597,-0.431867569684982,0.672911286354065,-1.04676782045836,-0.450394949835786,0.647999145330045,0
2.92001342773438,-2.26104021072388,2.12628722190857,2.29998970031738,-1.98442500350686,2.11197373984504,2.37131069862469,1275.401,1308.08,3130.303,3143.392,-0.06389243,0.03952669,0.05746181,-1.02310359477997,-0.429798543453217,0.670424044132233,-1.04114045847258,-0.4479736531836,0.644515540192422,0
2.94000244140625,-2.28139019012451,2.11773562431335,2.31335115432739,-2.00517798053537,2.10304431360073,2.38415778000673,1269.293,1306.3,3132.246,3139.73,-0.06235046,0.03989583,0.05624475,-1.01750302314758,-0.427593231201172,0.668073117733002,-1.03525504859546,-0.445441325732794,0.640872191117535,0
2.96002197265625,-2.30162334442139,2.10923051834106,2.32666039466858,-2.02584216016808,2.09415309439512,2.39694989157076,1257.093,1302.967,3130.452,3145.521,-0.06079198,0.04026697,0.05504383,-1.01166200637817,-0.425252735614777,0.665461122989655,-1.02910434715508,-0.442794850733705,0.637064613927399,0
2.98001098632813,-2.32173490524292,2.10077524185181,2.33991098403931,-2.04634944795115,2.08532938136936,2.40964487960608,1270.489,1300.772,3121.424,3132.312,-0.05915999,0.04067498,0.05375418,-1.00558614730835,-0.422768145799637,0.662529528141022,-1.02270954399162,-0.440043345582586,0.633105926142498,0
3,-2.34172081947327,2.09237194061279,2.35310435295105,-2.06672639957428,2.07656174835205,2.42225918334961,1267.464,1299.15,3122.041,3126.167,-0.05754026,0.04108416,0.0524708,-0.999285936355591,-0.42015078663826,0.65967184305191,-1.01606400046349,-0.437183953857422,0.628992018127441,0
3.02001953125,-2.36157536506653,2.08402395248413,2.36623525619507,-2.08699882657197,2.06783908936099,2.4348087813708,1258.457,1295.98,3118.72,3130.041,-0.05590774,0.04149416,0.05120483,-0.992744028568268,-0.417398184537888,0.656544625759125,-1.0091596546337,-0.434213206731958,0.624717899159203,0
3.04000854492188,-2.38129496574402,2.07573413848877,2.37929773330688,-2.10709998486405,2.05919012250926,2.44725235590455,1271.43,1293.608,3109.22,3117.88,-0.05422942,0.04193395,0.0498626,-0.985968708992004,-0.414503544569016,0.65312123298645,-1.00202031904361,-0.431141350077486,0.620298310335216,0
3.06002807617188,-2.400874376297,2.06750440597534,2.39229369163513,-2.12708636054325,2.0505905434092,2.45962487453308,1266.371,1291.828,3110.31,3113.224,-0.05258571,0.04236851,0.0485326,-0.978972852230072,-0.411482214927673,0.649801552295685,-0.994627071110099,-0.427960242035134,0.615721537675136,0
3.08001708984375,-2.42030882835388,2.05933785438538,2.40521669387817,-2.14689219650438,2.04206864550612,2.47188563047583,1261.491,1289.086,3104.115,3115.23,-0.05095266,0.04280618,0.04720129,-0.971738338470459,-0.408332377672195,0.646150588989258,-0.987005430654711,-0.424680863071165,0.611003379164165,0
3.10000610351563,-2.43959474563599,2.05123662948608,2.41806626319885,-2.16654331551667,2.03361331798384,2.48405060925705,1261.422,1286.043,3104.685,3106.366,-0.04927168,0.04325526,0.04583975,-0.964290201663971,-0.405066698789597,0.642479658126831,-0.979147395688901,-0.421299770153459,0.606138881190213,0
3.12002563476563,-2.45872664451599,2.04320311546326,2.43083667755127,-2.18606465810045,2.02521382963322,2.49613525024692,1257.361,1283.693,3099.155,3106.302,-0.047555,0.0437112,0.04447205,-0.956608831882477,-0.401676297187805,0.638525426387787,-0.971043628570469,-0.417812945555442,0.601122263307942,0
3.1400146484375,-2.47770071029663,2.03523969650269,2.44352269172668,-2.20539207344272,2.01689778275692,2.50809984103626,1271.075,1281.661,3088.965,3093.653,-0.0458133,0.04419084,0.04303259,-0.948698759078979,-0.398154348134995,0.634303569793701,-0.962722140342815,-0.41423244164655,0.595970865687568,0
3.16000366210938,-2.49651217460632,2.02734971046448,2.45612668991089,-2.22455088103183,2.00865428308644,2.51996005559448,1265.148,1280.108,3089.91,3089.562,-0.04413284,0.04465867,0.04161334,-0.940571248531342,-0.394517421722412,0.630205571651459,-0.954174163352092,-0.410554485950274,0.590679260733698,0
3.18002319335938,-2.51515650749207,2.01953411102295,2.4686439037323,-2.24356543975693,2.00047284967231,2.53173097323436,1252.998,1276.889,3087.451,3094.98,-0.04246037,0.04511999,0.04021379,-0.93221789598465,-0.390772491693497,0.62585586309433,-0.945389654806993,-0.406774757334075,0.585241231480108,0
3.20001220703125,-2.53362941741943,2.01179552078247,2.48106837272644,-2.26237335188561,1.99238033051557,2.54337396678712,1265.159,1274.301,3079.337,3081.591,-0.04073092,0.04560678,0.03873473,-0.923647940158844,-0.386917501688004,0.621218144893646,-0.93639902618694,-0.402906341007952,0.579675604081262,0
3.22000122070313,-2.55192685127258,2.00413632392883,2.49340105056763,-2.28099938900442,1.98436606709459,2.55490437104486,1261.969,1273.065,3078.95,3075.286,-0.03902809,0.04608658,0.03726781,-0.914864838123322,-0.382960200309753,0.616633713245392,-0.927192788821982,-0.398945154262308,0.573976504598449,0
3.24002075195313,-2.57004404067993,1.99655866622925,2.50563669204712,-2.29946728755973,1.97641984627959,2.5663368799986,1253.65,1270.143,3074.734,3078.389,-0.03733006,0.04655991,0.03582132,-0.905861735343933,-0.378902047872543,0.611782968044281,-0.917760245372928,-0.394886594330938,0.568137310869129,0
3.260009765625,-2.58797669410706,1.98906397819519,2.51777005195618,-2.31771654397337,1.96856770107001,2.57763403905129,1265.569,1267.593,3066.001,3066.018,-0.0356038,0.0470508,0.03431058,-0.896649599075317,-0.374741852283478,0.606673181056976,-0.908134108040216,-0.390744736359816,0.562178273303667,0
3.27999877929688,-2.60572147369385,1.98165392875671,2.52980303764343,-2.33577134012187,1.96079922667992,2.58881081793642,1260.223,1266.371,3066.184,3061.269,-0.03392814,0.04752779,0.03282237,-0.887234747409821,-0.370490789413452,0.601654410362244,-0.898304216251578,-0.386515208538549,0.556093102023818,0
3.30001831054688,-2.6232738494873,1.97433090209961,2.54173064231873,-2.35365475236716,1.95310449399547,2.59988150202132,1249.498,1263.461,3062.915,3065.569,-0.03225993,0.04799504,0.03135809,-0.877614259719849,-0.366154342889786,0.596383035182953,-0.88825927318574,-0.382193150160541,0.549874803759067,0
3.32000732421875,-2.64063000679016,1.96709620952606,2.55354738235474,-2.37130830610839,1.94550866300381,2.61080989274252,1261.182,1260.896,3054.439,3052.895,-0.03054539,0.04848006,0.02982528,-0.867798209190369,-0.361730813980103,0.590835332870483,-0.878034183119985,-0.377793579561194,0.543544985919778,0
3.34002685546875,-2.65778589248657,1.95995163917542,2.56525444984436,-2.3887820321449,1.9379902068497,2.62162696154813,1257.879,1260.023,3053.552,3046.754,-0.02886973,0.04895363,0.02830874,-0.857788920402527,-0.357226729393005,0.585355341434479,-0.867602121152829,-0.373304954734798,0.537087042614081,0
3.36001586914063,-2.67473721504211,1.95289874076843,2.57684588432312,-2.40601888046917,1.93057367255756,2.63229739176581,1253.511,1257.659,3046.787,3048.005,-0.02722656,0.04941899,0.02680455,-0.847582995891571,-0.352645099163055,0.579576015472412,-0.856999388527103,-0.368742895092007,0.53052344604056,0
3.3800048828125,-2.69148111343384,1.9459388256073,2.58832168579102,-2.42304196557559,1.92324911460621,2.64283549236868,1253.292,1255.255,3046.456,3039.186,-0.02556741,0.04988239,0.02528743,-0.837200164794922,-0.347996532917023,0.573794901371002,-0.846214826007803,-0.364102599125748,0.523847288101157,0
3.4000244140625,-2.70801401138306,1.93907308578491,2.59967708587646,-2.43987318937177,1.91600710921667,2.65325482168089,1247.568,1253.405,3041.196,3039.677,-0.02390453,0.05033884,0.02378424,-0.826633334159851,-0.343278974294662,0.567773997783661,-0.835236272052476,-0.359378834064062,0.51705104022176,0
3.42001342773438,-2.72433161735535,1.93230366706848,2.61090755462646,-2.45645774020782,1.90887124031063,2.66352144868012,1258.264,1251.214,3032.71,3028,-0.02222408,0.05080441,0.02223312,-0.815890371799469,-0.338491052389145,0.561522603034973,-0.824102019042908,-0.354588076049064,0.510158407210813,0
3.44000244140625,-2.74043107032776,1.9256306886673,2.62201452255249,-2.47281804716281,1.90183185728196,2.67364925803476,1253.399,1250.441,3031.757,3023.52,-0.02060434,0.05125257,0.02071103,-0.804974555969238,-0.333640277385712,0.555348634719849,-0.812800388649434,-0.349725300221754,0.503162159625937,0
3.46002197265625,-2.75630903244019,1.9190559387207,2.6329939365387,-2.48897526921199,1.89487985601472,2.68365134815842,1243.25,1248.025,3028.521,3026.993,-0.01900751,0.05168642,0.0192199,-0.793891310691833,-0.328734576702118,0.548965990543365,-0.801318788528228,-0.344785088448372,0.496054502206447,0
3.48001098632813,-2.77196192741394,1.9125804901123,2.64384078979492,-2.50487694859767,1.88803780761656,2.69349524520019,1252.339,1245.596,3021.3,3015.675,-0.01737713,0.05212938,0.01768082,-0.782651841640472,-0.323775410652161,0.542347073554993,-0.789697369743255,-0.339784716610052,0.488860290373601,0
3.5,-2.78738760948181,1.90620517730713,2.65455627441406,-2.5205447997813,1.88129636896134,2.70319439144611,1249.154,1245.043,3019.837,3009.745,-0.01578402,0.05255812,0.01616626,-0.771255910396576,-0.318765848875046,0.535774171352386,-0.777924000354857,-0.334718964672089,0.481572013878822,0
3.52001953125,-2.80258131027222,1.89993107318878,2.66513586044312,-2.53599921507943,1.87464676580493,2.71276141071155,1241.113,1242.866,3015.493,3012.243,-0.01421009,0.05297306,0.01468428,-0.759708344936371,-0.313710272312164,0.528982818126678,-0.765985728654519,-0.329582259876133,0.474181654997567,0
3.54000854492188,-2.81754207611084,1.89375901222229,2.67557549476624,-2.55119019794619,1.86811051026429,2.72216535275294,1250.731,1240.524,3008.216,3000.765,-0.01261593,0.05339348,0.01316361,-0.748020946979523,-0.308609843254089,0.521987080574036,-0.753924423002452,-0.324392617007921,0.466715132239272,0
3.56002807617188,-2.83226585388184,1.8876895904541,2.6858766078949,-2.56616135852937,1.86166883811116,2.73143321432921,1245.829,1240.098,3006.94,2996.503,-0.01107555,0.05379548,0.01167931,-0.736193716526031,-0.30346816778183,0.515057504177094,-0.741708845898105,-0.319136595443636,0.459153108103046,0
3.58001708984375,-2.84675049781799,1.88172376155853,2.69603419303894,-2.58086439685043,1.85534253147694,2.74053509545279,1241.101,1237.934,3001.012,2997.561,-0.009566607,0.05418513,0.01021861,-0.724235236644745,-0.298291116952896,0.50787615776062,-0.729381927869994,-0.313832666990361,0.451522158631107,0
3.60000610351563,-2.86099338531494,1.87586212158203,2.70604801177979,-2.59531978247425,1.84912278287974,2.74948366775945,1241.136,1236.112,2999.912,2989.23,-0.008044344,0.05456907,0.008756376,-0.712158858776093,-0.293084412813187,0.500692665576935,-0.716930938559024,-0.308475354130224,0.443814403124743,0
3.62002563476563,-2.87499260902405,1.87010514736176,2.71591424942017,-2.60954658921762,1.84300138538903,2.75829073885038,1236.496,1234.8,2994.508,2989.057,-0.006526343,0.05494312,0.007317527,-0.699963986873627,-0.287846595048904,0.493312388658524,-0.704342498157626,-0.303058899905815,0.436021558845703,0
3.6400146484375,-2.8887460231781,1.86445331573486,2.72562956809998,-2.62349913748426,1.83699799365897,2.76692803087948,1245.318,1232.842,2987.271,2978.581,-0.005001416,0.05531887,0.005852985,-0.687658667564392,-0.282577455043793,0.485761404037476,-0.691660998977508,-0.297602405088683,0.428171106749629,0
3.66000366210938,-2.90225076675415,1.85890805721283,2.73519539833069,-2.63719712493647,1.83110413233575,2.77540773763803,1240.647,1232.543,2985.801,2974.707,-0.003538808,0.0556755,0.004429769,-0.675243020057678,-0.277280002832413,0.47828608751297,-0.678873453515702,-0.29210028151913,0.420255006953505,0
3.68002319335938,-2.91550517082214,1.85346865653992,2.74460816383362,-2.65065881779682,1.8253119419741,2.78374116678794,1231.934,1230.568,2982.101,2977.812,-0.00210656,0.05601678,0.003044946,-0.662729561328888,-0.271961838006973,0.470635294914246,-0.665966334939126,-0.286546708978778,0.41226488570328,0
3.70001220703125,-2.92850780487061,1.84813606739044,2.75386476516724,-2.66384123964357,1.81963991412768,2.79190171387692,1239.693,1228.431,2976.449,2967.086,-0.0006524745,0.05636099,0.001632449,-0.650130152702332,-0.266625821590424,0.462830692529678,-0.65298533214413,-0.280961346123326,0.404229026602262,0
3.72000122070313,-2.94125652313232,1.84291076660156,2.76296615600586,-2.6767633032417,1.81407991116207,2.79990108680742,1235.862,1228.313,2974.466,2962.858,0.0007583834,0.05668902,0.000259269,-0.637441515922546,-0.261271625757217,0.455066382884979,-0.639917282339434,-0.275338529371411,0.396139281255611,0
3.74002075195313,-2.9537501335144,1.8377925157547,2.7719087600708,-2.68944246101018,1.80862442378895,2.80775008945815,1229.922,1226.439,2970.23,2964.115,0.002147445,0.05700372,-0.001076982,-0.624675571918488,-0.255904048681259,0.447131156921387,-0.626748599474004,-0.269672413024826,0.387987239250554,0
3.760009765625,-2.96598720550537,1.83278203010559,2.78069019317627,-2.70183851231475,1.80329074921818,2.81542383572149,1237.526,1224.437,2964.437,2954.135,0.003544488,0.05731801,-0.002428803,-0.611842334270477,-0.250524520874023,0.439066559076309,-0.613526094901139,-0.263983138701136,0.379801879044709,0
3.77999877929688,-2.97796630859375,1.82787942886353,2.78931140899658,-2.7139695770734,1.79807109095524,2.82293354268985,1233.16,1224.274,2962.499,2950.937,0.004886143,0.05761475,-0.003734817,-0.598940312862396,-0.245133429765701,0.431058883666992,-0.60023651686137,-0.258265004538452,0.371574997167698,0
3.80001831054688,-2.98968577384949,1.82308447360992,2.79776954650879,-2.72585229309426,1.79295829021612,2.83028950995902,1226.533,1222.46,2958.825,2952.716,0.006200469,0.05789723,-0.005001416,-0.58598393201828,-0.239737078547478,0.422908782958984,-0.586866312357872,-0.25251217906087,0.363298203668867,0
3.82000732421875,-3.00114512443542,1.81839787960052,2.80606245994568,-2.73744929742843,1.78796842323393,2.8374686080838,1233.313,1220.538,2953.566,2943.326,0.007524893,0.05817961,-0.006282397,-0.572983264923096,-0.234337583184242,0.414642065763474,-0.573463232144022,-0.246745208083563,0.355001058539243,0
3.84002685546875,-3.01234412193298,1.81381916999817,2.81419086456299,-2.7487950044681,1.78308668245712,2.84449214121233,1229.939,1220.459,2951.378,2939.724,0.00880044,0.0584464,-0.007520234,-0.559935808181763,-0.228934213519096,0.406425178050995,-0.559993461530387,-0.240949542090342,0.346662628875244,0
3.86001586914063,-3.02328133583069,1.80934834480286,2.82215189933777,-2.7598539723994,1.77832831750807,2.85133816917351,1227.077,1218.75,2946.514,2939.499,0.01004035,0.05870108,-0.008726113,-0.546855330467224,-0.223532691597939,0.398056834936142,-0.546505271550556,-0.235145950758426,0.338312796746137,0
3.8800048828125,-3.03395652770996,1.80498576164246,2.82994627952576,-2.77064299647982,1.77368610185671,2.85801708903178,1227.243,1217.487,2945.052,2932.911,0.01127005,0.05894746,-0.009912818,-0.533749341964722,-0.218135699629784,0.389717847108841,-0.532985466132484,-0.229328756186666,0.329943393154704,0
3.9000244140625,-3.04436874389648,1.80073070526123,2.83757162094116,-2.78117737042527,1.76915345504432,2.86453836832583,1223.367,1216.481,2940.665,2932.885,0.01247424,0.05918194,-0.01106224,-0.520624279975891,-0.212744250893593,0.38126876950264,-0.51942076458699,-0.223492244065531,0.321546196721701,0
3.92001342773438,-3.05451822280884,1.79658377170563,2.84502649307251,-2.79142456801014,1.76474437219711,2.87088187177258,1229.4,1214.782,2935.724,2924.75,0.01366948,0.05941319,-0.01221113,-0.507488548755646,-0.207360208034515,0.372740745544434,-0.505860052376089,-0.217657448443621,0.313151469876846,0
