t,x_s1,x_s2,x_s3,x_s_d1,x_s_d2,x_s_d3,propellers_rpms1,propellers_rpms2,propellers_rpms3,propellers_rpms4,rollRad,pitchRad,yawRad,v_s1,v_s2,v_s3,v_s_d1,v_s_d2,v_s_d3,insideCount
0,-0.0599999986588955,2.94000005722046,1.17999994754791,-0.0599999986588955,2.94000005722046,1.17999994754791,0,0,0,0,0,45.0048027038574,0,0,0,0,-1.06581410364015E-15,4.44089209850063E-16,4.44089209850063E-16,0
0.0199985504150391,-0.0599999986588955,2.94000005722046,1.17705690860748,-0.0600018685815247,2.93999925264499,1.1800011051191,0,0,0,0,0.937003672122955,44.8630027770996,-0.00115976633969694,3.71994488546079E-08,3.50004931704007E-08,-0.147149950265884,-0.000279946173977888,-0.000120453017871082,0.000173300017377699,5
0.0399990081787109,-0.0599999986588955,2.94000005722046,1.17018985748291,-0.0600148703014743,2.93999365836812,1.1800091538031,0,0,0,0,1.87400352954865,44.7211418151855,-0.00311126722954214,3.70364325874561E-08,3.5142885934647E-08,-0.343349903821945,-0.0011109142447864,-0.000477995364179603,0.000687708837706811,6
0.0599994659423828,-0.0599062219262123,2.94009447097778,1.16346526145935,-0.0600498904664975,2.93997859016946,1.18003083295349,3197.504,2848.851,1517.287,2782.411,1.40357983112335,44.7413597106934,0.0289031472057104,0.00468885246664286,0.00471902592107654,-0.336230903863907,-0.00247951833951941,-0.00106686747177115,0.00153493996800067,6
0.0799999237060547,-0.0597377754747868,2.94026732444763,1.1572380065918,-0.0601175490846357,2.93994947855624,1.18007271686115,2865.723,2651.863,2344.82,2562.404,0.33955180644989,44.8158378601074,0.0997957810759544,0.00842238403856754,0.00864489190280437,-0.311361879110336,-0.00437248097278563,-0.00188135640961186,0.00270677401230774,6
0.0999984741210938,-0.0595562867820263,2.94046425819397,1.15152072906494,-0.0602281887669101,2.93990187339187,1.18014120809498,2240.066,2528.308,3138.278,2508.773,359.321533203125,44.9191398620605,0.178520262241364,0.00907447934150696,0.00984904821962118,-0.285861849784851,-0.00677637982016689,-0.00291568692648091,0.00419490191241918,5
0.119998931884766,-0.0594243817031384,2.94063210487366,1.14657127857208,-0.0603919230601972,2.93983142309968,1.18024256742227,2124.038,2455.012,3352.148,2464.7,358.749969482422,44.999927520752,0.253289341926575,0.00659527815878391,0.00839802529662848,-0.247470498085022,-0.00967861374975049,-0.00416443710735115,0.00599152296740588,5
0.139999389648438,-0.0593829713761806,2.94074010848999,1.1425746679306,-0.0606185767455666,2.93973390035084,1.18038287685052,2312.555,2456.937,3069.474,2463.626,358.636199951172,45.0327033996582,0.326358288526535,0.00207054195925593,0.00539806950837374,-0.199830800294876,-0.0130660253322238,-0.00562194567796536,0.00808849210174802,5
0.159999847412109,-0.0594433397054672,2.9407856464386,1.13953077793121,-0.0609177249752248,2.93960518522485,1.18056806385509,2536.962,2487.062,2635.79,2492.276,358.757080078125,45.0250396728516,0.398165702819824,-0.00301846163347363,0.00227855797857046,-0.152192085981369,-0.0169257706321904,-0.00728268625174051,0.0104778583075938,5
0.179998397827148,-0.0596000663936138,2.94078159332275,1.13731873035431,-0.0612986465792905,2.93944128530034,1.18080387247382,2666.909,2506.432,2302.927,2513.612,358.864410400391,44.9986000061035,0.467292636632919,-0.00783634930849075,-0.000198623863980174,-0.110602557659149,-0.0212446806785156,-0.00914099258829578,0.0131514693644856,5
0.19999885559082,-0.0598476380109787,2.94073963165283,1.13577449321747,-0.0617704792283666,2.93923826889292,1.1810959593601,2653.919,2500.55,2183.787,2509.002,358.817230224609,44.9744491577148,0.532782733440399,-0.0123786376789212,-0.00209237937815487,-0.0772148072719574,-0.0260109531407025,-0.0111917864745373,0.0161020190676231,5
0.219999313354492,-0.0601895824074745,2.94066190719604,1.13476359844208,-0.0623420049171324,2.93899235735562,1.18144976098699,2540.852,2471,2246.161,2479.353,358.612762451172,44.9637336730957,0.594443798065186,-0.0170972682535648,-0.00388237787410617,-0.0505458563566208,-0.0312116790433783,-0.0134295135389972,0.0193215161463106,5
0.239999771118164,-0.0606388561427593,2.94054126739502,1.13421726226807,-0.063021788625926,2.93869986541668,1.18187057948532,2412.297,2430.206,2374.653,2437.839,358.335021972656,44.9659652709961,0.652524054050446,-0.0224636550992727,-0.00603291112929583,-0.0273173507302999,-0.0368344480011416,-0.0158488339395432,0.022802277980796,5
0.259998321533203,-0.061213243752718,2.9403657913208,1.1341210603714,-0.063818066443955,2.93835724931701,1.18236351338666,2330.218,2392.526,2463.076,2399.104,358.076751708984,44.9739456176758,0.7076216340065,-0.0287193544209003,-0.00876986421644688,-0.00481057167053223,-0.04286636357961,-0.0184441987007453,0.0265363210638542,4
0.279998779296875,-0.0619298070669174,2.94012475013733,1.13447880744934,-0.0647390625194898,2.93796097043536,1.18293365383054,2306.234,2365.627,2470.745,2371.279,357.887573242188,44.9803886413574,0.760360598564148,-0.0358282215893269,-0.0120578473433852,0.0178865566849709,-0.0492963837173861,-0.0212108567320638,0.030516809833474,4
0.299999237060547,-0.0628013908863068,2.93981051445007,1.13528323173523,-0.065792536715479,2.93750768991949,1.18358580454179,2318.125,2348.868,2416.32,2354.048,357.765625,44.9818572998047,0.811077892780304,-0.0435791164636612,-0.0157081726938486,0.0402234047651291,-0.0561118672418845,-0.0241433688900884,0.0347359188016424,4
0.319999694824219,-0.0638362541794777,2.9394199848175,1.13650619983673,-0.0669860785243584,2.93699414222283,1.18432466377777,2335.469,2337.154,2343.323,2342.271,357.679321289063,44.9789123535156,0.859786748886108,-0.0517433024942875,-0.0195259116590023,0.0611455254256725,-0.0633008373176985,-0.0272365818771378,0.0391862337367069,4
0.339998245239258,-0.0650399476289749,2.93895196914673,1.13810431957245,-0.0683269038426322,2.9364172225467,1.18515469852215,2338.557,2325.416,2287.398,2330.714,357.595153808594,44.9742126464844,0.906307637691498,-0.0601847618818283,-0.0234059486538172,0.0799063369631767,-0.0708506885691688,-0.0304850719522193,0.043859951310657,4
0.35999870300293,-0.0664175227284431,2.93840503692627,1.14003133773804,-0.069822382620517,2.93577375980741,1.18608047112519,2322.877,2311.248,2262.495,2316.671,357.495361328125,44.9703598022461,0.950479984283447,-0.0688786581158638,-0.0273439791053534,0.0963538587093353,-0.0787511019946779,-0.0338843991372162,0.0487506835699294,4
0.379999160766602,-0.0679748728871346,2.9377772808075,1.14224827289581,-0.0714792747653362,2.93506084540571,1.18710616629155,2296.251,2295.128,2261.667,2300.227,357.380645751953,44.968620300293,0.992384672164917,-0.0778674483299255,-0.0313914157450199,0.110847324132919,-0.0869897229117765,-0.0374292475574207,0.0538507823775527,4
0.399999618530273,-0.0697188898921013,2.9370653629303,1.14472663402557,-0.0733042289655903,2.93427561859665,1.18823589987613,2269.401,2278.579,2269.244,2283.607,357.262512207031,44.968807220459,1.03205561637878,-0.0872007757425308,-0.0356002412736416,0.123919017612934,-0.0955550080350531,-0.0411146504596022,0.0591531018899743,4
0.419998168945313,-0.0716568231582642,2.93626546859741,1.14744663238525,-0.0753034649285836,2.93341540321397,1.18947352217404,2249.781,2263.702,2271.791,2268.488,357.152954101563,44.9699668884277,1.06963765621185,-0.0968965440988541,-0.0399913415312767,0.136000573635101,-0.104434660908044,-0.0449353170220673,0.0646500300148815,4
0.439998626708984,-0.0737954825162888,2.93537449836731,1.15039229393005,-0.0774835548069347,2.93247737144397,1.19082310166083,2238.564,2251.3,2264.471,2255.896,357.057983398438,44.9711112976074,1.1052588224411,-0.106933146715164,-0.0445502884685993,0.147285595536232,-0.113619049702587,-0.0488871029382406,0.0703356041918149,4
0.459999084472656,-0.0761408060789108,2.93438959121704,1.15354812145233,-0.0798502821969742,2.93145903476675,1.19228821865812,2233.15,2241.288,2249.495,2245.615,356.976837158203,44.9717445373535,1.13905942440033,-0.11726613342762,-0.0492437034845352,0.157790988683701,-0.123096124252221,-0.0529648233581361,0.0762023647937057,4
0.479999542236328,-0.0786977931857109,2.93330883979797,1.15689694881439,-0.0824093896672336,2.93035792231548,1.19387242808941,2228.854,2232.765,2233.254,2236.995,356.904754638672,44.9719467163086,1.17107784748077,-0.127849370241165,-0.0540382750332355,0.167440995573997,-0.13285477482153,-0.0571636980729742,0.0822434343651008,4
0.499998092651367,-0.08147082477808,2.93213057518005,1.16042125225067,-0.0851661261416979,2.92917177562482,1.19557897928867,2223.325,2225.019,2220.312,2229.176,356.837066650391,44.9720497131348,1.201327085495,-0.138651698827744,-0.0589139126241207,0.176215976476669,-0.142883031072219,-0.0614785765805993,0.0884514026963699,5
0.519998550415039,-0.0844639912247658,2.93085336685181,1.16410458087921,-0.0881263195578599,2.92789808709608,1.19741148002684,2215.904,2217.66,2212.456,2221.776,356.771301269531,44.9723701477051,1.22980761528015,-0.149658232927322,-0.0638646110892296,0.184167623519897,-0.153171913786256,-0.0659055953743427,0.0948207112238116,5
0.539999008178711,-0.0876812934875488,2.92947554588318,1.16793310642242,-0.0912948022612966,2.92653477750595,1.19937292175603,2208.071,2210.882,2208.15,2214.667,356.707489013672,44.9730339050293,1.25665307044983,-0.160864725708961,-0.0688922330737114,0.191423818469048,-0.163709694677519,-0.0704397081003365,0.101344099579621,5
0.559999465942383,-0.0911266356706619,2.9279956817627,1.17189526557922,-0.0946764453845371,2.92507975094219,1.20146631993932,2200.667,2204.618,2205.713,2208.332,356.646942138672,44.9740180969238,1.28189408779144,-0.172267481684685,-0.0739985331892967,0.198106020689011,-0.174485697560587,-0.0750763210942518,0.108014958696444,5
0.579998016357422,-0.0948038399219513,2.9264121055603,1.1759819984436,-0.0982755538235842,2.92353115512831,1.2036943395124,2194.944,2199.208,2203.08,2202.821,356.591125488281,44.975170135498,1.30558371543884,-0.183860033750534,-0.0791816413402557,0.20433497428894,-0.185488294752812,-0.0798104312890852,0.11482609048482,5
0.599998474121094,-0.0987164303660393,2.92472338676453,1.18018567562103,-0.102097262171133,2.92188678079254,1.20606015903275,2190.785,2194.681,2199.755,2198.262,356.540740966797,44.9763641357422,1.32774114608765,-0.195629969239235,-0.0844351649284363,0.210185274481773,-0.196709126405959,-0.0846384416756885,0.121772319800455,5
0.619998931884766,-0.102867692708969,2.92292833328247,1.18450009822845,-0.106145477944935,2.92014494663912,1.20856619743999,2188.253,2191.206,2195.528,2194.398,356.495391845703,44.9774971008301,1.34853971004486,-0.20756296813488,-0.0897507816553116,0.215719744563103,-0.208136802817102,-0.0895554515830839,0.128846595874672,5
0.639999389648438,-0.107260555028915,2.92102599143982,1.18891930580139,-0.110424235525481,2.91830391678686,1.21121495220784,2186.049,2188.234,2191.815,2191.447,356.454254150391,44.978588104248,1.36796867847443,-0.21964368224144,-0.0951195880770683,0.220958739519119,-0.219761081350814,-0.0945570538913933,0.136042578028218,5
0.659999847412109,-0.111897766590118,2.91901516914368,1.19343829154968,-0.114937365519793,2.91636204303257,1.21400879466451,2184.148,2185.838,2188.985,2188.985,356.416473388672,44.9796600341797,1.38605511188507,-0.231860473752022,-0.100535593926907,0.225946441292763,-0.231571827761751,-0.0996388881179631,0.143353992680462,5
0.679998397827148,-0.11678184568882,2.91689538955688,1.19805288314819,-0.119688032378415,2.91431796380157,1.21694968375564,2182.344,2183.954,2187.258,2186.925,356.381591796875,44.9807739257813,1.40287017822266,-0.244203954935074,-0.105994805693626,0.23072712123394,-0.243557864937104,-0.104796145063404,0.150773920666137,5
0.69999885559082,-0.121915176510811,2.91466546058655,1.20275986194611,-0.124680571585341,2.91216981365623,1.22004030335236,2180.732,2182.336,2186.469,2185.42,356.349609375,44.9819259643555,1.41836524009705,-0.256666511297226,-0.111494317650795,0.235350117087364,-0.255711562515536,-0.1100255415964,0.15829763842809,5
0.719999313354492,-0.12729999423027,2.91232490539551,1.20755732059479,-0.129917773765869,2.90991639186844,1.22328238098464,2179.89,2181.453,2185.804,2184.064,356.320526123047,44.9830894470215,1.4327449798584,-0.269241273403168,-0.117031909525394,0.239875689148903,-0.268021976505935,-0.115322368823317,0.165918371114489,5
0.739999771118164,-0.132938385009766,2.90987277030945,1.21244394779205,-0.13540267613015,2.90755639161152,1.22667779683026,2179.243,2180.699,2185.617,2183.411,356.294311523438,44.9842529296875,1.44596517086029,-0.281919926404953,-0.122603863477707,0.244330987334251,-0.280479406212952,-0.12068245280595,0.173630113532805,5
0.759998321533203,-0.138832286000252,2.90730857849121,1.21741902828217,-0.141137563960274,2.90508882959244,1.2302279655877,2179.078,2180.42,2185.614,2183.008,356.27099609375,44.9854049682617,1.4580819606781,-0.294694811105728,-0.128206998109818,0.248755484819412,-0.293073051970232,-0.126101146749576,0.181426180175103,5
0.779998779296875,-0.144983440637589,2.90463185310364,1.22248256206512,-0.147126184485884,2.90251209348295,1.23393520697061,2179.173,2180.366,2185.89,2183.038,356.250518798828,44.9865303039551,1.46905922889709,-0.307557642459869,-0.133837535977364,0.253175109624863,-0.305795832832518,-0.131575403921268,0.189302187598958,5
0.799999237060547,-0.151393473148346,2.90184211730957,1.22763514518738,-0.153370467664426,2.8998253528763,1.23780071571459,2180.035,2180.863,2185.84,2183.168,356.232604980469,44.9875831604004,1.47905540466309,-0.320501118898392,-0.139492407441139,0.257629662752151,-0.318637178554805,-0.1371006762399,0.197251592319181,5
0.819999694824219,-0.158063784241676,2.89893865585327,1.23287749290466,-0.159872691993147,2.89702762739878,1.24182590231796,2180.661,2181.386,2186.406,2183.767,356.216979980469,44.9886207580566,1.48803699016571,-0.333516329526901,-0.145167648792267,0.262118250131607,-0.331587821991737,-0.142672976311719,0.205268657531342,5
0.839998245239258,-0.164995715022087,2.89592146873474,1.23821079730988,-0.166634294361289,2.89411829879707,1.24601165628363,2181.472,2182.195,2187.299,2184.434,356.203521728516,44.9896125793457,1.49606418609619,-0.346596896648407,-0.150860920548439,0.26666796207428,-0.344637355311016,-0.148287825937249,0.213346940291454,5
0.85999870300293,-0.172190427780151,2.89279007911682,1.24363672733307,-0.173658476530939,2.8910959894424,1.25035995965485,2182.312,2182.998,2188.543,2185.428,356.192260742188,44.9905853271484,1.5030552148819,-0.359736055135727,-0.15656965970993,0.271294951438904,-0.357779218042882,-0.153942402329629,0.221482379356217,5
0.879999160766602,-0.179648980498314,2.88954424858093,1.24915730953217,-0.180946338277887,2.88796022613197,1.25487149324521,2183.793,2184.31,2189.385,2186.287,356.18310546875,44.9915046691895,1.50920557975769,-0.372927933931351,-0.162291884422302,0.276031166315079,-0.371003228241413,-0.159632324481982,0.229668671616073,5
0.899999618530273,-0.187372282147408,2.8861837387085,1.25477468967438,-0.188499434070438,2.88471034002151,1.25954721934464,2184.97,2185.466,2190.679,2187.563,356.175872802734,44.9923706054688,1.51446318626404,-0.386164605617523,-0.168024241924286,0.280866980552673,-0.384300552311253,-0.165353791545005,0.237900348654692,5
0.919998168945313,-0.195361107587814,2.88270854949951,1.26049113273621,-0.196318384305134,2.8813460641717,1.26438752200817,2186.328,2186.782,2192.044,2188.844,356.170593261719,44.9932136535645,1.51884293556213,-0.399440318346024,-0.173764660954475,0.285821259021759,-0.397661187980262,-0.171102499820431,0.246171218589148,5
0.939998626708984,-0.203616052865982,2.8791184425354,1.26630902290344,-0.204405885800988,2.87786623821667,1.26939407069523,2187.597,2188.069,2193.642,2190.283,356.167236328125,44.9940071105957,1.52227890491486,-0.41274830698967,-0.179510653018951,0.290897071361542,-0.411079067636589,-0.176875838584386,0.254477525278661,5
0.959999084472656,-0.212137699127197,2.87541317939758,1.27223134040833,-0.212762239776093,2.87427073255068,1.27456705187416,2189.474,2189.762,2194.675,2191.507,356.165740966797,44.994743347168,1.52497470378876,-0.426082938909531,-0.185260325670242,0.2961186170578,-0.424544411524882,-0.18266959988136,0.262813214588797,5
0.979999542236328,-0.220926433801651,2.87159299850464,1.27826058864594,-0.221388311353785,2.87055917493534,1.27990700109753,2190.871,2191.202,2196.163,2193.059,356.165893554688,44.995418548584,1.52687990665436,-0.439436346292496,-0.191010430455208,0.301464200019836,-0.438048819599778,-0.188480169406503,0.271173086491326,5
0.999998092651367,-0.229982495307922,2.86765789985657,1.28439950942993,-0.23028393740968,2.86673163555851,1.28541381738356,2192.4,2192.664,2197.635,2194.58,356.167724609375,44.9960556030273,1.52796995639801,-0.452803254127502,-0.19675911962986,0.306947499513626,-0.45158270821391,-0.194303423584087,0.279551208251994,5
1.01999855041504,-0.239306032657623,2.86360788345337,1.29065072536469,-0.239451348187707,2.86278715480854,1.29108888135949,2193.707,2194.078,2199.341,2196.111,356.171295166016,44.9966621398926,1.52819347381592,-0.466177135705948,-0.202504143118858,0.312562733888626,-0.465140476318736,-0.200136952439402,0.28794411255494,5
1.03999900817871,-0.248897105455399,2.85944294929504,1.29701733589172,-0.248890079057088,2.85872593260306,1.29693190539675,2195.603,2195.806,2200.376,2197.385,356.176513671875,44.9971961975098,1.52774691581726,-0.479552805423737,-0.208243936300278,0.318330556154251,-0.478712759579464,-0.205976726760794,0.296346002430842,5
1.05999946594238,-0.258755534887314,2.85516333580017,1.30350172519684,-0.258600340480156,2.85454787838601,1.30294301978152,2196.94,2197.212,2201.816,2198.932,356.183227539063,44.997688293457,1.5265691280365,-0.492922514677048,-0.213975220918655,0.32422199845314,-0.492291591500725,-0.211819318787865,0.30475194623957,5
1.07999801635742,-0.268881171941757,2.85076951980591,1.31010663509369,-0.268581219802083,2.85025338484727,1.30912165953701,2198.36,2198.616,2203.19,2200.353,356.191467285156,44.9981498718262,1.52465176582336,-0.50628125667572,-0.219696179032326,0.330245763063431,-0.50586781946303,-0.217660790404144,0.31315627807366,5
1.09999847412109,-0.279273599386215,2.84626150131226,1.31683444976807,-0.278834517009062,2.84584167750307,1.31546893894041,2199.525,2199.833,2204.725,2201.829,356.201324462891,44.9985694885254,1.52188360691071,-0.519622564315796,-0.225404694676399,0.336391896009445,-0.519436284009554,-0.223498921639497,0.321555803983559,5
1.11999893188477,-0.289932429790497,2.84163951873779,1.32368803024292,-0.289359035362208,2.84131327127672,1.32198411715334,2201.253,2201.448,2205.526,2202.875,356.212707519531,44.9989318847656,1.51851081848145,-0.532941341400146,-0.231099307537079,0.342676788568497,-0.532988048794549,-0.229329867434001,0.329944991945551,5
1.13999938964844,-0.300857037305832,2.83690404891968,1.33066940307617,-0.300154365346813,2.83666834237095,1.3286669406667,2202.347,2202.615,2206.737,2204.234,356.225494384766,44.9992637634277,1.51444911956787,-0.546229958534241,-0.236776664853096,0.349066287279129,-0.546515580872639,-0.235150386571708,0.338319178707607,5
1.15999794006348,-0.312046706676483,2.83205533027649,1.33778071403503,-0.31121887973388,2.83190759093694,1.33551640214821,2203.498,2203.747,2207.847,2205.427,356.239715576172,44.9995574951172,1.50967180728912,-0.559483468532562,-0.242435142397881,0.3555668592453,-0.560010170393828,-0.240956731447489,0.346672972457667,6
1.17999839782715,-0.323500633239746,2.82709383964539,1.34502398967743,-0.322553982624406,2.82703041282926,1.34253337080327,2204.312,2204.746,2209.151,2206.553,356.255493164063,44.999828338623,1.50412440299988,-0.572695553302765,-0.248072579503059,0.362164229154587,-0.573467075844405,-0.246746861920456,0.355003437972878,6
1.19999885559082,-0.335217863321304,2.82202005386353,1.35240149497986,-0.334157779891176,2.82203762303794,1.34971667407692,2205.766,2205.996,2209.591,2207.349,356.272766113281,45.0000305175781,1.49800312519073,-0.585861504077911,-0.25368744134903,0.368876188993454,-0.586877800774655,-0.252517122205661,0.363305315546124,6
1.21999931335449,-0.347197294235229,2.81683444976807,1.35991477966309,-0.346029276726411,2.81692964960096,1.35706569613575,2206.538,2206.828,2210.424,2208.397,356.291381835938,45.0002136230469,1.49121308326721,-0.598973453044891,-0.259276390075684,0.375663787126541,-0.600235245789198,-0.258264457631606,0.371574210313473,6
1.23999786376953,-0.359437823295593,2.81153774261475,1.36756539344788,-0.358166167196084,2.81170748469733,1.36457900949675,2207.317,2207.647,2211.184,2209.207,356.311340332031,45.000373840332,1.48375844955444,-0.612026572227478,-0.264837831258774,0.382530838251114,-0.613531154887641,-0.263985315871967,0.379805011417393,6
1.2599983215332,-0.371938139200211,2.80613040924072,1.37535464763641,-0.370569492049568,2.80637068052165,1.37225725843336,2207.756,2208.218,2212.121,2210.029,356.332855224609,45.0005111694336,1.47553133964539,-0.625014781951904,-0.270369529724121,0.389462769031525,-0.626761182173783,-0.269677827009021,0.387995028541113,6
1.27999877929688,-0.384696811437607,2.80061292648315,1.38328421115875,-0.383236695417198,2.80092033679326,1.3800988607405,2208.838,2209.128,2212.173,2210.41,356.355773925781,45.000602722168,1.46676003932953,-0.637933313846588,-0.275870054960251,0.396476358175278,-0.639917282339435,-0.275338529371412,0.396139281255613,6
1.29999923706055,-0.397712290287018,2.79498624801636,1.39135479927063,-0.396166231882091,2.79535711846185,1.3881028597315,2209.184,2209.597,2212.652,2211.046,356.380035400391,45.000659942627,1.45737171173096,-0.650774478912354,-0.281336039304733,0.4035305082798,-0.652992789539212,-0.280964554832093,0.404233643085061,6
1.31999778747559,-0.410982966423035,2.78925085067749,1.39956736564636,-0.409355153534276,2.78968229393073,1.39626743050967,2209.589,2209.97,2212.999,2211.517,356.405639648438,45.0007019042969,1.44732332229614,-0.663533747196198,-0.286765813827515,0.41063067317009,-0.665979912040938,-0.286552550826386,0.412273290576068,6
1.33999824523926,-0.424507021903992,2.78340768814087,1.4079225063324,-0.42280416857195,2.783895558482,1.40459301148342,2209.58,2210.193,2213.583,2211.893,356.432739257813,45.0007476806641,1.4365496635437,-0.676204919815063,-0.292157292366028,0.417759001255035,-0.678874678563316,-0.292100808622893,0.420255765316334,6
1.35999870300293,-0.438282698392868,2.77745747566223,1.41642117500305,-0.436510095902056,2.77799828085114,1.41307763340462,2210.321,2210.688,2213.183,2211.889,356.461303710938,45.0007362365723,1.42526626586914,-0.688783645629883,-0.297508895397186,0.424936085939407,-0.691669505523675,-0.297606065217852,0.428176372706927,6
1.3799991607666,-0.452307969331741,2.77140116691589,1.42506349086761,-0.450470874182571,2.77199134797602,1.42172002020435,2210.26,2210.717,2213.26,2212.174,356.491119384766,45.0007095336914,1.41336178779602,-0.70126211643219,-0.302817195653915,0.43211704492569,-0.704358160626625,-0.303065639028665,0.436031254660118,6
1.39999771118164,-0.4665806889534,2.76523947715759,1.43384969234467,-0.464682951063699,2.76587628833354,1.43051797280888,2210.248,2210.728,2213.234,2212.208,356.522308349609,45.0006713867188,1.40082502365112,-0.713635921478271,-0.308080673217773,0.439308136701584,-0.716933326165324,-0.308476381450513,0.44381588116678,6
1.41999816894531,-0.481098681688309,2.75897359848022,1.44277954101563,-0.47914673136562,2.75965292774086,1.43947174182117,2209.84,2210.557,2213.438,2212.184,356.554962158203,45.0006523132324,1.38759386539459,-0.725899219512939,-0.313297152519226,0.446492612361908,-0.729391385793766,-0.313836736470737,0.451528013536465,6
1.43999862670898,-0.495859652757645,2.75260424613953,1.45185339450836,-0.4938584461112,2.75332288788357,1.44857899406484,2210.213,2210.64,2212.634,2211.813,356.589019775391,45.0005683898926,1.37386536598206,-0.73804771900177,-0.318465232849121,0.453691899776459,-0.741725227577294,-0.31914364402254,0.459163249142831,6
1.45999908447266,-0.510861039161682,2.74613261222839,1.46107053756714,-0.508815552717244,2.74688726276417,1.45783815555978,2209.745,2210.327,2212.353,2211.672,356.624389648438,45.0004844665527,1.35956239700317,-0.750073790550232,-0.32358130812645,0.460859924554825,-0.753929052770513,-0.324394609067776,0.466717998286247,6
1.47999954223633,-0.526100516319275,2.73955965042114,1.47043061256409,-0.524015393706918,2.74034719582071,1.46724758120123,2209.379,2209.95,2211.938,2211.343,356.661041259766,45.0003929138184,1.34466564655304,-0.761973440647125,-0.328643947839737,0.468005537986755,-0.76599717101811,-0.329587183205524,0.474188738365705,6
1.49999809265137,-0.541575372219086,2.73288655281067,1.47993302345276,-0.539453715106405,2.73370451741928,1.47680463757674,2208.853,2209.506,2211.502,2210.903,356.699066162109,45.0002937316895,1.32917261123657,-0.773741245269775,-0.333651065826416,0.475117981433868,-0.777922869861026,-0.334718478252175,0.481571314049288,6
1.51999855041504,-0.557282745838165,2.72611451148987,1.48957669734955,-0.555130581228843,2.72695919988774,1.48650936449923,2208.039,2208.848,2211.215,2210.462,356.738586425781,45.0002021789551,1.31298983097076,-0.785371720790863,-0.338600486516953,0.482185542583466,-0.789702950965343,-0.339787118053995,0.488863745415943,6
1.53999900817871,-0.573220014572144,2.71924471855164,1.49936127662659,-0.571041541911266,2.72011315800687,1.49635900710582,2208.028,2208.56,2209.901,2209.59,356.779541015625,45.0000648498535,1.29637014865875,-0.79686039686203,-0.343490660190582,0.489228934049606,-0.801330904905084,-0.34479030178684,0.496062002820904,6
1.55999946594238,-0.589383900165558,2.71227836608887,1.5092853307724,-0.587183501790833,2.71316772362485,1.50635164921945,2207.142,2207.759,2209.166,2209.092,356.821685791016,44.9999313354492,1.27918088436127,-0.808200240135193,-0.348318010568619,0.496201425790787,-0.812801474874933,-0.34972576759424,0.503162832051264,6
1.57999801635742,-0.605771780014038,2.70521664619446,1.5193475484848,-0.603551689586986,2.70612494969039,1.51648433719019,2206.339,2207.008,2208.366,2208.298,356.865112304688,44.9997978210449,1.26144087314606,-0.819387316703796,-0.353081285953522,0.503112733364105,-0.824108441976122,-0.354590839657789,0.510162383312438,6
1.59999847412109,-0.622380077838898,2.69806098937988,1.52954649925232,-0.620145926473056,2.69898491314762,1.52675696031579,2205.075,2205.982,2207.917,2207.573,356.909942626953,44.9996871948242,1.24301958084106,-0.830416321754456,-0.357778310775757,0.509946227073669,-0.835248923368005,-0.359384277571697,0.517058871988737,5
1.61999893188477,-0.639205753803253,2.69081282615662,1.53988111019135,-0.636961261140657,2.69174974440622,1.53716645350051,2204.792,2205.415,2206.319,2206.342,356.956176757813,44.9995231628418,1.22420656681061,-0.841283619403839,-0.362407892942429,0.51673150062561,-0.846216901179681,-0.364103492014234,0.523848572731403,5
1.63999938964844,-0.656245410442352,2.68347358703613,1.55034947395325,-0.653994195024907,2.68442094880091,1.54771065096602,2203.609,2204.299,2205.306,2205.569,357.003601074219,44.9993782043457,1.20485055446625,-0.851982295513153,-0.366966515779495,0.523419559001923,-0.857007552155828,-0.368746407673381,0.530528499715628,5
1.65999794006348,-0.673495590686798,2.67604446411133,1.56094992160797,-0.671239479331992,2.67700078474105,1.55838630345892,2202.518,2203.23,2204.241,2204.527,357.05224609375,44.9992294311523,1.1849410533905,-0.862508714199066,-0.371452867984772,0.530020952224731,-0.867615158565213,-0.373310564369123,0.537095113393405,5
1.67999839782715,-0.690952718257904,2.66852712631226,1.57168030738831,-0.688696716710861,2.66948942319567,1.56919316499998,2201.02,2202.01,2203.489,2203.461,357.102325439453,44.9990997314453,1.1644104719162,-0.872857809066772,-0.375864952802658,0.536521196365356,-0.878037137680598,-0.377794850826084,0.543546814933542,5
1.69999885559082,-0.708613216876984,2.66092300415039,1.58253931999207,-0.706360494347389,2.66188919314749,1.58012788479941,2200.479,2201.135,2201.637,2202.019,357.153717041016,44.9989242553711,1.14350497722626,-0.88302606344223,-0.380201578140259,0.542948961257935,-0.888267970958778,-0.382196892569292,0.54988018809491,5
1.71999931335449,-0.726473331451416,2.65323376655579,1.59352445602417,-0.724226945158621,2.65420175849427,1.59118806894864,2199.037,2199.812,2200.396,2200.958,357.206268310547,44.9987678527832,1.12211012840271,-0.893007099628448,-0.384459316730499,0.549256682395935,-0.898303268694426,-0.386514800831178,0.556092515440802,5
1.73999786376953,-0.74452930688858,2.6454610824585,1.60463356971741,-0.742290383213093,2.64642956573347,1.60237019758524,2197.72,2198.483,2199.1,2199.701,357.259979248047,44.998607635498,1.10019540786743,-0.902797639369965,-0.388636946678162,0.555456638336182,-0.908137821269591,-0.39074633405868,0.562180571969536,5
1.7599983215332,-0.762777149677277,2.63760638237,1.61586427688599,-0.760550216073323,2.63857286977439,1.61367390396219,2196.02,2196.989,2198.106,2198.464,357.315063476563,44.9984893798828,1.07764887809753,-0.912392914295197,-0.392732590436935,0.561535537242889,-0.917769332013572,-0.394890504058555,0.568142935932543,4
1.77999877929688,-0.78121292591095,2.62967157363892,1.62721467018127,-0.779000609654483,2.63063418086074,1.62509557650306,2195.258,2195.978,2196.061,2196.724,357.371368408203,44.9983139038086,1.05478596687317,-0.921789646148682,-0.39674511551857,0.567521452903748,-0.927192788821983,-0.398945154262308,0.57397650459845,4
1.79999923706055,-0.7998326420784,2.62165808677673,1.63868200778961,-0.79763736303951,2.62261530652977,1.63663261464007,2193.635,2194.397,2194.608,2195.517,357.428771972656,44.9981575012207,1.03144443035126,-0.930981934070587,-0.400671422481537,0.573369562625885,-0.936404235539493,-0.402908582446823,0.579678828918647,4
1.81999778747559,-0.818631827831268,2.61356782913208,1.65026378631592,-0.816454394064092,2.61451886376689,1.64828125322378,2192.075,2192.927,2193.184,2194.014,357.487274169922,44.9980201721191,1.00763821601868,-0.93996673822403,-0.404510259628296,0.579090535640717,-0.945398976945681,-0.406778768389922,0.585247002328031,3
1.83999824523926,-0.837606728076935,2.60540270805359,1.66195726394653,-0.835450937570646,2.606345181798,1.6600410185852,2190.243,2191.27,2191.981,2192.573,357.547088623047,44.9978981018066,0.983274459838867,-0.948740065097809,-0.408260107040405,0.584675967693329,-0.954174989692508,-0.410554841501469,0.590679772277779,3
1.85999870300293,-0.856752574443817,2.59716439247131,1.67376029491425,-0.854620778981102,2.59809693458245,1.67190806360445,2189.3,2189.973,2189.779,2190.778,357.608062744141,44.9977416992188,0.958569705486298,-0.957298636436462,-0.41191953420639,0.590151429176331,-0.962727774564036,-0.414234865894539,0.595974353538898,0
1.8799991607666,-0.876065373420715,2.58885478973389,1.68566977977753,-0.873959418228252,2.58977605837344,1.68387960252558,2187.544,2188.351,2188.145,2189.292,357.670043945313,44.9976005554199,0.933462202548981,-0.965637147426605,-0.415485918521881,0.59547483921051,-0.971053808954927,-0.417817325890467,0.60112856545088,0
1.89999771118164,-0.895540416240692,2.58047556877136,1.69768285751343,-0.893460418296025,2.58138532283915,1.69595165052899,2185.834,2186.648,2186.575,2187.719,357.733032226563,44.9974594116211,0.907898187637329,-0.973752915859222,-0.418958097696304,0.600656270980835,-0.979148917665041,-0.421300425017273,0.606139823365946,0
1.91999816894531,-0.915173232555389,2.57202887535095,1.70979654788971,-0.913122862707269,2.57292512231409,1.70812364027167,2183.795,2184.889,2185.305,2186.094,357.797241210938,44.9973602294922,0.88181871175766,-0.981642305850983,-0.422334730625153,0.605687081813812,-0.987011339258123,-0.424683405378145,0.611007036871143,0
1.93999862670898,-0.934959352016449,2.56351661682129,1.72200846672058,-0.932940197657643,2.56439827671719,1.72039151463653,2182.801,2183.499,2182.917,2184.115,357.862548828125,44.9972114562988,0.855479061603546,-0.989302515983582,-0.425614595413208,0.61059844493866,-0.99463709319481,-0.4279645542582,0.615727741822989,0
1.95999908447266,-0.954893827438354,2.55494070053101,1.73431527614594,-0.952907658613767,2.55580683609405,1.73275232415044,2180.871,2181.656,2181.205,2182.608,357.928771972656,44.9970703125,0.828732848167419,-0.996728658676147,-0.428794980049133,0.615343332290649,-1.00202309041976,-0.431142542523221,0.620300025949072,0
1.9799976348877,-0.974972188472748,2.54630327224731,1.74671399593353,-0.973018495512246,2.54715370480838,1.74520189020262,2179.115,2179.942,2179.46,2180.818,357.995910644531,44.9969444274902,0.8016117811203,-1.00391852855682,-0.431875199079514,0.619937598705292,-1.00916568071436,-0.434215799586116,0.624721629590192,0
1.99999809265137,-0.995189547538757,2.53760623931885,1.75920140743256,-0.993271661096953,2.53843933346522,1.75773956449162,2176.945,2177.974,2178.097,2179.198,358.064147949219,44.9968643188477,0.773966670036316,-1.0108687877655,-0.43485364317894,0.624368786811829,-1.01606335446626,-0.437183675902864,0.628991618224387,0
2.01999855041504,-1.01554095745087,2.52885174751282,1.77177476882935,-1.01366030404084,2.52966666999921,1.77036110571964,2175.854,2176.545,2175.629,2177.045,358.133392333984,44.9967193603516,0.746110260486603,-1.01757705211639,-0.437729686498642,0.628670573234558,-1.02271265493931,-0.440044684136465,0.633107851967309,0
2.03999900817871,-1.03602182865143,2.52004170417786,1.78443074226379,-1.03417943002831,2.52083786332482,1.7830634221674,2173.84,2174.632,2173.826,2175.424,358.203399658203,44.9966049194336,0.717915058135986,-1.02403903007507,-0.440500855445862,0.632797062397003,-1.02911092662815,-0.442797681697156,0.63706868693465,0
2.05999755859375,-1.05662703514099,2.51117849349976,1.79716598987579,-1.05482201812353,2.5119559343546,1.79584216754118,2171.925,2172.761,2172.085,2173.611,358.274261474609,44.9965019226074,0.689356863498688,-1.0302529335022,-0.443166494369507,0.636762261390686,-1.03525504859546,-0.445441325732794,0.640872191117535,0
2.07999801635742,-1.07735133171082,2.50226402282715,1.80997717380524,-1.07558691007788,2.50302138145056,1.8086966248299,2169.736,2170.746,2170.605,2171.877,358.346130371094,44.9964256286621,0.660314321517944,-1.03621590137482,-0.445725411176682,0.640559434890747,-1.04114375428791,-0.447975071280863,0.644517580459114,0
2.09999847412109,-1.09818983078003,2.49330043792725,1.82286155223846,-1.09646699912883,2.4940372624541,1.82162239460902,2168.609,2169.296,2168.027,2169.609,358.418914794922,44.9963073730469,0.631140112876892,-1.04192566871643,-0.448176771402359,0.644219517707825,-1.04677411523768,-0.450397658303471,0.648003042098304,0
2.11999893188477,-1.11913740634918,2.48429012298584,1.8358154296875,-1.11745709586255,2.485005810225,1.83461626438416,2166.498,2167.275,2166.188,2167.969,358.492340087891,44.9962158203125,0.601668834686279,-1.04737865924835,-0.450518488883972,0.647695660591125,-1.0521439094894,-0.452708130755304,0.651327200538896,0
2.1399974822998,-1.14018869400024,2.47523522377014,1.84883558750153,-1.13854995096316,2.47593014394135,1.84767374648347,2164.596,2165.341,2164.33,2166.099,358.566497802734,44.9961166381836,0.57187420129776,-1.0525735616684,-0.452749878168106,0.651005983352661,-1.05725054902531,-0.454905375084611,0.654488453674597,0
2.15999794006348,-1.16133880615234,2.46613788604736,1.86191844940186,-1.15974431432775,2.46681080148754,1.86079406703369,2162.325,2163.315,2162.815,2164.28,358.641510009766,44.9960517883301,0.541667222976685,-1.05750799179077,-0.454870164394379,0.65414035320282,-1.06209300290918,-0.456988947708343,0.657486163306784,0
2.17999839782715,-1.18258249759674,2.45700025558472,1.87506103515625,-1.18103286617629,2.4576509323604,1.8739726947423,2161.089,2161.725,2160.277,2162.039,358.717315673828,44.9959526062012,0.511327147483826,-1.06217992305756,-0.456878632307053,0.657130479812622,-1.06666887474518,-0.458957817524312,0.66031884595227,0
2.19999885559082,-1.20391416549683,2.44782471656799,1.88825964927673,-1.20241025668069,2.44845283844151,1.88720631781084,2158.941,2159.708,2158.414,2160.307,358.793670654297,44.9958572387695,0.480731070041656,-1.06658673286438,-0.458773553371429,0.65993332862854,-1.07097637612794,-0.460811215031657,0.662985394502945,0
2.21999931335449,-1.22532868385315,2.43861365318298,1.9015109539032,-1.22387110132782,2.43921883653644,1.90049160296922,2157.038,2157.779,2156.487,2158.361,358.870666503906,44.995777130127,0.449885636568069,-1.07072710990906,-0.460554510354996,0.662566840648651,-1.07501382704219,-0.462548417366737,0.665484768949324,0
2.23999786376953,-1.24682068824768,2.4293692111969,1.91481149196625,-1.24540792547886,2.42995214277345,1.91382392305993,2155.087,2155.829,2154.573,2156.44,358.948272705078,44.9957084655762,0.41877868771553,-1.07459950447083,-0.462220817804337,0.665028154850006,-1.07877930973132,-0.464168599372462,0.667815782108711,0
2.2599983215332,-1.2683846950531,2.42009377479553,1.92815768718719,-1.26701939030951,2.42065333321126,1.92720244928693,2152.78,2153.763,2153.016,2154.599,359.026641845703,44.9956741333008,0.387315422296524,-1.07820188999176,-0.463771671056747,0.667308151721954,-1.08227207933222,-0.465671440555045,0.66997797287536,0
2.27999877929688,-1.29001522064209,2.41078972816467,1.9415465593338,-1.28869796983554,2.41132564607061,1.9406225227075,2151.635,2152.171,2150.334,2152.293,359.105651855469,44.9955825805664,0.355801165103912,-1.0815327167511,-0.465206503868103,0.669441699981689,-1.08549040888332,-0.467056197851165,0.67197027217779,0
2.29999923706055,-1.31170701980591,2.40145921707153,1.95497417449951,-1.31043816248474,2.40197144852433,1.95408073758635,2149.486,2150.114,2148.39,2150.571,359.184997558594,44.9955024719238,0.32409143447876,-1.08458995819092,-0.466523766517639,0.671382069587708,-1.08843305191934,-0.468322334941636,0.673791908394614,0
2.31999778747559,-1.33345460891724,2.3921046257019,1.96843707561493,-1.33223236173323,2.39259401344714,1.96757238512285,2147.457,2148.14,2146.551,2148.628,359.264801025391,44.9954528808594,0.292173385620117,-1.08737301826477,-0.467723369598389,0.673145353794098,-1.0910986293707,-0.469469258451341,0.675442027816066,0
2.33999824523926,-1.35525226593018,2.38272881507874,1.98193156719208,-1.35407917814146,2.38319393867607,1.98109660518773,2145.106,2146.038,2145.054,2146.785,359.34521484375,44.9954261779785,0.259936392307281,-1.08988082408905,-0.468804985284805,0.674725532531738,-1.09348662008434,-0.470496744142684,0.676920307823584,0
2.35999870300293,-1.37709450721741,2.37333345413208,1.99545478820801,-1.37597096908363,2.3737745126195,1.99464866663155,2143.997,2144.39,2142.363,2144.5,359.426086425781,44.9953384399414,0.227652475237846,-1.09211194515228,-0.469768285751343,0.676158964633942,-1.09559583531025,-0.471404280529741,0.678226012524276,0
2.3799991607666,-1.39897572994232,2.36392116546631,2.00900268554688,-1.39790215061238,2.36433813789396,2.0082251127249,2141.747,2142.441,2140.513,2142.672,359.507232666016,44.9952812194824,0.195270508527756,-1.09406507015228,-0.470612168312073,0.677395045757294,-1.09742546213314,-0.472191517837776,0.679358638684859,0
2.39999771118164,-1.42089056968689,2.35449457168579,2.02257180213928,-1.41986502747765,2.35488812555058,2.02182117974142,2139.806,2140.43,2138.618,2140.757,359.588714599609,44.9952392578125,0.16274830698967,-1.09574007987976,-0.47133657336235,0.67845630645752,-1.09897466165884,-0.47285809511406,0.680317666989874,0
2.41999816894531,-1.4428334236145,2.34505558013916,2.03615856170654,-1.44185817738692,2.34542508756209,2.03543598721428,2137.485,2138.28,2137.078,2138.991,359.670684814453,44.9952278137207,0.129921987652779,-1.09713625907898,-0.471941232681274,0.679332792758942,-1.10024313330221,-0.473403883025206,0.681102911362803,0
2.43999862670898,-1.46479845046997,2.33560705184937,2.04975962638855,-1.46387388420027,2.33595234396796,2.0490647584853,2136.254,2136.747,2134.528,2136.601,359.752990722656,44.9951629638672,0.0971573516726494,-1.09825241565704,-0.472425937652588,0.680057168006897,-1.10123022817855,-0.473828602374257,0.681713970113108,0
2.45999908447266,-1.48678004741669,2.3261513710022,2.06337141990662,-1.48590651627916,2.32647231790489,2.06270400730194,2134.188,2134.678,2132.553,2134.904,359.835479736328,44.9951133728027,0.0642959028482437,-1.0990879535675,-0.472789824008942,0.680590033531189,-1.10193556692257,-0.474132089930926,0.682150608395601,0
2.4799976348877,-1.50877296924591,2.31669068336487,2.07699036598206,-1.50794833289881,2.31698833999053,2.07634894178684,2132.252,2132.736,2130.65,2132.971,359.918090820313,44.9950828552246,0.0313339605927467,-1.09964299201965,-0.473033010959625,0.680944681167603,-1.10235885164239,-0.474314217520657,0.682412641801014,0
2.49999809265137,-1.53077113628387,2.30722761154175,2.0906126499176,-1.52999789647758,2.30750102877607,2.08999867200848,2129.852,2130.654,2129.225,2131.174,0.00105457659810781,44.9950866699219,-0.00185024552047253,-1.0999174118042,-0.473155617713928,0.681111514568329,-1.10250000050163,-0.474374949931546,0.682500019668738,0
2.51999855041504,-1.55276942253113,2.29776477813721,2.10423517227173,-1.5520474605947,2.29801371732999,2.10364840256337,2128.761,2129.089,2126.62,2128.834,0.0842235758900642,44.9950332641602,359.965087890625,-1.09991037845612,-0.473157554864883,0.681130588054657,-1.10235890547318,-0.474314240682543,0.682412675124841,0
2.53999900817871,-1.57476186752319,2.2883038520813,2.11785435676575,-1.5740913806044,2.28852883438564,2.11729463914691,2126.602,2126.988,2124.769,2127.23,0.16740158200264,44.9949989318848,359.931884765625,-1.09962213039398,-0.473038285970688,0.680954277515411,-1.10193562074175,-0.474132113087814,0.682150641712234,0
2.55999755859375,-1.59674286842346,2.27884793281555,2.13146638870239,-1.59612191359838,2.27904971150017,2.13093258853001,2124.629,2125.211,2122.987,2125.169,0.250642746686935,44.9949798583984,359.898742675781,-1.09905290603638,-0.4727982878685,0.680600762367249,-1.10123038958312,-0.473828671822132,0.681714070030222,0
2.57999801635742,-1.61870694160461,2.26939916610718,2.14506769180298,-1.6181376241771,2.2695769662859,2.14456136213196,2122.445,2123.079,2121.427,2123.475,0.334124118089676,44.994987487793,359.865386962891,-1.09820318222046,-0.472437590360641,0.680066466331482,-1.10024334841354,-0.473403975581601,0.681103044526962,0
2.59999847412109,-1.64064836502075,2.25996017456055,2.15865516662598,-1.64013077892511,2.26011392621545,2.15817617260023,2121.281,2121.522,2118.921,2121.214,0.417669892311096,44.9949531555176,359.832214355469,-1.09707224369049,-0.471956044435501,0.67937970161438,-1.09897493039424,-0.472858210743393,0.680317833349887,0
2.61999893188477,-1.66256153583527,2.25053310394287,2.1722252368927,-1.66209575487342,2.25066301069528,2.17177353904914,2119.237,2119.539,2117.048,2119.551,0.50107741355896,44.9949264526367,359.798980712891,-1.09566104412079,-0.471353620290756,0.678501963615417,-1.09742562325992,-0.472191587166126,0.67935873843001,0
2.6399974822998,-1.68444097042084,2.24112033843994,2.18577408790588,-1.68402485020812,2.24122753360076,2.185348693689,2117.312,2117.691,2115.285,2117.642,0.584368884563446,44.9949150085449,359.765808105469,-1.0939701795578,-0.470630824565887,0.677447497844696,-1.09559621095794,-0.471404442160446,0.678226245068088,0
2.65999794006348,-1.70628094673157,2.23172450065613,2.19929838180542,-1.70591664919621,2.23180810408224,2.19890076011363,2115.068,2115.695,2113.864,2115.899,0.667757213115692,44.9949417114258,359.732543945313,-1.09200060367584,-0.469788134098053,0.676211476325989,-1.093487048984,-0.470496928686224,0.676920573332903,0
2.67999839782715,-1.72807598114014,2.22234797477722,2.21279501914978,-1.7277634747138,2.22240802539167,2.21242498581764,2114.021,2114.135,2111.372,2113.696,0.751077651977539,44.9949073791504,359.699462890625,-1.08975195884705,-0.46882551908493,0.674828290939331,-1.09109911135695,-0.469469465836558,0.675442326188514,0
2.69999885559082,-1.74982047080994,2.21299314498901,2.2262601852417,-1.74955976015262,2.21302969268507,2.22591792480533,2111.978,2112.203,2109.574,2112.084,0.834132075309753,44.9948997497559,359.666412353516,-1.08722591400146,-0.467743128538132,0.67325484752655,-1.08843331936148,-0.468322450014513,0.673792073954033,0
2.71999740600586,-1.77150893211365,2.20366215705872,2.23969030380249,-1.77129788800495,2.2036763835632,2.23937486147656,2110.151,2110.37,2107.819,2110.25,0.916934251785278,44.9948959350586,359.633422851563,-1.08442354202271,-0.466541588306427,0.671508848667145,-1.08549099645889,-0.467056450668518,0.671970635915057,0
2.73999786376953,-1.79313588142395,2.19435787200928,2.25308203697205,-1.79297647980783,2.19434869114016,2.25279494249708,2107.945,2108.468,2106.447,2108.526,0.999683380126953,44.9949340820313,359.600433349609,-1.08134603500366,-0.465221732854843,0.669583201408386,-1.08227271937422,-0.465671715947234,0.669978369091845,0
2.7599983215332,-1.81469583511353,2.18508219718933,2.26643228530884,-1.81458795796224,2.18504987584512,2.26617347697213,2106.96,2106.906,2104.016,2106.414,1.08220684528351,44.9949111938477,359.567626953125,-1.07799339294434,-0.463783621788025,0.667513132095337,-1.07878000199166,-0.464168897232749,0.667816210650842,0
2.77999877929688,-1.83618307113647,2.17583775520325,2.27973747253418,-1.83612684690458,2.17578229366013,2.27950707526701,2104.921,2105.103,2102.324,2104.786,1.16433370113373,44.9949150085449,359.534942626953,-1.07436788082123,-0.46222785115242,0.665255129337311,-1.07501419914593,-0.462548577472581,0.665484999299265,0
2.79999732971191,-1.85759246349335,2.16662669181824,2.29299402236938,-1.85758565652604,2.16654916736975,2.29279110064756,2103.216,2103.314,2100.582,2103.011,1.2460697889328,44.9949226379395,359.502410888672,-1.07047080993652,-0.460555046796799,0.662830471992493,-1.07097717199316,-0.460811557470228,0.66298588718143,0
2.81999778747559,-1.87891852855682,2.15745115280151,2.30619859695435,-1.87896306346215,2.15735106638076,2.30602473388812,2101.067,2101.432,2099.259,2101.396,1.32759475708008,44.9949569702148,359.469879150391,-1.06630420684814,-0.458766222000122,0.660228908061981,-1.06666972196052,-0.458958182057406,0.660319370418926,0
2.83999824523926,-1.90015578269958,2.1483142375946,2.31934833526611,-1.90025163276617,2.14819118974301,2.3192033724025,2100.044,2100.015,2096.994,2099.262,1.4087747335434,44.9949569702148,359.437683105469,-1.06186819076538,-0.456861704587936,0.657484352588654,-1.06209390114388,-0.456989334193641,0.657486719356853,0
2.85999870300293,-1.92129909992218,2.13921737670898,2.332439661026,-1.92144601460316,2.13907183934104,2.33232370438801,2098.254,2098.122,2095.222,2097.826,1.48940241336823,44.9949493408203,359.405609130859,-1.05716562271118,-0.454842031002045,0.65456211566925,-1.05725149792792,-0.454905783370899,0.65448904109052,0
2.87999725341797,-1.94234323501587,2.13016319274902,2.34546899795532,-1.94253888918396,2.12999616467562,2.34538119854648,2096.426,2096.508,2093.683,2096.044,1.56950163841248,44.9949722290039,359.373718261719,-1.05219829082489,-0.45270836353302,0.651470839977264,-1.05214490868305,-0.452708560680416,0.651327819087361,0
2.89999771118164,-1.96328258514404,2.12115406990051,2.35843324661255,-1.96352900640172,2.1209647036328,2.35837508100222,2094.441,2094.664,2092.379,2094.503,1.64926874637604,44.9950180053711,359.341918945313,-1.04696846008301,-0.450461655855179,0.648212015628815,-1.04677516433438,-0.450398109700476,0.648003691539142,0
2.91999816894531,-1.98411226272583,2.11219191551208,2.37132954597473,-1.98440911693069,2.11198057539494,2.37130086407726,2093.564,2093.294,2090.107,2092.457,1.728515625,44.9950218200684,359.310455322266,-1.04147660732269,-0.448102414608002,0.644815623760223,-1.04114485287423,-0.447975543971863,0.644518260536375,0
2.93999862670898,-2.00482678413391,2.10327935218811,2.38415431976318,-2.00517403134858,2.10304601282548,2.38415533527198,2091.648,2091.584,2088.576,2091.008,1.80708539485931,44.9950370788574,359.279235839844,-1.03572642803192,-0.445631623268127,0.641240894794464,-1.03525619623725,-0.445441819530995,0.640872901562472,0
2.95999717712402,-2.02542114257813,2.09441828727722,2.39690446853638,-2.02581664288168,2.09416407377059,2.39693409515492,2090.117,2089.912,2086.96,2089.39,1.88497722148895,44.9950561523438,359.248229980469,-1.02971971035004,-0.44305032491684,0.637510418891907,-1.029112122866,-0.442798196404884,0.637069427462863,0
2.9799976348877,-2.04589033126831,2.08561134338379,2.4095766544342,-2.04633579327653,2.08533525659438,2.40963642671202,2088.144,2088.248,2085.744,2087.858,1.96234881877899,44.9951057434082,359.217407226563,-1.02345955371857,-0.440359890460968,0.63361394405365,-1.0227138993024,-0.44004521955114,0.633108622287341,0
2.99999809265137,-2.06622910499573,2.07685995101929,2.42216825485229,-2.06672446158539,2.07656258221453,2.42225798364216,2087.298,2086.837,2083.62,2085.996,2.03903841972351,44.9951133728027,359.186950683594,-1.01694679260254,-0.437560737133026,0.629584550857544,-1.01606464645845,-0.437184231811008,0.628992418029098,0
3.01999855041504,-2.08643293380737,2.06816697120667,2.43467593193054,-2.08697765348254,2.06784819954987,2.43479567421983,2085.483,2085.335,2082.166,2084.495,2.11490869522095,44.9951477050781,359.156829833984,-1.0101854801178,-0.434654504060745,0.625384867191315,-1.00916701981882,-0.434216375765357,0.624722458559645,0
3.03999900817871,-2.10649657249451,2.05953407287598,2.44709658622742,-2.1070904288371,2.05919423420069,2.44724644026866,2083.979,2083.616,2080.689,2083.09,2.18998193740845,44.9951858520508,359.126953125,-1.00317823886871,-0.431642055511475,0.621034443378448,-1.00202378325828,-0.431142840632279,0.62030045484912,0
3.05999755859375,-2.12641477584839,2.05096340179443,2.45942735671997,-2.12705600675913,2.05060360379452,2.45960608409476,2082.463,2082.212,2079.234,2081.443,2.26427435874939,44.9952278137207,359.097381591797,-0.995927691459656,-0.428525000810623,0.616533994674683,-0.994638524886308,-0.427965170275055,0.615728628108227,0
3.07999801635742,-2.14618372917175,2.04245758056641,2.4716649055481,-2.14687337079936,2.04207674568107,2.47187397646763,2080.765,2080.682,2077.972,2079.984,2.33789324760437,44.9952812194824,359.068115234375,-0.988436996936798,-0.425304532051086,0.611880898475647,-0.987012816387451,-0.424684040945629,0.611007951284564,0
3.09999847412109,-2.1657977104187,2.03401803970337,2.483806848526,-2.16653584520328,2.033616532251,2.4840459847772,2079.947,2079.225,2076,2078.412,2.41064524650574,44.9953002929688,359.039215087891,-0.980707824230194,-0.421981394290924,0.607098758220673,-0.979150439632689,-0.421301079877433,0.606140765536421,0
3.11999893188477,-2.18525266647339,2.02564692497253,2.49585008621216,-2.18603872829175,2.02522498650551,2.49611919846012,2078.358,2077.94,2074.569,2076.903,2.48236131668091,44.9953308105469,359.010711669922,-0.972744584083557,-0.418557435274124,0.602158665657043,-0.971054592046769,-0.41781766283301,0.601129050222034,0
3.1399974822998,-2.20454359054565,2.01734614372253,2.50779151916504,-2.20537554715972,2.0169048935548,2.50808961047982,2076.867,2076.396,2073.28,2075.572,2.55306792259216,44.9953727722168,358.982604980469,-0.96455055475235,-0.415033966302872,0.597073316574097,-0.962729384322967,-0.414235558528836,0.59597535005636,0
3.15999794006348,-2.22366666793823,2.009117603302,2.51962828636169,-2.22454542119638,2.00865663230111,2.51995667569625,2075.214,2074.95,2072.197,2074.2,2.62292575836182,44.9954376220703,358.954803466797,-0.956129252910614,-0.41141265630722,0.59184342622757,-0.954176642367246,-0.410555552601238,0.590680795362169,0
3.17999839782715,-2.24261593818665,2.00096392631531,2.53135800361633,-2.24354199818069,2.00048293592768,2.53171646178199,2074.389,2073.711,2070.448,2072.595,2.69181966781616,44.995475769043,358.927459716797,-0.947482764720917,-0.407694488763809,0.586491882801056,-0.945400671854024,-0.406779497661632,0.585248051557035,0
3.19999885559082,-2.26138830184937,1.99288630485535,2.54297804832458,-2.26236084956923,1.99238570991304,2.54336622725771,2073.17,2072.386,2068.907,2071.281,2.75951719284058,44.9954986572266,358.900604248047,-0.938615620136261,-0.403881132602692,0.580999076366425,-0.936405103758047,-0.402908956017012,0.579679366387291,0
3.21999740600586,-2.27997922897339,1.98488664627075,2.55448532104492,-2.28099585204123,1.98436758895103,2.55490218149615,2071.606,2070.996,2067.807,2070.058,2.82603073120117,44.9955558776855,358.874145507813,-0.929532170295715,-0.399974495172501,0.575362205505371,-0.927194566064376,-0.398945918960059,0.573977604796153,0
3.23999786376953,-2.29838371276855,1.97696733474731,2.56587719917297,-2.29944628156995,1.97642888457015,2.56632387629027,2070.043,2069.62,2066.873,2068.803,2.89156317710876,44.9956321716309,358.848022460938,-0.920235991477966,-0.395976394414902,0.569591104984283,-0.917771149318993,-0.394891285994308,0.568144060931169,0
3.2599983215332,-2.31659841537476,1.96912944316864,2.57715153694153,-2.31770615117141,1.96857217280235,2.57762760541179,2069.571,2068.579,2065.023,2067.17,2.95590901374817,44.995662689209,358.822509765625,-0.910729110240936,-0.391887754201889,0.563713431358337,-0.908139677873146,-0.390747132903322,0.562181721295578,0
3.27999877929688,-2.33461880683899,1.96137511730194,2.58830523490906,-2.33577134012187,1.96079922667992,2.58881081793642,2067.979,2067.274,2063.958,2066.132,3.01895642280579,44.9957084655762,358.797485351563,-0.901017963886261,-0.387710988521576,0.55769008398056,-0.898304216251578,-0.386515208538549,0.556093102023818,0
3.29999732971191,-2.35244083404541,1.95370626449585,2.59933614730835,-2.35363611583443,1.95311251277486,2.59986996511977,2066.873,2066.032,2062.768,2064.878,3.08072280883789,44.9957618713379,358.77294921875,-0.891105711460114,-0.383447468280792,0.551546692848206,-0.888269903777668,-0.382197724207263,0.549881384601876,0
3.31999778747559,-2.37006044387817,1.94612431526184,2.61024165153503,-2.37129993249841,1.94551226593426,2.61080470907906,2065.488,2064.747,2061.812,2063.794,3.14129400253296,44.9958343505859,358.748809814453,-0.880997002124786,-0.379099398851395,0.545276939868927,-0.87803910737898,-0.377795698332271,0.54354803427067,0
3.33999824523926,-2.38747429847717,1.93863081932068,2.6210196018219,-2.38875720963391,1.93800088728271,2.62161159523137,2064.901,2063.851,2060.254,2062.275,3.20050454139709,44.9958724975586,358.725341796875,-0.870694756507874,-0.374668210744858,0.538903534412384,-0.8676171642955,-0.373311427378832,0.537096355035999,0
3.35999870300293,-2.40467834472656,1.931227684021,2.63166761398315,-2.40600416902084,1.93058000248278,2.63228828467848,2063.523,2062.604,2059.274,2061.364,3.25827813148499,44.9959297180176,358.702423095703,-0.860205233097076,-0.370156228542328,0.53240042924881,-0.857008572601967,-0.368746846742847,0.530529131420399,0
3.37999725341797,-2.42166900634766,1.92391633987427,2.64218330383301,-2.42303550945299,1.9232518924954,2.64283149572124,2062.519,2061.485,2058.2,2060.229,3.31462526321411,44.9959945678711,358.680023193359,-0.849532306194305,-0.365565180778503,0.52578729391098,-0.846218976345105,-0.364104384899943,0.523849857357654,0
3.39999771118164,-2.43844270706177,1.91669845581055,2.65256452560425,-2.43985088596004,1.91601670575165,2.65324101480657,2061.211,2060.362,2057.396,2059.228,3.36965107917786,44.9960784912109,358.658111572266,-0.838681042194366,-0.360897392034531,0.519058167934418,-0.835251031898626,-0.359385184813519,0.517060177269636,0
3.41999816894531,-2.45499610900879,1.90957522392273,2.66280937194824,-2.45644516534361,1.90887665092339,2.66351366424015,2060.759,2059.489,2055.959,2057.913,3.42319583892822,44.9961318969727,358.636871337891,-0.827654480934143,-0.356154292821884,0.51223748922348,-0.824110582941664,-0.354591760855451,0.510163708672097,0
3.43999862670898,-2.47132515907288,1.90254855155945,2.6729154586792,-2.47281494657125,1.90183319137989,2.67364733862088,2059.562,2058.462,2055.045,2057.021,3.47515606880188,44.9961929321289,358.616241455078,-0.816459357738495,-0.351338505744934,0.505299985408783,-0.812802561098952,-0.34972623496609,0.503163504475677,0
3.45999717712402,-2.48742723464966,1.89561939239502,2.68288064002991,-2.48895539990862,1.89488840522088,2.68363904811313,2058.759,2057.488,2054.009,2055.987,3.52548360824585,44.9962577819824,358.596252441406,-0.805099785327911,-0.346451848745346,0.498264849185944,-0.801333107864087,-0.344791249658555,0.496063366557468,0
3.4799976348877,-2.50329875946045,1.88878953456879,2.69270300865173,-2.50486640494811,1.88804234425441,2.69348871817885,2057.476,2056.468,2053.404,2055.156,3.57428669929504,44.9963493347168,358.576843261719,-0.793581902980804,-0.34149706363678,0.49112206697464,-0.78970518344449,-0.339788078627405,0.488865127426884,0
3.49999809265137,-2.51893711090088,1.88205981254578,2.7023811340332,-2.52054331600794,1.88129700738756,2.70319347291972,2057.164,2055.697,2052.117,2053.97,3.62143540382385,44.9964027404785,358.558135986328,-0.781908929347992,-0.336475670337677,0.483901649713516,-0.777925130847354,-0.334719451091428,0.481572713707531,0
3.51999855041504,-2.53433895111084,1.87543213367462,2.71191263198853,-2.53598314392723,1.87465368077274,2.71275146190277,2056.031,2054.791,2051.391,2053.223,3.66686487197876,44.9964790344238,358.540130615234,-0.770088195800781,-0.331390559673309,0.476576268672943,-0.765998315247401,-0.329587675535422,0.474189446698144,0
3.53999710083008,-2.5495011806488,1.86890745162964,2.72129607200623,-2.55118156992615,1.86811422266028,2.72216001159753,2055.361,2053.888,2050.506,2052.371,3.71054816246033,44.9965515136719,358.522766113281,-0.758124172687531,-0.326243758201599,0.469167441129684,-0.753931367647136,-0.324395605094516,0.466719431305148,0
3.55999755859375,-2.56442189216614,1.86248660087585,2.73052954673767,-2.56613872308604,1.86167857751006,2.73141920191151,2054.374,2053.108,2049.882,2051.552,3.75253248214722,44.9966430664063,358.506042480469,-0.746022999286652,-0.321038007736206,0.461668074131012,-0.741727567798258,-0.319144650954242,0.459164697851087,0
3.57999801635742,-2.57909774780273,1.85617113113403,2.73961138725281,-2.58085048488145,1.85534851740854,2.74052648328127,2053.91,2052.418,2048.939,2050.613,3.79274463653564,44.996711730957,358.490112304688,-0.733789145946503,-0.315775275230408,0.454095900058746,-0.72939375026341,-0.313837753835969,0.451529477255809,0
3.59999847412109,-2.5935263633728,1.84996175765991,2.74854016304016,-2.59531431270705,1.84912513636775,2.74948028171299,2053.21,2051.657,2048.155,2049.921,3.83107876777649,44.9967880249023,358.474884033203,-0.721429169178009,-0.310458242893219,0.446442395448685,-0.716935713767317,-0.308477408768949,0.443817359206151,0
3.61999702453613,-2.60770511627197,1.84386026859283,2.75731444358826,-2.60952643755859,1.84301005608494,2.75827826401348,2052.479,2050.99,2047.521,2049.174,3.86750841140747,44.9968719482422,358.460479736328,-0.708949089050293,-0.305089443922043,0.438711881637573,-0.70436057022192,-0.303066675810204,0.43603274631439,0
3.6399974822998,-2.62163209915161,1.83786702156067,2.76593255996704,-2.62348726424244,1.83700310238323,2.76692068077719,2051.784,2050.174,2046.948,2048.628,3.9020631313324,44.9969596862793,358.446685791016,-0.696354866027832,-0.29967138171196,0.430910140275955,-0.691671935956746,-0.297607110965304,0.428177877260776,0
3.65999794006348,-2.63530540466309,1.83198261260986,2.7743935585022,-2.6371932403809,1.83110580375149,2.77540533291308,2051.443,2049.729,2046.139,2047.75,3.93464112281799,44.9970359802246,358.433776855469,-0.683651685714722,-0.294206649065018,0.42304801940918,-0.67887712865581,-0.292101862829246,0.420257282040303,0
3.67999839782715,-2.64872241020203,1.82620882987976,2.78269577026367,-2.65064230460817,1.82531904713786,2.78373094433754,2050.646,2049.117,2045.712,2047.225,3.96523475646973,44.9971313476563,358.421661376953,-0.670847058296204,-0.28869816660881,0.415114372968674,-0.665982380593835,-0.286553612975735,0.412274818727906,0
3.69999694824219,-2.66188144683838,1.82054579257965,2.79083824157715,-2.66383127580226,1.81964420129024,2.79189554578451,2050.333,2048.47,2045.049,2046.679,3.99379873275757,44.9972229003906,358.410308837891,-0.657946169376373,-0.283148258924484,0.407128363847733,-0.65299527533123,-0.280965624398954,0.404235181908735,0
