t,x_s1,x_s2,x_s3,x_s_d1,x_s_d2,x_s_d3,propellers_rpms1,propellers_rpms2,propellers_rpms3,propellers_rpms4,rollRad,pitchRad,yawRad,v_s1,v_s2,v_s3,v_s_d1,v_s_d2,v_s_d3,insideCount
0,-0.0599999986588955,2.94000005722046,1.17999994754791,-0.0599999986588955,2.94000005722046,1.17999994754791,0,0,0,0,0,0,0,0,0,0,-1.06581410364015E-15,4.44089209850063E-16,4.44089209850063E-16,0
0.02001953125,-0.0599999986588955,2.94000005722046,1.17811644077301,-0.0600018744611685,2.93999925011514,1.18000110875888,0,0,0,0,-0.01635288,0.0001297794,-0.01587137,-1.10653664009419E-09,-7.76775763711157E-08,-0.0941759571433067,-0.000280531511337879,-0.000120704872184653,0.000173662369087018,5
0.040008544921875,-0.0599999986588955,2.94000005722046,1.17242503166199,-0.060014880898484,2.93999365380853,1.18000916036316,0,0,0,0,-0.03270202,0.0005238493,-0.03175127,-1.08383135799528E-09,-7.60859677484405E-08,-0.284568399190903,-0.00111143977225461,-0.000478221483967637,0.00068803416424398,5
0.060028076171875,-0.0599058829247952,2.93990302085876,1.16596519947052,-0.0600499614395074,2.93997855963176,1.18003087688917,1867.736,3252.71,3184.193,1722.621,-0.04941975,0.0003290266,-0.01369397,0.0047058523632586,-0.00484938966110349,-0.32299131155014,-0.0024818548295203,-0.00106787279814456,0.00153638636661368,5
0.08001708984375,-0.0598203651607037,2.93960738182068,1.16000306606293,-0.0601176241590912,2.9399494462538,1.18007276333581,1926.001,2314.512,3251.568,2829.337,-0.07542871,-0.002135855,0.02094674,0.00427579740062356,-0.0147775560617447,-0.298106998205185,-0.00437432711648753,-0.0018821507536715,0.00270791686320324,5
0.100006103515625,-0.0599374398589134,2.93904495239258,1.15498661994934,-0.0602282404704493,2.93990185114529,1.18014124010193,980.0338,1498.709,3915.274,3896.642,-0.1031916,-0.008062454,0.06330629,-0.00585382105782628,-0.028115801513195,-0.250822246074677,-0.00677739276378709,-0.00291612276782231,0.00419552897277328,4
0.120025634765625,-0.0604638271033764,2.93818354606628,1.15081334114075,-0.0603921815631679,2.93983131187307,1.18024272744792,346.3174,980.3736,4173.003,4613.322,-0.1214268,-0.01542023,0.1039998,-0.0263193659484386,-0.0430673509836197,-0.208664447069168,-0.00968281574750508,-0.00416624510959472,0.00599412420418488,4
0.1400146484375,-0.0615635402500629,2.93704128265381,1.14728283882141,-0.0606187761383957,2.93973381455767,1.18038300028418,353.4506,747.4706,3974.599,4854.822,-0.1253997,-0.02116521,0.1351017,-0.054985623806715,-0.0571108460426331,-0.176525324583054,-0.0130687916036232,-0.00562313592726786,0.00809020455552005,4
0.160003662109375,-0.0633407682180405,2.93568110466003,1.14427518844604,-0.0609177895434042,2.93960515744296,1.18056810382587,820.7313,814.6779,3463.37,4692.314,-0.1184606,-0.02352317,0.1522667,-0.0888615399599075,-0.0680129453539848,-0.150384485721588,-0.0169265510445065,-0.00728302204135792,0.0104783414199936,3
0.180023193359375,-0.0658467784523964,2.93417239189148,1.14182579517365,-0.061299173422313,2.9394410586145,1.18080419861474,1348.33,1083.158,3007.246,4255.26,-0.1079789,-0.02277961,0.1557781,-0.125300720334053,-0.0754303783178329,-0.122468166053295,-0.0212503155312517,-0.00914341710800856,0.0131549576067545,3
0.20001220703125,-0.0690847486257553,2.93255400657654,1.14006185531616,-0.0617708265342762,2.93923811945689,1.181096174359,1637.018,1381.707,2917.347,3666.326,-0.09982859,-0.02030021,0.1501559,-0.161898508667946,-0.0809135437011719,-0.0881989896297455,-0.0260142813927851,-0.0111932185284278,0.0161040794142088,3
0.220001220703125,-0.073010042309761,2.93082642555237,1.13903617858887,-0.0623420644491781,2.93899233174064,1.18144979784016,1641.203,1580.345,3148.833,3113.11,-0.09584291,-0.01735529,0.1421896,-0.196264922618866,-0.0863850116729736,-0.0512859895825386,-0.03121219533433,-0.0134297356845702,0.019321835755004,3
0.240020751953125,-0.0775497555732727,2.92897391319275,1.13863396644592,-0.0630225615075555,2.93869953286731,1.18187105793587,1523.519,1623.872,3418.358,2777.754,-0.09475581,-0.01467881,0.1377371,-0.226985290646553,-0.0926249101758003,-0.0201130174100399,-0.0368405636651345,-0.0158514653389075,0.022806063868137,3
0.260009765625,-0.0826385617256165,2.92699289321899,1.13863611221313,-0.0638185570309634,2.93835703823113,1.18236381708338,1439.798,1501.436,3531.935,2744.092,-0.09439095,-0.0125877,0.1393021,-0.254440784454346,-0.0990562811493874,0.000104410573840141,-0.0428699302682246,-0.0184457333472145,0.0265385290140116,3
0.279998779296875,-0.0882444381713867,2.92490124702454,1.13885295391083,-0.0647390625194898,2.93796097043536,1.18293365383054,1400.345,1275.715,3477.236,2977.595,-0.0932149,-0.01110591,0.1456832,-0.280293762683868,-0.104583218693733,0.0108418185263872,-0.0492963837173861,-0.0212108567320638,0.030516809833474,3
0.300018310546875,-0.0943702310323715,2.92273306846619,1.1392080783844,-0.0657936070281142,2.93750722939386,1.1835864671163,1349.826,1061.181,3346.05,3325.007,-0.0905315,-0.009936254,0.1533123,-0.306289225816727,-0.108407787978649,0.0177585128694773,-0.0561185469977389,-0.0241462430024218,0.0347400538887172,3
0.32000732421875,-0.101035445928574,2.92052626609802,1.13972580432892,-0.0669865614821475,2.93699393441958,1.18432496275165,1281.894,941.8797,3235.939,3590.356,-0.08597802,-0.008522648,0.1583579,-0.33326119184494,-0.110341787338257,0.0258874297142029,-0.0633036493784043,-0.0272377918282996,0.0391879745362408,3
0.34002685546875,-0.108251020312309,2.91831278800964,1.14046263694763,-0.068328931055223,2.93641635029375,1.18515595346331,1253.114,943.9821,3171.632,3649.534,-0.07945061,-0.006291452,0.1584748,-0.360779225826263,-0.110679261386395,0.0368406511843204,-0.0708617428582823,-0.0304898283040037,0.0438667944422071,4
0.360015869140625,-0.116002537310123,2.91611552238464,1.14145362377167,-0.0698237345322385,2.93577317811757,1.18608130802295,1319.774,1047.425,3120.219,3498.313,-0.0715602,-0.002963033,0.1534719,-0.387575387954712,-0.109858639538288,0.0495508536696434,-0.0787580297418618,-0.0338873799532906,0.0487549721754506,4
0.3800048828125,-0.124250948429108,2.91395020484924,1.14270901679993,-0.0714797725314022,2.93506063123087,1.18710647443246,1454.729,1181.313,3092.011,3231.081,-0.06362665,0.001256932,0.1450411,-0.412420928478241,-0.108260400593281,0.0627713724970818,-0.0869921272359981,-0.0374302820709642,0.0538522707687797,4
0.4000244140625,-0.132942795753479,2.91182684898376,1.14421880245209,-0.0733065984369745,2.93427459907931,1.1882373666918,1578.51,1273.094,3105.699,2982.283,-0.05701828,0.005823136,0.1357582,-0.4345922768116,-0.106172509491444,0.0754905119538307,-0.0955658248284375,-0.0411193046236092,0.0591597980003546,4
0.420013427734375,-0.142023116350174,2.90975069999695,1.14595854282379,-0.0753050585276311,2.93341471753282,1.18947450868777,1633.168,1289.396,3156.487,2844.577,-0.05243764,0.01017607,0.1278617,-0.454015970230103,-0.103806875646114,0.0869881585240364,-0.104441553474511,-0.0449382827008623,0.0646542968418633,4
0.44000244140625,-0.151445612311363,2.90772485733032,1.14789652824402,-0.077483988232608,2.93247718495301,1.19082336997196,1607.134,1237.938,3219.907,2842.589,-0.04966369,0.01397425,0.1224647,-0.471125036478043,-0.101292721927166,0.0969002023339272,-0.113620829717891,-0.048887868829098,0.0703367061060819,4
0.46002197265625,-0.161176458001137,2.90575194358826,1.14999830722809,-0.0798530997696509,2.93145782244394,1.19228996286983,1539.292,1157.515,3254.342,2939.521,-0.04789003,0.01718178,0.1193495,-0.486542344093323,-0.0986431986093521,0.105090953409672,-0.123107133063502,-0.0529695601420796,0.0762091797723108,4
0.480010986328125,-0.171193346381187,2.90383625030518,1.1522399187088,-0.0824109101018722,2.93035726811493,1.19387336931088,1475.752,1086.958,3246.383,3066.554,-0.04628787,0.01998699,0.1173761,-0.500844717025757,-0.0957820639014244,0.112082615494728,-0.132860437136906,-0.0571661344090936,0.082246939608052,5
0.5,-0.181480929255486,2.90198349952698,1.15461695194244,-0.085166398670376,2.92917165836334,1.1955791479969,1432.156,1046.355,3217.148,3168.59,-0.0443363,0.02264423,0.1152189,-0.514379441738129,-0.0926428958773613,0.118851862847805,-0.142884000065179,-0.0614789935111996,0.0884520025491718,5
0.52001953125,-0.192024275660515,2.9001989364624,1.15713632106781,-0.0881295333471192,2.92789670429234,1.19741346951549,1421.703,1044.441,3178.709,3211.501,-0.04191762,0.02537651,0.1118908,-0.527166843414307,-0.0892331153154373,0.125967845320702,-0.153182839569029,-0.0659102964334391,0.0948274748038155,5
0.540008544921875,-0.202804565429688,2.89848613739014,1.15981078147888,-0.0912963635428427,2.92653410573011,1.19937388826368,1447.832,1074.153,3146.436,3183.933,-0.03928962,0.02829081,0.1070455,-0.539015352725983,-0.0856433361768723,0.13372315466404,-0.163714777034477,-0.0704418948965508,0.101347245800684,5
0.560028076171875,-0.213797986507416,2.89684534072876,1.16265416145325,-0.0946814376832659,2.92507760289551,1.20146941041005,1484.444,1113.828,3139.594,3113.258,-0.03689171,0.03132831,0.1010553,-0.549670517444611,-0.0820345431566238,0.142171546816826,-0.174501277970274,-0.0750830249092739,0.108024603712238,5
0.58001708984375,-0.22497633099556,2.89527368545532,1.16566920280457,-0.0982790918331175,2.92352963282165,1.20369652970884,1520.423,1148.769,3145.397,3035.991,-0.0351468,0.03434319,0.09465755,-0.558917582035065,-0.0785806104540825,0.150749906897545,-0.185498893714783,-0.0798149917263209,0.114832651747179,5
0.600006103515625,-0.236311167478561,2.89376521110535,1.16885340213776,-0.102098762959148,2.92188613504538,1.20606108809202,1539.681,1166.829,3164.833,2978.769,-0.03431004,0.03715732,0.08862393,-0.566742718219757,-0.0754266083240509,0.15921051800251,-0.196713446836865,-0.0846403006364086,0.121774994352997,5
0.620025634765625,-0.247776672244072,2.89231157302856,1.1721967458725,-0.106151036002673,2.92014255516215,1.2085696381425,1532.71,1166.721,3183.099,2965.562,-0.03442296,0.03962674,0.08347447,-0.573275804519653,-0.072676956653595,0.167166590690613,-0.208152193747382,-0.0895620738704106,0.128856123593688,5
0.6400146484375,-0.259352058172226,2.89090371131897,1.17568814754486,-0.110427588881679,2.91830247393137,1.21121702809507,1510.333,1157.002,3191.85,2985.653,-0.03533695,0.04169971,0.07929785,-0.578769326210022,-0.0703897923231125,0.174567922949791,-0.21977002223474,-0.0945609009039674,0.136048112861281,5
0.660003662109375,-0.271022081375122,2.88953161239624,1.17932200431824,-0.114938248900541,2.91636166293851,1.21400934151928,1467.458,1144.399,3198.429,3030.088,-0.03678358,0.04338513,0.07590668,-0.583501160144806,-0.0686025246977806,0.181693181395531,-0.231574097577923,-0.0996398647564507,0.143355397804799,5
0.680023193359375,-0.282775312662125,2.88818502426147,1.1830917596817,-0.119694071710854,2.91431536524554,1.21695342239012,1425.318,1139.019,3192.194,3078.052,-0.03845178,0.04477053,0.07289888,-0.587662220001221,-0.0673329383134842,0.188487946987152,-0.243572831403349,-0.104802584715715,0.150783185621694,5
0.70001220703125,-0.294602513313293,2.88685345649719,1.18699371814728,-0.124683985757554,2.91216834463331,1.22004241688759,1407.025,1146.742,3174.982,3101.109,-0.0401642,0.04596798,0.06985451,-0.591360747814178,-0.0665815696120262,0.195095404982567,-0.255719729227087,-0.11002905550423,0.158302694011575,5
0.720001220703125,-0.306495100259781,2.88552618026733,1.19103062152863,-0.129918284978346,2.90991617190799,1.22328269744952,1394.391,1163.119,3164.535,3104.932,-0.04193201,0.04702213,0.0666225,-0.594629228115082,-0.0663663074374199,0.201846778392792,-0.268023157655716,-0.11532287703907,0.16591910230247,5
0.740020751953125,-0.318443804979324,2.8841917514801,1.1952018737793,-0.135408560960145,2.90755385953358,1.22668143982036,1388.626,1184.594,3154.982,3096.649,-0.04383137,0.04794882,0.06322707,-0.597434759140015,-0.0667175501585007,0.208564683794975,-0.280492548100696,-0.120688107393104,0.173638248987353,5
0.760009765625,-0.330439150333405,2.88283848762512,1.19950604438782,-0.141140917956636,2.9050873864615,1.23023004187122,1396.274,1207.994,3147.091,3072.873,-0.04599013,0.04873791,0.05980227,-0.599765419960022,-0.0676672458648682,0.21521008014679,-0.293080296154222,-0.126104263719567,0.181430664670081,5
0.779998779296875,-0.342472225427628,2.88145327568054,1.20394444465637,-0.147126184485884,2.90251209348295,1.23393520697061,1388.067,1226.708,3152.002,3057.464,-0.04854197,0.0493203,0.05664385,-0.601653516292572,-0.0692601576447487,0.221917897462845,-0.305795832832518,-0.131575403921268,0.189302187598958,5
0.800018310546875,-0.354535430669785,2.88002276420593,1.20851147174835,-0.153376545303595,2.89982273783796,1.23780447806275,1369.292,1240.029,3155.662,3058.016,-0.0514805,0.04965581,0.05394936,-0.603160321712494,-0.0715262293815613,0.228352010250092,-0.318649478366155,-0.137105968505107,0.197259206488328,5
0.82000732421875,-0.366623401641846,2.87853336334229,1.21320044994354,-0.159875221826383,2.89702653888221,1.24182746840525,1356.482,1251.049,3153.778,3060.408,-0.05473755,0.04974207,0.0517545,-0.604399621486664,-0.0744720324873924,0.234449073672295,-0.331592781842754,-0.14267511039705,0.205271727915392,4
0.84002685546875,-0.378733456134796,2.87697124481201,1.21800935268402,-0.166644154783139,2.89411405613301,1.24601776035448,1327.46,1259.817,3156.833,3076.355,-0.05825185,0.04956172,0.0500971,-0.605501651763916,-0.0781017690896988,0.240444928407669,-0.344656091553402,-0.148295887618918,0.213358538918022,4
0.860015869140625,-0.390864700078964,2.87532329559326,1.22293066978455,-0.173664618315387,2.89109334680413,1.25036376171199,1299.523,1269.149,3150.59,3099.165,-0.06189346,0.04915035,0.04886525,-0.606562495231628,-0.0823942422866821,0.246068269014359,-0.357790534090669,-0.153947271308859,0.221489384528856,4
0.8800048828125,-0.403018355369568,2.87357664108276,1.22796320915222,-0.180948461186242,2.88795931270381,1.25487280742661,1276.546,1280.82,3147.54,3112.435,-0.06553507,0.04855134,0.04792478,-0.60768324136734,-0.0873333364725113,0.251627326011658,-0.371007022483504,-0.159633957038354,0.229671020432672,4
0.9000244140625,-0.415196299552917,2.87171912193298,1.23310232162476,-0.188508963212068,2.88470623989808,1.25955311833725,1255.242,1294.745,3139.838,3126.803,-0.06912341,0.04779946,0.04720059,-0.608897864818573,-0.0928814858198166,0.256957352161407,-0.384317079523421,-0.165360902742685,0.237910579786325,4
0.920013427734375,-0.427401065826416,2.86973905563354,1.23834443092346,-0.196324452211266,2.88134345332121,1.26439127833112,1252.182,1311.106,3129.055,3125.349,-0.07264891,0.04693714,0.04660558,-0.610238254070282,-0.0990017876029015,0.262107521295547,-0.397671404529394,-0.171106895716105,0.246177543119742,4
0.94000244140625,-0.439635694026947,2.86762547492981,1.24369180202484,-0.204407453948074,2.87786556348678,1.26939504145298,1237.738,1326.991,3129.031,3126.488,-0.07617706,0.04595058,0.04622914,-0.611732542514801,-0.105680763721466,0.267370104789734,-0.411081631631503,-0.176876941799768,0.254479112513653,4
0.96002197265625,-0.451903522014618,2.8653678894043,1.24914085865021,-0.21277195700315,2.87426655149935,1.27457306730061,1221.135,1340.559,3127.596,3133.21,-0.07968338,0.04484647,0.04612066,-0.613390028476715,-0.112884499132633,0.272450774908066,-0.424559845004915,-0.182676240476657,0.262822768648136,3
0.980010986328125,-0.464208513498306,2.86295652389526,1.25468742847443,-0.221393324468958,2.87055701793193,1.27991010445463,1221.037,1353.422,3122.589,3128.965,-0.08314176,0.04364743,0.0462645,-0.615249454975128,-0.120573669672012,0.277328938245773,-0.438056556301695,-0.188483498293199,0.271177875878363,3
1,-0.476555705070496,2.86038208007813,1.26033294200897,-0.230284798736574,2.86673126495361,1.28541435058594,1205.674,1364.055,3126.188,3134.71,-0.08659162,0.04232837,0.04676495,-0.617361545562744,-0.128727003931999,0.282277852296829,-0.451584000205995,-0.194303979492187,0.279552008056641,3
1.02001953125,-0.488950878381729,2.85763621330261,1.266073346138,-0.239461107372567,2.86278295570393,1.29109492275982,1186.891,1371.959,3126.025,3149.806,-0.08996478,0.04090352,0.047615,-0.619759261608124,-0.137294411659241,0.287020474672318,-0.465154707681581,-0.200143075797255,0.287952922446475,3
1.04000854492188,-0.501400828361511,2.85471177101135,1.27190494537354,-0.248894644448595,2.85872396824263,1.29693473159157,1185.436,1380.2,3120.521,3153.823,-0.09319519,0.03941328,0.04870971,-0.622494220733643,-0.146223068237305,0.291577816009521,-0.47871923339115,-0.205979512261105,0.296350010028666,3
1.06002807617188,-0.513912975788116,2.85160207748413,1.27783036231995,-0.258614425333445,2.85454181806712,1.30295173897666,1170.392,1387.884,3123.318,3164.934,-0.09630097,0.03785292,0.0500723,-0.62561172246933,-0.155484572052956,0.296272158622742,-0.49231101665365,-0.211827676888493,0.304763971334579,3
1.08001708984375,-0.526495277881622,2.84830188751221,1.28384602069855,-0.268590868588476,2.85024923324404,1.30912763259543,1160.662,1394.88,3119.517,3177.92,-0.09922992,0.036257,0.05163158,-0.629114329814911,-0.16501396894455,0.300782203674316,-0.505880764601332,-0.21766636033551,0.313164291730931,3
1.10000610351563,-0.539156019687653,2.84480619430542,1.28995442390442,-0.278838480013141,2.84583997233313,1.31547139222872,1155.27,1401.471,3122.382,3181.733,-0.1019304,0.03465,0.05333668,-0.633037865161896,-0.17478109896183,0.305418789386749,-0.519441457145546,-0.223501147495394,0.321559006401169,3
1.12002563476563,-0.551903307437897,2.84111189842224,1.29615390300751,-0.28937326791995,2.84130714740473,1.32199292778458,1149.338,1407.719,3121.325,3190.729,-0.1044034,0.03304641,0.05518416,-0.637363374233246,-0.184720546007156,0.309971928596497,-0.533006127404302,-0.22933764615472,0.329956183466192,3
1.1400146484375,-0.564745247364044,2.8372163772583,1.30244314670563,-0.300162704591434,2.83666475422696,1.32867210305637,1159.95,1413.989,3116.456,3188.625,-0.1066649,0.03147547,0.05711095,-0.642095983028412,-0.194774985313416,0.314463824033737,-0.54652589017629,-0.235154822377061,0.338325560657667,3
1.16000366210938,-0.577690303325653,2.83311772346497,1.30882799625397,-0.311222084148811,2.83190621216671,1.33551838583369,1154.503,1418.363,3123.083,3194.179,-0.1087859,0.02991411,0.05919332,-0.647253036499023,-0.204927816987038,0.319241523742676,-0.560014026276883,-0.240958390526247,0.34667535943296,3
1.18002319335938,-0.590746581554413,2.8288152217865,1.31530797481537,-0.322568202252263,2.82702429452064,1.34254217343029,1146.37,1420.324,3127.355,3206.348,-0.110714,0.02837638,0.06142177,-0.652813673019409,-0.215125441551208,0.323997348546982,-0.573483731835696,-0.246754028528194,0.355013748824923,3
1.20001220703125,-0.603922247886658,2.8243088722229,1.32188177108765,-0.334165615614823,2.82203425154496,1.34972152476313,1158.429,1422.831,3125.315,3205.176,-0.1124136,0.02689932,0.063705,-0.658783078193665,-0.225312411785126,0.328690379858017,-0.586886736182789,-0.252520966862155,0.363310846989412,3
1.22000122070313,-0.617225825786591,2.81959939002991,1.32855498790741,-0.346030421585499,2.81692915700008,1.35706640485806,1156.534,1423.939,3132.621,3211.179,-0.1139444,0.02546207,0.0661,-0.665178179740906,-0.235470592975616,0.333662778139114,-0.600236516861372,-0.258265004538453,0.371574997167698,3
1.24002075195313,-0.630665242671967,2.81468844413757,1.33532774448395,-0.358180209983518,2.8117014424782,1.36458770265112,1152.385,1423.321,3136.566,3223.784,-0.1152685,0.02407863,0.0685799,-0.671971380710602,-0.245545938611031,0.338638335466385,-0.613546334788502,-0.263991847359231,0.379814408499145,2
1.260009765625,-0.644248425960541,2.80957865715027,1.34219992160797,-0.37057666480527,2.80636759428526,1.37226169871082,1167.188,1423.93,3134.439,3223.334,-0.1163706,0.02278614,0.07104079,-0.679160356521606,-0.255488455295563,0.343607664108276,-0.626768731761373,-0.26968107538565,0.387999702095469,2
1.27999877929688,-0.657983541488647,2.80427289009094,1.34917843341827,-0.383236695417198,2.80092033679326,1.3800988607405,1167.019,1423.178,3143.171,3229.278,-0.1173128,0.0215617,0.07353352,-0.686753273010254,-0.265291720628738,0.348926186561584,-0.639917282339435,-0.275338529371412,0.396139281255613,2
1.30001831054688,-0.671877682209015,2.79877471923828,1.35626423358917,-0.396178686849666,2.79535175943725,1.38811056994974,1165.347,1421.096,3148.782,3240.131,-0.1180537,0.02041929,0.07603367,-0.694704413414001,-0.274910390377045,0.35429111123085,-0.653005218467598,-0.280969902652754,0.404241337183804,2
1.32000732421875,-0.685937464237213,2.79308867454529,1.36345744132996,-0.409361504843077,2.78967956113998,1.39627136227237,1183.894,1420.646,3147.375,3237.041,-0.1185863,0.01939267,0.07844985,-0.702996015548706,-0.284299403429031,0.359659612178802,-0.6659860834168,-0.286555206197011,0.41227711095171,2
1.34002685546875,-0.700170159339905,2.78721952438354,1.37076532840729,-0.422823591595166,2.78388720129772,1.40460503526004,1187.463,1418.446,3157.059,3240.418,-0.1189874,0.01845063,0.08085181,-0.711631059646606,-0.293460071086884,0.365392744541168,-0.67889305416841,-0.29210871513241,0.420267140691238,2
1.36001586914063,-0.71458113193512,2.78117251396179,1.37818777561188,-0.4365219692899,2.77799317206405,1.4130849835973,1193.359,1415.883,3159.824,3247.771,-0.1192558,0.01760365,0.08321775,-0.720552206039429,-0.302348852157593,0.371125072240829,-0.691680442442074,-0.297610771068296,0.428183143180414,2
1.3800048828125,-0.729176580905914,2.77495312690735,1.38573050498962,-0.450474904562636,2.77198961381608,1.4217225152016,1199.617,1411.795,3170.044,3249.114,-0.1193597,0.01685405,0.08552885,-0.72977203130722,-0.310968190431595,0.37713810801506,-0.704361775018035,-0.303067194200314,0.436033492140578,2
1.4000244140625,-0.74396139383316,2.76856756210327,1.39339411258698,-0.464702095472036,2.76586805102946,1.43052982410961,1204.518,1407.944,3174.836,3256.249,-0.1193,0.01620299,0.08778385,-0.739236533641815,-0.319279581308365,0.383182793855667,-0.716950039288891,-0.308483572640673,0.443826227386424,2
1.42001342773438,-0.758939921855927,2.76202249526978,1.40117907524109,-0.479157861067077,2.75964813894125,1.43947863163655,1224.945,1405.868,3172.852,3253.586,-0.1191141,0.0156709,0.08990975,-0.748925626277924,-0.327251017093658,0.389249473810196,-0.729400843645231,-0.313840805920001,0.451533868397062,2
1.44000244140625,-0.774116814136505,2.7553243637085,1.40909361839294,-0.493861275572861,2.75332167044526,1.4485807456364,1227.49,1401.367,3184.474,3257.886,-0.1188686,0.01522106,0.09197255,-0.758847951889038,-0.334906250238419,0.39572748541832,-0.741727567798258,-0.319144650954242,0.459164697851088,2
1.46002197265625,-0.789495646953583,2.74847984313965,1.41713905334473,-0.50883280894277,2.74687983789241,1.45784883798541,1226.676,1396.042,3192.957,3267.568,-0.1185091,0.01486037,0.09396025,-0.768940269947052,-0.342228084802628,0.402270972728729,-0.753942941956197,-0.324400585196357,0.466726596353819,2
1.48001098632813,-0.80507904291153,2.74149608612061,1.42531454563141,-0.524024159888143,2.74034342397783,1.467253007885,1247.057,1393.488,3191.917,3263.042,-0.1180217,0.01462115,0.09578191,-0.779171466827393,-0.349188983440399,0.408774316310883,-0.766004036374583,-0.329590137176618,0.474192988348404,2
1.5,-0.820869982242584,2.73437976837158,1.4336268901825,-0.539455198877605,2.73370387899399,1.4768055561018,1253.224,1388.915,3202.262,3263.841,-0.1174784,0.01446512,0.09751043,-0.789547026157379,-0.355810195207596,0.41561633348465,-0.777924000354858,-0.334718964672088,0.481572013878822,1
1.52001953125,-0.836870074272156,2.72713828086853,1.44207680225372,-0.555147149984933,2.72695207081487,1.48651962134853,1254.831,1383.613,3209.101,3271.747,-0.1168616,0.0143897,0.09915236,-0.800005078315735,-0.362078964710236,0.422493726015091,-0.789715229532175,-0.33979240117828,0.488871346433721,1
1.54000854492188,-0.853080451488495,2.71977877616882,1.45066344738007,-0.571049184024557,2.72010986981902,1.49636373793799,1274.182,1380.915,3207.496,3267.864,-0.1161767,0.01441907,0.100627,-0.810519814491272,-0.367978513240814,0.429333627223969,-0.801336412291853,-0.344792671461508,0.496065412155667,1
1.56002807617188,-0.869502484798431,2.71230792999268,1.45939385890961,-0.587206756460638,2.71315771779009,1.50636604496784,1277.456,1375.761,3218.983,3269.492,-0.1154789,0.01451469,0.1020052,-0.821102797985077,-0.373543053865433,0.436519205570221,-0.812817768080001,-0.349732778105201,0.503172918321354,1
1.58001708984375,-0.886136114597321,2.70473265647888,1.46826648712158,-0.603567408310176,2.70611818636293,1.51649406782863,1282.748,1371.677,3221.774,3275,-0.1147561,0.0146834,0.1032709,-0.831680595874786,-0.378759980201721,0.443630933761597,-0.824119146742882,-0.35459544561987,0.510169010073001,0
1.60000610351563,-0.902981460094452,2.69705963134766,1.47728526592255,-0.620152298932711,2.69898217125626,1.52676090517188,1289,1366.305,3231.643,3273.531,-0.1139668,0.01492415,0.1044105,-0.842267215251923,-0.383653968572617,0.45093896985054,-0.835253140422976,-0.35938609205264,0.51706148254665,0
1.62002563476563,-0.920037448406219,2.68929529190063,1.48644876480103,-0.636983857763694,2.69174002171061,1.53718044188659,1294.098,1361.969,3234.824,3277.738,-0.1131162,0.0152327,0.1054329,-0.852801144123077,-0.388211727142334,0.458177626132965,-0.846231427202183,-0.364109742155907,0.523857565031302,0
1.6400146484375,-0.937302708625793,2.68144679069519,1.49575567245483,-0.654007271984653,2.68441532215046,1.54771874622704,1313.967,1360.389,3230.365,3272.501,-0.1122576,0.01562229,0.1062762,-0.86326265335083,-0.392423927783966,0.465343594551086,-0.857015715678588,-0.368749920209162,0.530533553325099,0
1.66000366210938,-0.954776108264923,2.6735200881958,1.50521278381348,-0.671244443874359,2.67699864863716,1.55838937674714,1313.83,1355.564,3241.941,3274.299,-0.1114522,0.01604748,0.1070235,-0.873672068119049,-0.396340221166611,0.472854644060135,-0.867618167158098,-0.373311858882592,0.53709697585572,0
1.68002319335938,-0.972455322742462,2.66552066802979,1.51481902599335,-0.688718488267733,2.66948005550297,1.56920664263081,1309.393,1350.443,3249.667,3282.014,-0.1106288,0.01651226,0.1076777,-0.88396155834198,-0.399970889091492,0.480314791202545,-0.87804994059578,-0.377800359562815,0.543554740547927,0
1.70001220703125,-0.990337371826172,2.65745449066162,1.52457070350647,-0.706372354049449,2.66188409024902,1.58013522651994,1327.685,1349.08,3245.703,3274.897,-0.1097691,0.01704914,0.1081519,-0.894101738929749,-0.403304785490036,0.487583518028259,-0.888274735793774,-0.382199803288802,0.549884375850026,0
1.72000122070313,-1.00841963291168,2.64932703971863,1.53447222709656,-0.724228658537036,2.6542010212754,1.5911891296115,1331.279,1345.245,3254.186,3272.876,-0.108943,0.01761435,0.1085311,-0.904114365577698,-0.406377911567688,0.495076328516006,-0.898304216251578,-0.386515208538549,0.556093102023817,0
1.74002075195313,-1.02669847011566,2.64114308357239,1.54452168941498,-0.742311168965756,2.64642062220478,1.6023830649563,1328.523,1341.06,3258.594,3279.668,-0.1081302,0.01820021,0.1088346,-0.913942635059357,-0.409197241067886,0.50247049331665,-0.908148960779607,-0.390751127078638,0.562187467856884,0
1.760009765625,-1.04516994953156,2.63290786743164,1.55471551418304,-0.760560719141003,2.63856835059778,1.61368040586141,1343.959,1340.101,3253.833,3274.16,-0.1073307,0.01883326,0.1089804,-0.923571407794952,-0.4117611348629,0.50969010591507,-0.91777478390713,-0.394892849856044,0.568146310914365,0
1.77999877929688,-1.06383049488068,2.62462544441223,1.56505835056305,-0.779000609654483,2.63063418086074,1.62509557650306,1342.464,1336.364,3263.479,3273.896,-0.1065882,0.01947258,0.1090471,-0.933028161525726,-0.414115786552429,0.517140746116638,-0.927192788821983,-0.398945154262308,0.57397650459845,0
1.80001831054688,-1.08267569541931,2.61630010604858,1.57554709911346,-0.797655223615693,2.62260762162281,1.63664367118754,1336.948,1332.689,3267.967,3280.517,-0.1058473,0.02012056,0.1090425,-0.942252516746521,-0.416270434856415,0.524436056613922,-0.936412917636689,-0.402912318110697,0.579684203550397,0
1.82000732421875,-1.10170018672943,2.60793566703796,1.58617663383484,-0.816463410111527,2.61451498441355,1.64828683458664,1353.167,1332.805,3261.151,3273.094,-0.1051038,0.02080786,0.1088795,-0.951227307319641,-0.418216675519943,0.531474649906158,-0.94540321420156,-0.406780591562751,0.585249625391268,0
1.84002685546875,-1.12089991569519,2.59953570365906,1.59695076942444,-0.835478236913388,2.60633343565348,1.6600579181788,1352.708,1330.209,3268.76,3270.978,-0.1044241,0.02148987,0.1086459,-0.95998603105545,-0.419996589422226,0.538707256317139,-0.954187384555097,-0.410560174664568,0.59068744528817,0
1.86001586914063,-1.1402690410614,2.59110331535339,1.60786461830139,-0.854637305360818,2.59808982374295,1.67191829422076,1351.597,1328.911,3267.257,3275.519,-0.1038047,0.02216892,0.1083431,-0.968465626239777,-0.421613931655884,0.545693218708038,-0.962735018414262,-0.414237982720922,0.595978837827261,0
1.8800048828125,-1.15980303287506,2.58264112472534,1.61891937255859,-0.873964974649439,2.58977366760063,1.68388304221498,1351.212,1326.094,3274.382,3271.917,-0.1031852,0.02284663,0.107961,-0.976702809333801,-0.423104166984558,0.552736163139343,-0.971056158224177,-0.417818336715394,0.601130019760457,0
1.9000244140625,-1.17949604988098,2.57415175437927,1.63010990619659,-0.893486564535158,2.58137407284289,1.69596783629653,1349.066,1324.484,3274.066,3275.056,-0.1025551,0.02352039,0.1075168,-0.984646856784821,-0.424463033676147,0.559525847434998,-0.979159571260204,-0.421305008961645,0.606146418448853,0
1.92001342773438,-1.19934189319611,2.56563806533813,1.64143085479736,-0.913137923350175,2.5729186421402,1.70813296352707,1364.219,1326.019,3264.697,3267.426,-0.1019565,0.02420874,0.1069437,-0.992293775081635,-0.425682246685028,0.566047608852386,-0.987017247723777,-0.424685947625853,0.611010694492843,0
1.94000244140625,-1.21933555603027,2.55710172653198,1.65288627147675,-0.932943991899774,2.5643966441608,1.72039386345315,1358.505,1324.276,3272.458,3266.922,-0.101451,0.02486498,0.1063356,-0.999686181545258,-0.426811069250107,0.572773396968842,-0.994638524886308,-0.427965170275055,0.615728628108227,0
1.96002197265625,-1.23947095870972,2.54854440689087,1.66447198390961,-0.952930593197372,2.55579696798345,1.73276652175022,1346.621,1322.185,3276.128,3274.533,-0.1009663,0.0254941,0.1057042,-1.00677216053009,-0.427863955497742,0.579283475875854,-1.00203140433628,-0.431146119769234,0.620305172659443,0
1.98001098632813,-1.2597416639328,2.53996801376343,1.67618072032928,-0.973031969359004,2.54714790738853,1.74521023115561,1359.433,1323.848,3267.772,3265.86,-0.1004667,0.02613576,0.1049527,-1.01354110240936,-0.428829818964005,0.585437834262848,-1.00917036754089,-0.434217816196637,0.624724530959079,0
2,-1.28014242649078,2.5313732624054,1.6880145072937,-0.993273599084619,2.53843849960327,1.7577407641983,1356.94,1323.154,3272.813,3262.104,-0.1000166,0.02674776,0.1041729,-1.02003252506256,-0.429740816354752,0.591689884662628,-1.01606400046349,-0.437183953857422,0.628992018127441,0
2.02001953125,-1.30066645145416,2.52276134490967,1.69996821880341,-1.01368176147806,2.52965743746343,1.77037438889544,1347.436,1322.031,3273.317,3268.48,-0.09958891,0.0273259,0.1033895,-1.02620375156403,-0.430600732564926,0.597687065601349,-1.0227194988233,-0.440047628868552,0.633112088657522,0
2.04000854492188,-1.32130765914917,2.51413321495056,1.71203529834747,-1.03418924440916,2.52083364047092,1.78306949773667,1358.597,1324.002,3264.14,3261.045,-0.09917239,0.02790309,0.1025124,-1.03205633163452,-0.431400835514069,0.603354752063751,-1.02911391720548,-0.442798968459032,0.637070538244476,0
2.05999755859375,-1.34206008911133,2.50548958778381,1.72421824932098,-1.05482201812353,2.5119559343546,1.79584216754118,1351.774,1323.387,3270.212,3259.262,-0.09881499,0.02843939,0.1016296,-1.03763437271118,-0.432179003953934,0.609146237373352,-1.03525504859546,-0.445441325732794,0.640872191117535,0
2.08001708984375,-1.36291790008545,2.49683094024658,1.73651123046875,-1.07560676837143,2.50301283698163,1.80870891805959,1339.73,1322.532,3270.85,3266.279,-0.09845653,0.02893988,0.1007518,-1.04289257526398,-0.432937294244766,0.614647150039673,-1.0411492471255,-0.447977434695423,0.644520980787238,0
2.10000610351563,-1.3838746547699,2.48815774917603,1.74890661239624,-1.09647498538954,2.49403382618922,1.82162733848484,1351.912,1325.048,3260.49,3257.182,-0.0980773,0.02944292,0.09978012,-1.04783153533936,-0.433659166097641,0.619770467281342,-1.04677621342161,-0.450398561093403,0.648004340974112,0
2.12002563476563,-1.4049243927002,2.47947025299072,1.76140654087067,-1.11748519122939,2.48499372157354,1.8346336567546,1346.321,1325.205,3264.917,3254.118,-0.09774441,0.0299058,0.09881003,-1.05249524116516,-0.434375584125519,0.62499475479126,-1.05215090364426,-0.452711140144745,0.65133153025393,0
2.1400146484375,-1.42606115341187,2.47076869010925,1.77400350570679,-1.13856809990831,2.47592233495728,1.84768498154507,1340.355,1326.254,3259.701,3258.577,-0.09744985,0.03033572,0.09784029,-1.0568345785141,-0.435078412294388,0.629849076271057,-1.05725481901126,-0.454907212340279,0.654491096999312,0
2.16000366210938,-1.44727909564972,2.46205282211304,1.78669703006744,-1.15975039167652,2.46680818657414,1.86079782920208,1336.21,1325.784,3263.667,3253.636,-0.09712549,0.03073962,0.09685452,-1.06089985370636,-0.43579113483429,0.634677767753601,-1.0620943502576,-0.456989527434725,0.657486997379635,0
2.18002319335938,-1.46857213973999,2.45332288742065,1.79948019981384,-1.18105931486702,2.45763955222766,1.87398906774178,1329.581,1326.297,3260.13,3256.703,-0.0967617,0.03111758,0.09587232,-1.06465196609497,-0.436497181653976,0.639160335063934,-1.0666743814704,-0.458960186914335,0.660322254877504,0
2.20001220703125,-1.48993396759033,2.44457936286926,1.8123459815979,-1.20242455577657,2.44844668594002,1.88721516963236,1342.127,1329.342,3248.016,3247.575,-0.09638938,0.03149372,0.09481892,-1.06809854507446,-0.437176555395126,0.643292188644409,-1.07097916161324,-0.460812413548163,0.662987118851036,0
2.22000122070313,-1.51135981082916,2.43582201004028,1.82529735565186,-1.22387315175433,2.43921795429519,1.90049287228091,1332.873,1329.643,3252.958,3246.391,-0.09607887,0.03182399,0.09379327,-1.07128691673279,-0.437864452600479,0.647567749023438,-1.07501419914593,-0.462548577472581,0.665484999299265,0
2.24002075195313,-1.53284335136414,2.42705082893372,1.83832836151123,-1.24543261682529,2.42994151877688,1.91383920817958,1317.083,1329.132,3253.655,3254.5,-0.09575236,0.03211714,0.09280323,-1.07417714595795,-0.438560605049133,0.651550352573395,-1.07878346314438,-0.464170386470068,0.667818353269249,0
2.260009765625,-1.55437874794006,2.41826605796814,1.85143077373505,-1.26703177594152,2.42064800401982,1.92721011658316,1328.331,1331.62,3243.088,3244.295,-0.09536301,0.03241837,0.0917397,-1.07677066326141,-0.439242333173752,0.655119359493256,-1.08227399942825,-0.465672266718726,0.669979161506271,0
2.27999877929688,-1.5759608745575,2.40946745872498,1.8646057844162,-1.28869796983554,2.41132564607061,1.9406225227075,1323.253,1332.33,3245.839,3239.844,-0.09498324,0.03268706,0.0906997,-1.07910776138306,-0.43992868065834,0.658748149871826,-1.08549040888332,-0.467056197851165,0.67197027217779,0
2.30001831054688,-1.59758388996124,2.4006552696228,1.87784707546234,-1.31045892272318,2.4019625159737,1.95409358916289,1311.097,1332.151,3243.864,3246.42,-0.09458429,0.03292331,0.08970381,-1.0811539888382,-0.44060868024826,0.662064969539642,-1.08843572622736,-0.468323485621664,0.673793563918671,0
2.32000732421875,-1.61924231052399,2.39182996749878,1.89114737510681,-1.33224276726637,2.39258953623693,1.96757882664355,1321.66,1334.303,3232.966,3237.433,-0.09414434,0.0331642,0.08865181,-1.08291935920715,-0.4412622153759,0.665014922618866,-1.09109983431736,-0.469469776906228,0.675442773735451,0
2.34002685546875,-1.64093112945557,2.38299179077148,1.90450870990753,-1.35411046309062,2.38318047763645,1.98111597206157,1313.184,1334.55,3236.875,3235.198,-0.09372357,0.03337111,0.08763522,-1.08444547653198,-0.441914141178131,0.668065071105957,-1.09348983658457,-0.470498128112872,0.676922298990446,0
2.36001586914063,-1.66264486312866,2.37414073944092,1.91792297363281,-1.3759897762471,2.37376642042246,1.99466030916165,1306.028,1335.285,3230.693,3239.656,-0.09329426,0.03355819,0.08663927,-1.08568799495697,-0.442545801401138,0.670711994171143,-1.09559752564474,-0.471405007833448,0.678227058921845,0
2.3800048828125,-1.68437886238098,2.36527752876282,1.93138921260834,-1.39790843013262,2.36433543599182,2.00822900004707,1302.938,1334.796,3233.068,3233.105,-0.09278719,0.03373625,0.08563879,-1.08669459819794,-0.443170040845871,0.673313915729523,-1.09742594550583,-0.472191725819537,0.679358937915576,0
2.4000244140625,-1.70612728595734,2.35640239715576,1.94490039348602,-1.41989437329222,2.3548754988664,2.02183934619858,1296.766,1335.159,3227.858,3235.648,-0.09220876,0.03390371,0.08465598,-1.08742928504944,-0.44376003742218,0.675560474395752,-1.09897654259203,-0.472858904427064,0.68031883137712,0
2.42001342773438,-1.72788548469543,2.34751653671265,1.95844984054565,-1.44187496577138,2.34541786398928,2.035446380024,1310.019,1337.338,3215.336,3225.345,-0.0915909,0.0340849,0.08361371,-1.08790147304535,-0.444291651248932,0.677471339702606,-1.1002439936861,-0.473404253224357,0.681103443981416,0
2.44000244140625,-1.7496485710144,2.33862066268921,1.97204053401947,-1.46387808506052,2.33595053645515,2.04906735901791,1300.238,1337.319,3219.481,3224.113,-0.0910098,0.03423647,0.08261378,-1.08815133571625,-0.444793462753296,0.679535865783691,-1.10123038958312,-0.473828671822132,0.681714070030222,0
2.46002197265625,-1.77141129970551,2.32971549034119,1.98566663265228,-1.48593173759011,2.32646146587939,2.06271962049488,1284.504,1336.122,3219.385,3231.992,-0.09038609,0.03436978,0.08165668,-1.0881427526474,-0.445258319377899,0.681306004524231,-1.10193621258339,-0.474132367740737,0.682151008090402,0
2.48001098632813,-1.79316878318787,2.32080221176147,1.9993200302124,-1.5079630509786,2.31698200721197,2.07635805297935,1297.028,1337.311,3208.727,3220.363,-0.08966437,0.03453014,0.08062843,-1.08787846565247,-0.445660054683685,0.682672679424286,-1.10235904000526,-0.474314298567936,0.682412758406602,0
2.5,-1.81491672992706,2.31188201904297,2.0130021572113,-1.52999999932945,2.30750012397766,2.08999997377396,1292.847,1337.376,3210.528,3215.192,-0.08892774,0.03467724,0.07962855,-1.08739042282104,-0.446011185646057,0.684106111526489,-1.10250000050292,-0.474374949932098,0.682500019669533,0
2.52001953125,-1.83664965629578,2.30295610427856,2.02670693397522,-1.55207058900185,2.29800376582252,2.10366272014916,1281.432,1336.195,3207.785,3221.467,-0.0881533,0.03481158,0.07867411,-1.08664751052856,-0.446296185255051,0.685237407684326,-1.10235860927677,-0.474314113237503,0.682412491765153,0
2.54000854492188,-1.85836291313171,2.29402613639832,2.04042744636536,-1.57410188948011,2.28852431271001,2.11730114464159,1293.169,1336.76,3197.091,3211.403,-0.0873144,0.03496948,0.07766076,-1.08566009998322,-0.446494489908218,0.686026632785797,-1.10193535162022,-0.474131997292339,0.682150475113189,0
2.55999755859375,-1.88005185127258,2.2850935459137,2.0541660785675,-1.59612191359838,2.27904971150017,2.13093258853001,1285.493,1336.127,3200.328,3208.668,-0.08647764,0.03511316,0.07668015,-1.08446049690247,-0.446626305580139,0.6869295835495,-1.10123038958312,-0.473828671822132,0.681714070030222,0
2.58001708984375,-1.90171217918396,2.27616000175476,2.06791663169861,-1.6181586096433,2.26956793682606,2.14457435313522,1272.774,1334.406,3198.554,3215.195,-0.08558441,0.03525145,0.07573291,-1.08301520347595,-0.44667860865593,0.687527060508728,-1.10024227275454,-0.473403512755585,0.681102378642802,0
2.60000610351563,-1.92333889007568,2.26722717285156,2.08167171478271,-1.64013916343638,2.26011031859448,2.15818136301212,1286.334,1334.68,3187.526,3203.432,-0.08459904,0.03542425,0.07470953,-1.08132898807526,-0.446627020835876,0.687755405902863,-1.09897439291323,-0.472857979480329,0.680317500623536,0
2.62002563476563,-1.94492721557617,2.25829768180847,2.09543347358704,-1.66212505926897,2.25065040183254,2.17179167986595,1281.521,1334.087,3189.542,3198.82,-0.08360834,0.03559115,0.07370827,-1.07942986488342,-0.446487039327621,0.688086152076721,-1.09742336725307,-0.472190616469403,0.679357341854299,0
2.6400146484375,-1.96647310256958,2.24937295913696,2.10919451713562,-1.68404365734903,2.24121944141343,2.18536033620513,1276.382,1333.163,3182.671,3202.331,-0.08260593,0.03576029,0.07272123,-1.07728028297424,-0.446239918470383,0.688048660755157,-1.09559452046326,-0.471403714787811,0.678225198571351,0
2.66000366210938,-1.98797154426575,2.24045491218567,2.12295484542847,-1.70592290617745,2.23180541187802,2.19890463348308,1274.131,1331.012,3185.037,3195.289,-0.08152895,0.03594033,0.07172242,-1.07492125034332,-0.445900171995163,0.688011646270752,-1.09348640563071,-0.470496651869278,0.67692017506657,0
2.68002319335938,-2.00941801071167,2.23154592514038,2.13670802116394,-1.72779052905813,2.22239638466312,2.21244173374556,1268.217,1329.559,3180.414,3197.33,-0.08037527,0.03612986,0.07073204,-1.0723192691803,-0.445445567369461,0.687656462192535,-1.09109597826566,-0.469468117754907,0.675440386655758,0
2.70001220703125,-2.03080725669861,2.22264885902405,2.15044760704041,-1.74957429229274,2.21302343991116,2.22592692089233,1282.799,1329.367,3168.668,3185.714,-0.07916086,0.03635388,0.06966949,-1.06947898864746,-0.444854557514191,0.686979949474335,-1.08843144721369,-0.468321644481621,0.673790915005369,0
2.72000122070313,-2.05213570594788,2.21376585960388,2.16417670249939,-1.77130202882336,2.20367460188472,2.23937742484041,1276.086,1328.104,3171.323,3182.701,-0.07797363,0.03657101,0.06863178,-1.06642782688141,-0.444149047136307,0.686452090740204,-1.08549040888332,-0.467056197851165,0.671970272177789,0
2.74002075195313,-2.07339859008789,2.20489907264709,2.17788982391357,-1.79300125102058,2.19433803277934,2.25281027705779,1262.5,1325.386,3170.39,3189.541,-0.0767507,0.03678864,0.06762148,-1.06313729286194,-0.443324595689774,0.68566220998764,-1.08226887897249,-0.465670063529659,0.669975991700231,0
2.760009765625,-2.09459090232849,2.19605207443237,2.19158029556274,-1.81460030360772,2.18504456385877,2.26618111951479,1275.615,1324.256,3160.754,3177.277,-0.0754351,0.03704679,0.06652734,-1.05961048603058,-0.442363649606705,0.684520304203033,-1.07877792518082,-0.464168003639063,0.667814925005998,0
2.77999877929688,-2.1157078742981,2.18722653388977,2.20524930953979,-1.83612684690458,2.17578229366013,2.27950707526701,1272.44,1322.958,3161.951,3171.584,-0.07410938,0.03730853,0.06544293,-1.05586612224579,-0.441277921199799,0.683454096317291,-1.07501419914593,-0.462548577472581,0.665484999299265,0
2.80001831054688,-2.13674569129944,2.17842531204224,2.21889162063599,-1.85760812647542,2.16653949917827,2.29280501061661,1263.181,1320.298,3158.994,3175.994,-0.07274957,0.03757448,0.06438091,-1.05187857151031,-0.440057784318924,0.682112097740173,-1.07097279461286,-0.460809674005774,0.6629831773745,0
2.82000732421875,-2.15769863128662,2.1696515083313,2.23250079154968,-1.87897323600723,2.1573466894188,2.30603103117811,1276.038,1318.808,3149.046,3164.69,-0.07132904,0.03787503,0.06324548,-1.04765474796295,-0.438689589500427,0.680458068847656,-1.06666760390385,-0.458957270716794,0.660318059240952,0
2.84002685546875,-2.17856311798096,2.16090774536133,2.24607920646667,-1.90028201942005,2.14817811521475,2.31922218318877,1270.493,1317.067,3151.186,3160.589,-0.06992289,0.03817469,0.06212549,-1.0432151556015,-0.43719094991684,0.678917586803436,-1.06208716414723,-0.456986435452194,0.657482548835001,0
2.86001586914063,-2.19933366775513,2.15219640731812,2.25961971282959,-1.9214641634913,2.13906403038149,2.33233493941432,1265.575,1314.765,3144.899,3163.361,-0.06850716,0.03848344,0.06100526,-1.03852999210358,-0.435551345348358,0.677024304866791,-1.05724722779031,-0.454903946049977,0.654486397671922,0
2.8800048828125,-2.22000622749329,2.14352107048035,2.27312207221985,-1.94254691640495,2.12999271078668,2.34538616777867,1265.339,1311.809,3146.338,3154.791,-0.06702004,0.03881045,0.05985539,-1.03363084793091,-0.433783710002899,0.675118982791901,-1.0521429102862,-0.45270770082608,0.651326581984514,0
2.9000244140625,-2.24057579040527,2.13488340377808,2.28658032417297,-1.96355695821617,2.12095267674793,2.3583923845069,1261.182,1309.596,3140.823,3155.665,-0.06547488,0.0391515,0.05869915,-1.02848875522614,-0.431871175765991,0.672907054424286,-1.04676782045836,-0.450394949835786,0.647999145330045,0
2.92001342773438,-2.26103830337524,2.12628769874573,2.29998874664307,-1.98442500350686,2.11197373984504,2.37131069862469,1276.142,1308.141,3129.953,3142.966,-0.06388763,0.03952635,0.05746327,-1.02310883998871,-0.429801225662231,0.670415997505188,-1.04114045847258,-0.4479736531836,0.644515540192422,0
2.94000244140625,-2.28138828277588,2.11773586273193,2.31335020065308,-2.00517798053537,2.10304431360073,2.38415778000673,1269.287,1306.35,3131.965,3140.029,-0.06234939,0.03989545,0.05624602,-1.01750826835632,-0.427594631910324,0.668067216873169,-1.03525504859546,-0.445441325732794,0.640872191117535,0
2.96002197265625,-2.30162191390991,2.10923075675964,2.32665944099426,-2.02584216016808,2.09415309439512,2.39694989157076,1256.902,1302.974,3130.683,3145.513,-0.06079411,0.04026626,0.05504397,-1.01166820526123,-0.425254166126251,0.665467500686646,-1.02910434715508,-0.442794850733705,0.637064613927399,0
2.98001098632813,-2.32173371315002,2.10077524185181,2.33991026878357,-2.04634944795115,2.08532938136936,2.40964487960608,1269.927,1300.778,3121.643,3132.623,-0.05916159,0.04067433,0.05375444,-1.00559234619141,-0.422770202159882,0.662536382675171,-1.02270954399162,-0.440043345582586,0.633105926142498,0
3,-2.34171962738037,2.09237194061279,2.35310363769531,-2.06672639957428,2.07656174835205,2.42225918334961,1267.679,1299.142,3122.108,3125.86,-0.0575376,0.04108459,0.05246907,-0.999291777610779,-0.420153200626373,0.659674167633057,-1.01606400046349,-0.437183953857422,0.628992018127441,0
3.02001953125,-2.36157464981079,2.08402419090271,2.36623454093933,-2.08699882657197,2.06783908936099,2.4348087813708,1258.902,1296.019,3118.524,3129.765,-0.05590295,0.04149511,0.05120261,-0.992748916149139,-0.417399972677231,0.656541168689728,-1.0091596546337,-0.434213206731958,0.624717899159203,0
3.04000854492188,-2.38129377365112,2.07573413848877,2.37929701805115,-2.10709998486405,2.05919012250926,2.44725235590455,1271.597,1293.614,3109.067,3117.908,-0.05422729,0.04193462,0.04986119,-0.985972881317139,-0.414504557847977,0.653118491172791,-1.00202031904361,-0.431141350077486,0.620298310335216,0
3.05999755859375,-2.40087366104126,2.06750440597534,2.39229321479797,-2.12705600675913,2.05060360379452,2.45960608409476,1266.312,1291.815,3110.45,3113.191,-0.05258625,0.0423685,0.0485325,-0.978977024555206,-0.411483108997345,0.649806320667267,-0.994638524886308,-0.427965170275055,0.615728628108227,0
3.08001708984375,-2.4203085899353,2.0593376159668,2.40521764755249,-2.14689219650438,2.04206864550612,2.47188563047583,1255.145,1288.533,3107.783,3118.2,-0.05093349,0.04280134,0.04721953,-0.97174596786499,-0.408336997032166,0.646224677562714,-0.987005430654711,-0.424680863071165,0.611003379164165,0
3.10000610351563,-2.43959403038025,2.05123615264893,2.41806435585022,-2.16654331551667,2.03361331798384,2.48405060925705,1268.681,1286.095,3098.446,3104.923,-0.04921735,0.0432654,0.04582047,-0.964286804199219,-0.405059665441513,0.642332494258881,-0.979147395688901,-0.421299770153459,0.606138881190213,0
3.12002563476563,-2.45872640609741,2.04320311546326,2.43083477020264,-2.18606465810045,2.02521382963322,2.49613525024692,1265.611,1284.669,3098.561,3098.654,-0.04752997,0.04372542,0.04442855,-0.956607460975647,-0.401662021875381,0.638524413108826,-0.971043628570469,-0.417812945555442,0.601122263307942,0
3.1400146484375,-2.47769999504089,2.03524017333984,2.44352245330811,-2.20539207344272,2.01689778275692,2.50809984103626,1261.336,1282.051,3091.667,3100.556,-0.04586709,0.04418544,0.04303927,-0.948692440986633,-0.398142606019974,0.634388089179993,-0.962722140342815,-0.41423244164655,0.595970865687568,0
3.16000366210938,-2.49651145935059,2.02734994888306,2.45612764358521,-2.22455088103183,2.00865428308644,2.51996005559448,1261.065,1279.068,3092.383,3091.607,-0.04417279,0.04465223,0.04162553,-0.9405677318573,-0.39451602101326,0.63025563955307,-0.954174163352092,-0.410554485950274,0.590679260733698,0
3.18002319335938,-2.51515579223633,2.01953434944153,2.46864461898804,-2.24356543975693,2.00047284967231,2.53173097323436,1255.382,1276.707,3087.274,3092.531,-0.04245558,0.0451208,0.04021398,-0.93221640586853,-0.390776544809341,0.625849366188049,-0.945389654806993,-0.406774757334075,0.585241231480108,0
3.20001220703125,-2.53362894058228,2.01179599761963,2.48106813430786,-2.26237335188561,1.99238033051557,2.54337396678712,1268.445,1274.488,3077.599,3079.894,-0.04071014,0.04561032,0.03873321,-0.923644542694092,-0.386919170618057,0.62117463350296,-0.93639902618694,-0.402906341007952,0.579675604081262,0
3.22000122070313,-2.55192589759827,2.00413680076599,2.49340009689331,-2.28099938900442,1.98436606709459,2.55490437104486,1263.169,1273.113,3077.879,3075.397,-0.0390217,0.04608749,0.0372721,-0.914860725402832,-0.382957398891449,0.616604268550873,-0.927192788821982,-0.398945154262308,0.573976504598449,0
3.24002075195313,-2.57004308700562,1.99655854701996,2.50563597679138,-2.29946728755973,1.97641984627959,2.5663368799986,1251.951,1270.085,3075.107,3079.937,-0.03734551,0.04655641,0.03583235,-0.9058598279953,-0.378898173570633,0.611791670322418,-0.917760245372928,-0.394886594330938,0.568137310869129,0
3.260009765625,-2.58797645568848,1.9890638589859,2.51777005195618,-2.31771654397337,1.96856770107001,2.57763403905129,1263.196,1267.502,3067.03,3067.337,-0.03562138,0.04704547,0.0343217,-0.896651387214661,-0.37474051117897,0.606699585914612,-0.908134108040216,-0.390744736359816,0.562178273303667,0
3.27999877929688,-2.60572147369385,1.98165392875671,2.52980327606201,-2.33577134012187,1.96079922667992,2.58881081793642,1259.757,1266.367,3066.391,3061.311,-0.03392921,0.04752577,0.03282464,-0.887238681316376,-0.370491772890091,0.601660490036011,-0.898304216251578,-0.386515208538549,0.556093102023818,0
3.30001831054688,-2.62327337265015,1.97433114051819,2.54173064231873,-2.35365475236716,1.95310449399547,2.59988150202132,1251.376,1263.619,3062.338,3064.065,-0.03224502,0.0479975,0.0313489,-0.877617835998535,-0.366154998540878,0.596369564533234,-0.88825927318574,-0.382193150160541,0.549874803759067,0
3.32000732421875,-2.64062929153442,1.96709632873535,2.55354714393616,-2.37130830610839,1.94550866300381,2.61080989274252,1262.695,1261.119,3053.842,3051.899,-0.03053314,0.04848382,0.02981398,-0.867799162864685,-0.361729472875595,0.590822339057922,-0.878034183119985,-0.377793579561194,0.543544985919778,0
3.34002685546875,-2.65778493881226,1.95995187759399,2.56525421142578,-2.3887820321449,1.9379902068497,2.62162696154813,1257.706,1260.076,3053.69,3046.878,-0.0288708,0.048955,0.02830384,-0.857787609100342,-0.357224345207214,0.585359036922455,-0.867602121152829,-0.373304954734798,0.537087042614081,0
3.36001586914063,-2.67473673820496,1.95289897918701,2.57684588432312,-2.40601888046917,1.93057367255756,2.63229739176581,1252.355,1257.541,3047.23,3048.835,-0.02723668,0.04941786,0.02680684,-0.847581207752228,-0.352643549442291,0.579586029052734,-0.856999388527103,-0.368742895092007,0.53052344604056,0
3.3800048828125,-2.69148063659668,1.94593906402588,2.58832192420959,-2.42304196557559,1.92324911460621,2.64283549236868,1252.629,1255.104,3046.814,3039.553,-0.0255754,0.04988079,0.02529177,-0.837199449539185,-0.347996711730957,0.573801875114441,-0.846214826007803,-0.364102599125748,0.523847288101157,0
3.4000244140625,-2.70801305770874,1.93907344341278,2.59967732429504,-2.43987318937177,1.91600710921667,2.65325482168089,1247.747,1253.348,3041.124,3039.551,-0.0239056,0.05033801,0.02378716,-0.826633632183075,-0.343280166387558,0.567771077156067,-0.835236272052476,-0.359378834064062,0.51705104022176,0
3.42001342773438,-2.72433114051819,1.9323034286499,2.61090755462646,-2.45645774020782,1.90887124031063,2.66352144868012,1258.927,1251.235,3032.377,3027.648,-0.02222142,0.05080437,0.0222339,-0.815891087055206,-0.338492035865784,0.561513781547546,-0.824102019042908,-0.354588076049064,0.510158407210813,0
3.44000244140625,-2.74043035507202,1.92563080787659,2.62201452255249,-2.47281804716281,1.90183185728196,2.67364925803476,1253.508,1250.498,3031.746,3023.415,-0.02060275,0.05125203,0.02071256,-0.804975390434265,-0.333640694618225,0.555348217487335,-0.812800388649434,-0.349725300221754,0.503162159625937,0
3.46002197265625,-2.75630807876587,1.91905617713928,2.63299369812012,-2.48897526921199,1.89487985601472,2.68365134815842,1242.858,1248.021,3028.385,3027.526,-0.01900911,0.05168543,0.01922219,-0.793892204761505,-0.328734517097473,0.548962473869324,-0.801318788528228,-0.344785088448372,0.496054502206447,0
3.48001098632813,-2.7719612121582,1.91258084774017,2.64384055137634,-2.50487694859767,1.88803780761656,2.69349524520019,1252.5,1245.595,3021.374,3015.449,-0.01737872,0.05212884,0.0176803,-0.782653331756592,-0.32377552986145,0.542348563671112,-0.789697369743255,-0.339784716610052,0.488860290373601,0
3.5,-2.7873866558075,1.90620517730713,2.65455603599548,-2.5205447997813,1.88129636896134,2.70319439144611,1248.849,1245.113,3019.936,3009.875,-0.01578615,0.05255758,0.01616555,-0.77125746011734,-0.318766295909882,0.535777986049652,-0.777924000354857,-0.334718964672089,0.481572013878822,0
3.52001953125,-2.80258083343506,1.89993119239807,2.66513586044312,-2.53599921507943,1.87464676580493,2.71276141071155,1241.2,1242.87,3015.62,3012.006,-0.01421009,0.05297289,0.0146831,-0.75970995426178,-0.313711136579514,0.528985500335693,-0.765985728654519,-0.329582259876133,0.474181654997567,0
3.54000854492188,-2.8175413608551,1.89375901222229,2.67557549476624,-2.55119019794619,1.86811051026429,2.72216535275294,1250.778,1240.516,3008.11,3000.823,-0.01261486,0.05339343,0.01316307,-0.748022198677063,-0.308610737323761,0.521983623504639,-0.753924423002452,-0.324392617007921,0.466715132239272,0
3.55999755859375,-2.83226490020752,1.8876895904541,2.6858766078949,-2.56613872308604,1.86167857751006,2.73141920191151,1246.216,1240.075,3006.888,2996.212,-0.01107396,0.05379578,0.0116786,-0.736194789409637,-0.303468942642212,0.515054881572723,-0.741727567798258,-0.319144650954242,0.459164697851087,0
3.58001708984375,-2.84674978256226,1.88172364234924,2.69603514671326,-2.58086439685043,1.85534253147694,2.74053509545279,1236.986,1237.921,3003.034,2999.549,-0.009555954,0.05418238,0.01023052,-0.724236607551575,-0.298292189836502,0.507922172546387,-0.729381927869994,-0.313832666990361,0.451522158631107,0
3.60000610351563,-2.86099290847778,1.87586188316345,2.70604705810547,-2.59531978247425,1.84912278287974,2.74948366775945,1245.752,1235.614,2996.334,2988.448,-0.008010789,0.05457456,0.008744527,-0.712159633636475,-0.293082147836685,0.500594973564148,-0.716930938559024,-0.308475354130224,0.443814403124743,0
3.62002563476563,-2.87499189376831,1.87010526657104,2.71591353416443,-2.60954658921762,1.84300138538903,2.75829073885038,1242.12,1235.38,2994.521,2983.467,-0.0065077,0.05495083,0.007290912,-0.699961364269257,-0.287839859724045,0.49331870675087,-0.704342498157626,-0.303058899905815,0.436021558845703,0
3.6400146484375,-2.88874506950378,1.86445379257202,2.72562956809998,-2.62349913748426,1.83699799365897,2.76692803087948,1238.448,1233.417,2988.342,2983.923,-0.005038168,0.05531487,0.005861967,-0.687650620937347,-0.282570123672485,0.485806316137314,-0.691660998977508,-0.297602405088683,0.428171106749629,0
3.66000366210938,-2.90224981307983,1.8589084148407,2.73519587516785,-2.63719712493647,1.83110413233575,2.77540773763803,1238.513,1231.778,2987.255,2975.795,-0.003565973,0.05567173,0.004438087,-0.675239264965057,-0.277278155088425,0.478310823440552,-0.678873453515702,-0.29210028151913,0.420255006953505,0
3.68002319335938,-2.91550445556641,1.85346913337708,2.74460864067078,-2.65065881779682,1.8253119419741,2.78374116678794,1233.155,1230.526,2982.172,2976.328,-0.002107093,0.05601665,0.003044646,-0.662729203701019,-0.271963804960251,0.470636069774628,-0.665966334939126,-0.286546708978778,0.41226488570328,0
3.70001220703125,-2.92850685119629,1.84813642501831,2.75386476516724,-2.66384123964357,1.81963991412768,2.79190171387692,1241.328,1228.531,2975.589,2966.199,-0.0006412892,0.05636249,0.00163058,-0.650129675865173,-0.266627907752991,0.462807893753052,-0.65298533214413,-0.280961346123326,0.404229026602262,0
3.72000122070313,-2.94125556945801,1.84291124343872,2.7629656791687,-2.6767633032417,1.81407991116207,2.79990108680742,1237.107,1228.313,2973.897,2962.331,0.0007655836,0.05668997,0.0002594419,-0.637439906597137,-0.261271983385086,0.455048173666,-0.639917282339434,-0.275338529371411,0.396139281255611,0
3.74002075195313,-2.95374917984009,1.83779311180115,2.77190828323364,-2.68944246101018,1.80862442378895,2.80775008945815,1229.155,1226.451,2970.201,2965.014,0.002141062,0.05700194,-0.001071123,-0.624673426151276,-0.25590318441391,0.447129487991333,-0.626748599474004,-0.269672413024826,0.387987239250554,0
3.760009765625,-2.9659857749939,1.83278250694275,2.78068971633911,-2.70183851231475,1.80329074921818,2.81542383572149,1236.246,1224.378,2964.824,2955.064,0.003532745,0.05731535,-0.002421879,-0.611841678619385,-0.250524252653122,0.439075589179993,-0.613526094901139,-0.263983138701136,0.379801879044709,0
3.77999877929688,-2.97796487808228,1.8278796672821,2.78931093215942,-2.7139695770734,1.79807109095524,2.82293354268985,1232.763,1224.288,2962.783,2950.943,0.004880324,0.05761286,-0.003732154,-0.598941683769226,-0.24513453245163,0.431066542863846,-0.60023651686137,-0.258265004538452,0.371574997167698,0
3.80001831054688,-2.98968458175659,1.82308495044708,2.79776906967163,-2.72585229309426,1.79295829021612,2.83028950995902,1226.971,1222.543,2958.771,2952.193,0.006202839,0.05789697,-0.005003547,-0.585986196994781,-0.239738911390305,0.422907948493958,-0.586866312357872,-0.25251217906087,0.363298203668867,0
3.82000732421875,-3.00114393234253,1.81839823722839,2.80606174468994,-2.73744929742843,1.78796842323393,2.8374686080838,1234.035,1220.588,2953.25,2942.893,0.007530062,0.05818037,-0.006286125,-0.572985112667084,-0.234339237213135,0.414633184671402,-0.573463232144022,-0.246745208083563,0.355001058539243,0
3.84002685546875,-3.01234292984009,1.81381940841675,2.81419014930725,-2.7487950044681,1.78308668245712,2.84449214121233,1230.389,1220.492,2951.323,2939.375,0.008802352,0.05844698,-0.007522897,-0.559936583042145,-0.228935286402702,0.406422644853592,-0.559993461530387,-0.240949542090342,0.346662628875244,0
3.86001586914063,-3.02328014373779,1.80934882164001,2.82215142250061,-2.7598539723994,1.77832831750807,2.85133816917351,1226.567,1218.75,2946.621,2939.935,0.01003617,0.05870032,-0.008723983,-0.546855449676514,-0.223533570766449,0.398059159517288,-0.546505271550556,-0.235145950758426,0.338312796746137,0
3.8800048828125,-3.03395509719849,1.80498623847961,2.8299458026886,-2.77064299647982,1.77368610185671,2.85801708903178,1226.826,1217.397,2945.151,2933.297,0.01126469,0.05894631,-0.009909622,-0.533750116825104,-0.218137070536613,0.389718621969223,-0.532985466132484,-0.229328756186666,0.329943393154704,0
3.9000244140625,-3.04436731338501,1.80073094367981,2.837571144104,-2.78117737042527,1.76915345504432,2.86453836832583,1223.425,1216.458,2940.746,2932.748,0.01247146,0.05918102,-0.01106064,-0.520625948905945,-0.212746232748032,0.381270200014114,-0.51942076458699,-0.223492244065531,0.321546196721701,0
3.92001342773438,-3.05451726913452,1.79658389091492,2.84502601623535,-2.79142456801014,1.76474437219711,2.87088187177258,1229.387,1214.819,2935.728,2924.708,0.01366862,0.05941249,-0.012209,-0.507490754127502,-0.207362428307533,0.372741281986237,-0.505860052376089,-0.217657448443621,0.313151469876846,0
