t,x_s1,x_s2,x_s3,x_s_d1,x_s_d2,x_s_d3,propellers_rpms1,propellers_rpms2,propellers_rpms3,propellers_rpms4,rollRad,pitchRad,yawRad,v_s1,v_s2,v_s3,v_s_d1,v_s_d2,v_s_d3,insideCount
0,-0.0599999986588955,2.94000005722046,1.17999994754791,-0.0599999986588955,2.94000005722046,1.17999994754791,0,0,0,0,0,0,0,0,0,0,-1.06581410364015E-15,4.44089209850063E-16,4.44089209850063E-16,0
0.019989013671875,-0.0599999986588955,2.94000005722046,1.17811644077301,-0.0600018659130177,2.93999925379318,1.18000110346716,0,0,0,0,-0.01635288,0.0001297794,-0.01587137,-1.10653664009419E-09,-7.76775763711157E-08,-0.0941759571433067,-0.000279680311988734,-0.000120338624884473,0.000173135436141649,5
0.03997802734375,-0.0599999986588955,2.94000005722046,1.17242503166199,-0.060014847005691,2.93999366839165,1.1800091393819,0,0,0,0,-0.03270202,0.0005238493,-0.03175127,-1.08383135799528E-09,-7.60859677484405E-08,-0.284568399190903,-0.00110975851463131,-0.000477498085781228,0.000686993385685745,5
0.05999755859375,-0.0599058829247952,2.93990302085876,1.16596508026123,-0.0600498857373401,2.93997859220429,1.18003083002592,1868.072,3252.779,3183.935,1722.446,-0.04942134,0.0003294809,-0.01369504,0.00470571499317884,-0.00484924810007215,-0.322995662689209,-0.00247936261166862,-0.00106680046642749,0.00153484356504269,5
0.079986572265625,-0.059820368885994,2.93960738182068,1.16000294685364,-0.0601174907153006,2.93994950367094,1.18007268072775,1925.918,2314.482,3251.728,2829.28,-0.07543351,-0.002135855,0.02094678,0.00427568424493074,-0.0147781055420637,-0.298104643821716,-0.00437104534358026,-0.00188073869847162,0.00270588528944111,5
0.0999755859375,-0.0599374547600746,2.93904495239258,1.15498650074005,-0.0602280337026576,2.93990194011169,1.18014111210282,979.7985,1498.691,3915.455,3896.663,-0.1031986,-0.008062987,0.06330869,-0.00585421733558178,-0.0281175076961517,-0.250819474458694,-0.00677334142420609,-0.00291437958958193,0.00419302100058057,4
0.1199951171875,-0.0604638606309891,2.93818354606628,1.15081322193146,-0.0603918861403606,2.93983143898525,1.18024254456713,346.0985,980.2968,4173.12,4613.439,-0.1214322,-0.01542183,0.1040046,-0.0263202358037233,-0.0430699847638607,-0.20866596698761,-0.00967801353495435,-0.00416417885169243,0.00599115140585487,4
0.139984130859375,-0.061563603579998,2.93704128265381,1.14728260040283,-0.0606183773949454,2.93973398612584,1.18038275344299,353.3564,747.382,3974.569,4854.985,-0.1254019,-0.0211668,0.1351072,-0.0549871101975441,-0.0571137107908726,-0.176532119512558,-0.0130632593357409,-0.00562075554695178,0.00808677981816243,4
0.15997314453125,-0.0633408799767494,2.93568086624146,1.14427471160889,-0.0609172730813211,2.93960537966217,1.18056778411123,820.7548,814.631,3463.234,4692.448,-0.118459,-0.02352423,0.1522708,-0.0888639092445374,-0.0680151954293251,-0.150393977761269,-0.0169203082141145,-0.00728033592584475,0.0104744768105937,3
0.17999267578125,-0.0658469572663307,2.9341721534729,1.1418251991272,-0.0612985250199726,2.93944133760391,1.18080379722281,1348.395,1083.174,3007.15,4255.266,-0.1079752,-0.02278068,0.1557795,-0.125304073095322,-0.0754317045211792,-0.122475892305374,-0.0212433804254414,-0.00914043312572283,0.0131506644458931,3
0.199981689453125,-0.069084994494915,2.93255376815796,1.14006114006042,-0.0617700327574899,2.93923846099686,1.18109568297336,1637.074,1381.759,2917.251,3666.304,-0.0998238,-0.02030021,0.150154,-0.161901831626892,-0.0809138864278793,-0.0882059186697006,-0.0260066742439309,-0.011189945384795,0.0160993702266893,3
0.220001220703125,-0.0730103477835655,2.93082618713379,1.13903534412384,-0.0623420644491781,2.93899233174064,1.18144979784016,1641.26,1580.447,3148.792,3112.982,-0.09583811,-0.01735422,0.1421851,-0.196267813444138,-0.0863847136497498,-0.0512904152274132,-0.03121219533433,-0.0134297356845702,0.019321835755004,3
0.239990234375,-0.0775500535964966,2.92897367477417,1.13863277435303,-0.0630214373585105,2.93870001655724,1.18187036203406,1524.318,1624.529,3417.295,2777.407,-0.0947606,-0.01467668,0.1377284,-0.226985350251198,-0.0926231741905212,-0.0201278980821371,-0.0368316683029241,-0.015847637913056,0.022800557215184,3
0.259979248046875,-0.0826389640569687,2.92699241638184,1.1386353969574,-0.0638172488896441,2.93835760108779,1.18236300728159,1438.531,1500.598,3534.165,2743.996,-0.09439468,-0.01258823,0.1392999,-0.254445642232895,-0.0990587696433067,0.000131908804178238,-0.0428604193878216,-0.0184416410810803,0.0265326413259761,3
0.279998779296875,-0.0882448256015778,2.92490077018738,1.1388521194458,-0.0647390625194898,2.93796097043536,1.18293365383054,1399.937,1275.611,3477.277,2977.867,-0.09320691,-0.01110645,0.1456877,-0.280293017625809,-0.104587256908417,0.0108364168554544,-0.0492963837173861,-0.0212108567320638,0.030516809833474,3
0.29998779296875,-0.0943704694509506,2.92273259162903,1.13920629024506,-0.0657918945890516,2.93750796620855,1.18358540703494,1351.756,1062.207,3343.323,3324.824,-0.09052937,-0.009933591,0.1533117,-0.306282460689545,-0.108406588435173,0.0177114922553301,-0.0561078595514081,-0.0241416444928383,0.0347334378503248,3
0.319976806640625,-0.101035766303539,2.92052578926086,1.13972437381744,-0.0669846297797139,2.93699476557717,1.18432376693582,1280.87,940.8392,3238.037,3590.505,-0.08597963,-0.008523181,0.1583601,-0.333264946937561,-0.110340714454651,0.0259050168097019,-0.0632924014512957,-0.0272329521594955,0.0391810115335476,3
0.339996337890625,-0.108251377940178,2.91831231117249,1.14046120643616,-0.068326768706371,2.93641728069206,1.18515461486636,1251.973,943.5586,3172.264,3650.31,-0.07944209,-0.00629305,0.1584799,-0.360780656337738,-0.11067970097065,0.0368427038192749,-0.0708499516420146,-0.0304847548730522,0.0438594951176439,4
0.3599853515625,-0.116002842783928,2.91611528396606,1.14145183563232,-0.0698213312158394,2.93577421219747,1.18607982025561,1320.658,1048.004,3118.991,3498.011,-0.07154316,-0.002961435,0.1534702,-0.387573271989822,-0.109856583178043,0.0495298393070698,-0.0787457139191101,-0.0338820807988248,0.0487473480944833,4
0.379974365234375,-0.124251201748848,2.91395020484924,1.14270687103271,-0.0714771179380247,2.93506177342824,1.1871048311127,1455.508,1181.575,3091.326,3230.808,-0.0636128,0.001260601,0.1450325,-0.412417829036713,-0.108253955841064,0.0627546161413193,-0.0869793044824472,-0.0374247647983375,0.0538443328734993,4
0.399993896484375,-0.132942974567413,2.91182684898376,1.14421677589417,-0.0733036822025899,2.9342758538535,1.18823556140379,1578.363,1273.09,3105.992,2982.216,-0.05701135,0.00582625,0.1357465,-0.434589385986328,-0.106164067983627,0.0754926279187202,-0.0955525119207663,-0.0411135764513579,0.0591515566763244,4
0.41998291015625,-0.142023205757141,2.90975093841553,1.14595675468445,-0.075301871434707,2.93341608884986,1.18947253572543,1632.655,1289.357,3157.135,2844.45,-0.05243338,0.01017866,0.1278506,-0.454011827707291,-0.10379933565855,0.0869996845722198,-0.104427768518458,-0.0449323514193797,0.064645763297398,4
0.439971923828125,-0.151445552706718,2.9077250957489,1.14789474010468,-0.0774805210173447,2.93247867679888,1.19082122360055,1607.024,1237.953,3220.071,2842.433,-0.0496573,0.01397719,0.1224561,-0.471117377281189,-0.101286396384239,0.0969012901186943,-0.113606589893581,-0.0488817418305121,0.0703278909764972,4
0.459991455078125,-0.161176174879074,2.90575242042542,1.14999639987946,-0.0798493430620752,2.93145943885026,1.19228763728888,1539.711,1157.551,3254.128,2939.24,-0.04788204,0.0171851,0.1193436,-0.486531615257263,-0.0986366271972656,0.105082243680954,-0.123092454730403,-0.0529632444654124,0.0762000931848968,4
0.47998046875,-0.171192809939384,2.90383696556091,1.15223777294159,-0.082406855753501,2.93035901258777,1.1938708594761,1475.949,1086.865,3246.178,3066.665,-0.04628148,0.01998992,0.1173735,-0.500832140445709,-0.0957740917801857,0.112070627510548,-0.132845337826091,-0.057159637597476,0.0822375924153778,5
0.5,-0.181480139493942,2.90198421478271,1.15461468696594,-0.085166398670376,2.92917165836334,1.1955791479969,1432.011,1046.231,3217.145,3168.875,-0.04433311,0.02264601,0.1152181,-0.514366626739502,-0.0926337093114853,0.118844404816628,-0.142884000065179,-0.0614789935111996,0.0884520025491718,5
0.519989013671875,-0.192023158073425,2.90019965171814,1.15713346004486,-0.0881248588203387,2.92789871561062,1.19741057576073,1423.353,1045.136,3176.892,3211.058,-0.04192934,0.02537953,0.1118833,-0.52715128660202,-0.0892223119735718,0.125938132405281,-0.153166947611899,-0.0659034585682559,0.0948176369253132,5
0.53997802734375,-0.202803373336792,2.89848685264587,1.15980923175812,-0.0912913676125048,2.92653625533937,1.19937079554481,1444.914,1073.189,3150.199,3184.12,-0.03930346,0.02828842,0.1070502,-0.539009988307953,-0.0856363251805305,0.133785724639893,-0.16369851368286,-0.0704348972306956,0.101337178011302,5
0.55999755859375,-0.213796555995941,2.89684629440308,1.16265249252319,-0.094676112580471,2.92507989413848,1.20146611391775,1482.299,1113.277,3139.712,3115.393,-0.03688265,0.03132544,0.1010683,-0.549659609794617,-0.0820326134562492,0.142160266637802,-0.17448465888317,-0.0750758741803766,0.108014315705644,5
0.579986572265625,-0.224974632263184,2.89527487754822,1.16566646099091,-0.0982734311149,2.92353206847056,1.2036930254546,1524.122,1149.503,3142.903,3034.006,-0.03511591,0.03434891,0.09465311,-0.55890417098999,-0.0785748288035393,0.150698140263557,-0.185481935470438,-0.0798076950675377,0.114822153786096,5
0.5999755859375,-0.236309200525284,2.89376664161682,1.16885018348694,-0.102092760004862,2.92188871794891,1.20605737197736,1541.183,1167.029,3164,2978.171,-0.0342898,0.03716319,0.0886137,-0.566728472709656,-0.0754137635231018,0.159184962511063,-0.196696165293826,-0.0846328648712294,0.121764296254622,5
0.6199951171875,-0.247774422168732,2.8923134803772,1.17219364643097,-0.106144683970236,2.92014528826426,1.20856570593183,1531.391,1166.61,3183.793,2966.43,-0.03442136,0.03962904,0.08346619,-0.573261499404907,-0.0726612582802773,0.167176008224487,-0.208134604141382,-0.0895545055543457,0.128845234789665,5
0.639984130859375,-0.259349495172501,2.89090585708618,1.17568528652191,-0.110420882305709,2.91830535958365,1.21121287640506,1508.931,1156.96,3192.661,2986.188,-0.03533908,0.04170115,0.07928903,-0.578754365444183,-0.0703756734728813,0.174584597349167,-0.219752140575416,-0.0945532069255159,0.136037043262338,5
0.65997314453125,-0.271019160747528,2.88953399658203,1.17931926250458,-0.114931182097002,2.91636470358665,1.21400496683125,1467.503,1144.501,3198.68,3029.543,-0.03677825,0.04338857,0.07589509,-0.58348423242569,-0.0685906931757927,0.181697815656662,-0.231555939228262,-0.0996320517258771,0.143344156921357,5
0.67999267578125,-0.282772034406662,2.88818764686584,1.18308877944946,-0.119686638739014,2.91431856344567,1.21694882102647,1426.16,1139.1,3191.927,3077.332,-0.0384406,0.04477537,0.07288761,-0.587642014026642,-0.0673215538263321,0.188476964831352,-0.243554411173546,-0.104794659005432,0.150771782621969,5
0.699981689453125,-0.294598758220673,2.88685631752014,1.18699038028717,-0.124676182095571,2.91217170233105,1.22003758604909,1407.669,1146.718,3174.674,3100.826,-0.04015568,0.04597223,0.06984723,-0.591337859630585,-0.0665691345930099,0.195080056786537,-0.25570106256044,-0.110021023759057,0.158291138455704,5
0.720001220703125,-0.306490868330002,2.88552927970886,1.19102716445923,-0.129918284978346,2.90991617190799,1.22328269744952,1394.228,1162.993,3164.52,3105.27,-0.04193041,0.04702425,0.0666206,-0.594605267047882,-0.066352941095829,0.20183689892292,-0.268023157655716,-0.11532287703907,0.16591910230247,5
0.739990234375,-0.318439066410065,2.88419532775879,1.19519758224487,-0.135400001298574,2.90755754251682,1.2266761409821,1391.286,1185.055,3152.748,3095.879,-0.04385001,0.04795231,0.06321837,-0.597408294677734,-0.0667026191949844,0.208518356084824,-0.280473432677602,-0.12067988256057,0.173626415629864,5
0.759979248046875,-0.330433994531631,2.88284206390381,1.19950354099274,-0.141131974150567,2.90509123473139,1.23022450522921,1391.524,1207.452,3151.579,3073.794,-0.04602155,0.04873224,0.05981401,-0.59974867105484,-0.0676593482494354,0.215298667550087,-0.293060978423328,-0.126095951839638,0.181418706074426,5
0.779998779296875,-0.342466682195663,2.88145685195923,1.20394158363342,-0.147126184485884,2.90251209348295,1.23393520697061,1383.947,1226.023,3152.094,3061.506,-0.04854623,0.04931328,0.05666573,-0.60163426399231,-0.0692575424909592,0.22190272808075,-0.305795832832518,-0.131575403921268,0.189302187598958,5
0.79998779296875,-0.354529470205307,2.8800265789032,1.20850646495819,-0.153366821193532,2.89982692185086,1.2377984583754,1378.908,1240.974,3150.835,3052.325,-0.0514576,0.04966452,0.05392972,-0.60314005613327,-0.0715186819434166,0.22824589908123,-0.318629798715703,-0.137097500901303,0.197247023847227,5
0.819976806640625,-0.366617172956467,2.87853717803955,1.21319675445557,-0.159865102720482,2.89703089285078,1.24182120419666,1353.875,1251.119,3157.063,3060.22,-0.05474341,0.04974144,0.05175486,-0.604385733604431,-0.0744655728340149,0.234512835741043,-0.331572942526109,-0.142666574093344,0.205259446433311,4
0.839996337890625,-0.378726899623871,2.87697529792786,1.21800541877747,-0.166633637018892,2.89411858163313,1.24601124935738,1321.495,1259.064,3157.267,3082.205,-0.05826038,0.04955458,0.05011709,-0.605483293533325,-0.0780961215496063,0.240435734391212,-0.344636106234817,-0.148287288494656,0.213346167053785,4
0.8599853515625,-0.390857815742493,2.87532758712769,1.22292602062225,-0.173653699721778,2.89109804476993,1.25035700258242,1303.911,1269.302,3149.357,3095.71,-0.0618663,0.04915414,0.0488545,-0.606546998023987,-0.0823871567845345,0.24603146314621,-0.357770416714212,-0.153938615363784,0.221476930914505,4
0.879974365234375,-0.403011113405228,2.87358117103577,1.22795820236206,-0.180937139259224,2.88796418421271,1.25486579861444,1278.044,1281.305,3146.805,3111.383,-0.06551163,0.0485567,0.04790827,-0.607665419578552,-0.0873223543167114,0.251607418060303,-0.370986786595025,-0.159625250100867,0.229658493453734,4
0.899993896484375,-0.415188610553741,2.87172389030457,1.23309731483459,-0.18849723509595,2.8847112861788,1.25954585807468,1254.687,1294.806,3139.983,3127.274,-0.06911595,0.04780295,0.04718753,-0.608876824378967,-0.0928684771060944,0.256953239440918,-0.384296738353309,-0.165352150505452,0.237897987633041,4
0.91998291015625,-0.427392959594727,2.86974406242371,1.23833954334259,-0.196312316554895,2.88134867495511,1.26438376578173,1251.474,1311.05,3129.604,3125.55,-0.07264891,0.04693954,0.04659494,-0.610215187072754,-0.098989449441433,0.262113153934479,-0.397650971463704,-0.171098103938772,0.246164894078718,4
0.939971923828125,-0.439627110958099,2.86763072013855,1.24368691444397,-0.204394909045252,2.877870961208,1.26938727556053,1237.323,1326.936,3129.414,3126.478,-0.07617706,0.04595237,0.04622112,-0.611707508563995,-0.105669848620892,0.267371624708176,-0.411061119720526,-0.176868116097511,0.254466414663641,4
0.959991455078125,-0.451894342899323,2.86537313461304,1.24913573265076,-0.212759000778906,2.87427212620069,1.27456504678061,1221.375,1340.51,3127.575,3132.954,-0.07968018,0.04484839,0.0461149,-0.613363146781921,-0.112874135375023,0.272440969944,-0.424539267042903,-0.182667386354485,0.262810029909387,3
0.97998046875,-0.464198738336563,2.862961769104,1.2546820640564,-0.221379956358585,2.87056276985637,1.27990182895749,1221.441,1353.38,3122.407,3128.757,-0.0831375,0.04364889,0.04626181,-0.615221560001373,-0.120562933385372,0.277313858270645,-0.438035925118965,-0.188474621271639,0.271165104193453,3
1,-0.476545453071594,2.86038756370544,1.26032733917236,-0.230284798736574,2.86673126495361,1.28541435058594,1205.604,1363.99,3126.054,3134.969,-0.08659055,0.04232861,0.0467659,-0.617333590984344,-0.128715708851814,0.282263070344925,-0.451584000205995,-0.194303979492187,0.279552008056641,3
1.01998901367188,-0.48894003033638,2.85764193534851,1.26606643199921,-0.239446912293295,2.86278906344998,1.29108613532954,1191.311,1372.423,3123.064,3148.063,-0.08998396,0.04090673,0.04760408,-0.619729399681091,-0.137278288602829,0.286953121423721,-0.46513400752272,-0.200134169097193,0.287940108062054,3
1.03997802734375,-0.501389503479004,2.85471749305725,1.27190017700195,-0.248880035413094,2.85873025410248,1.29692568790267,1178.942,1379.881,3125.887,3155.482,-0.0932378,0.03940422,0.04872793,-0.622476637363434,-0.146223157644272,0.291688680648804,-0.478698517198992,-0.205970598662363,0.296337185718871,3
1.05999755859375,-0.51390129327774,2.85160779953003,1.27782535552979,-0.258599401509697,2.85454828239877,1.30294243851408,1164.756,1387.084,3123.621,3170.208,-0.09631269,0.0378416,0.05010371,-0.625588953495026,-0.155486568808556,0.296257644891739,-0.492290296490434,-0.211818761581115,0.30475114456651,3
1.07998657226563,-0.526483178138733,2.84830760955811,1.28383934497833,-0.268575430648764,2.85025587575821,1.30911807577533,1168.339,1395.026,3116.867,3172.554,-0.09918198,0.03626208,0.05162181,-0.629094123840332,-0.165009900927544,0.300701826810837,-0.50586005237609,-0.217657448443621,0.313151469876847,3
1.0999755859375,-0.53914350271225,2.8448121547699,1.2899466753006,-0.278822628233634,2.845846792911,1.31546157922208,1158.234,1402.272,3120.43,3180.384,-0.1018963,0.03465662,0.05332118,-0.633017063140869,-0.174768581986427,0.305367708206177,-0.519420764586993,-0.223492244065532,0.321546196721701,3
1.1199951171875,-0.55189037322998,2.8411180973053,1.2961460351944,-0.289357002179081,2.84131414609862,1.32198285851614,1147.53,1407.761,3121.73,3192.403,-0.1044028,0.03304808,0.05517608,-0.63734245300293,-0.184705644845963,0.309969902038574,-0.532985466132485,-0.229328756186667,0.329943393154705,3
1.13998413085938,-0.564731955528259,2.83722281455994,1.30243575572968,-0.300146026259498,2.83667193044725,1.3286617783744,1157.595,1413.793,3117.936,3189.638,-0.1066761,0.03147474,0.05710432,-0.642075419425964,-0.194763898849487,0.314488232135773,-0.546505271550557,-0.235145950758426,0.338312796746137,3
1.15997314453125,-0.57767653465271,2.83312439918518,1.3088207244873,-0.311204994190806,2.83191356549821,1.33550780633558,1153.912,1418.309,3123.872,3193.797,-0.1087864,0.02991513,0.05918396,-0.64723002910614,-0.204920262098312,0.319251328706741,-0.559993461530388,-0.240949542090342,0.346662628875245,3
1.17999267578125,-0.590732216835022,2.82882213592529,1.31530022621155,-0.322550701230474,2.8270318247214,1.34253133946411,1147.779,1420.407,3126.97,3205.113,-0.1107017,0.02837997,0.06141079,-0.652786433696747,-0.215117380023003,0.323977917432785,-0.573463232144024,-0.246745208083563,0.355001058539242,3
1.19998168945313,-0.603907287120819,2.82431602478027,1.32187342643738,-0.334147705564643,2.8220419577392,1.34971043758889,1159.79,1422.894,3124.595,3204.538,-0.1124035,0.02690286,0.06369846,-0.658753156661987,-0.225301697850227,0.328660756349564,-0.586866312357874,-0.25251217906087,0.363298203668868,3
1.22000122070313,-0.617210328578949,2.81960678100586,1.32854628562927,-0.346030421585499,2.81692915700008,1.35706640485806,1156.304,1423.838,3132.482,3211.751,-0.1139465,0.02546232,0.06610172,-0.665148735046387,-0.235458731651306,0.333645105361938,-0.600236516861372,-0.258265004538453,0.371574997167698,3
1.239990234375,-0.630649149417877,2.81469631195068,1.33531773090363,-0.358161486344149,2.81170949873715,1.36457611182642,1156.512,1423.958,3133.477,3222.352,-0.115301,0.02408102,0.06857213,-0.67194014787674,-0.245528474450111,0.338572770357132,-0.613526094901141,-0.263983138701136,0.379801879044709,2
1.25997924804688,-0.644232094287872,2.80958652496338,1.34219241142273,-0.370557537648727,2.80637582416637,1.37224985808977,1159.261,1423.048,3141.082,3225.657,-0.1164249,0.02277289,0.07106652,-0.679148375988007,-0.255494385957718,0.343735814094543,-0.626748599474006,-0.269672413024826,0.387987239250554,2
1.27999877929688,-0.657966673374176,2.80428051948547,1.34917068481445,-0.383236695417198,2.80092033679326,1.3800988607405,1161.429,1422.249,3143.78,3234.177,-0.1173213,0.0215474,0.07357199,-0.686732172966003,-0.265300691127777,0.348914831876755,-0.639917282339435,-0.275338529371412,0.396139281255613,2
1.29998779296875,-0.67186027765274,2.79878258705139,1.35625314712524,-0.396158759015336,2.79536033382764,1.388098233671,1179.504,1422.518,3141.197,3232.192,-0.1180217,0.02042954,0.07601292,-0.694677889347076,-0.274901181459427,0.354122817516327,-0.652985332144132,-0.280961346123326,0.404229026602261,2
1.31997680664063,-0.685920119285583,2.7930965423584,1.36344766616821,-0.409341180862083,2.78968830598122,1.39625878075997,1180.413,1420.707,3151.322,3237.426,-0.1185996,0.01938918,0.07845475,-0.702991127967834,-0.284300655126572,0.359729081392288,-0.665966334939128,-0.286546708978778,0.412264885703281,2
1.33999633789063,-0.700152456760406,2.78722715377808,1.37075579166412,-0.422802873722428,2.78389611561957,1.40459220990988,1178.856,1417.432,3158.874,3247.718,-0.1190049,0.01843707,0.08088325,-0.71161961555481,-0.293463587760925,0.365408062934875,-0.678873453515705,-0.29210028151913,0.420255006953505,2
1.3599853515625,-0.714563310146332,2.78118014335632,1.3781772851944,-0.436500861174643,2.77800225429635,1.41307191666844,1198.09,1415.964,3158.311,3244.124,-0.1192212,0.01760548,0.08321077,-0.720540583133698,-0.302348643541336,0.371076643466949,-0.69166099897751,-0.297602405088682,0.428171106749628,2
1.37997436523438,-0.729158461093903,2.77496099472046,1.38571918010712,-0.45045340944128,2.77199886256629,1.42170920869753,1203.062,1412.67,3168.222,3246.888,-0.1193229,0.01686186,0.08550675,-0.729758560657501,-0.310960352420807,0.377094656229019,-0.704342498157629,-0.303058899905815,0.436021558845703,2
1.39999389648438,-0.74394291639328,2.76857566833496,1.39338266849518,-0.464680216184654,2.76587746507559,1.43051627978847,1204.328,1408.175,3174.806,3256.554,-0.1192888,0.01620835,0.08776537,-0.739221334457397,-0.319268107414246,0.383173853158951,-0.716930938559026,-0.308475354130225,0.443814403124744,2
1.41998291015625,-0.758920967578888,2.76203083992004,1.40116798877716,-0.479135601808478,2.75965771647838,1.43946485209513,1223.344,1405.667,3174.075,3254.221,-0.1191189,0.01567264,0.08989812,-0.748909175395966,-0.327241897583008,0.389267235994339,-0.729381927869995,-0.313832666990362,0.451522158631107,2
1.43997192382813,-0.774097561836243,2.75533294677734,1.4090827703476,-0.493838640129536,2.75333140984416,1.4485667332187,1226.592,1401.141,3185.387,3257.938,-0.1188713,0.0152219,0.09196638,-0.758828341960907,-0.334900468587875,0.39573860168457,-0.741708845898107,-0.319136595443637,0.459153108103047,2
1.45999145507813,-0.789475917816162,2.7484884262085,1.4171279668808,-0.508809800712713,2.74688973769103,1.45783459479497,1227.225,1395.953,3192.805,3267.116,-0.1185032,0.0148621,0.09395768,-0.76891678571701,-0.342222392559052,0.402257204055786,-0.753924423002454,-0.324392617007921,0.466715132239272,2
1.47998046875,-0.805058777332306,2.74150490760803,1.42530298233032,-0.524000783579472,2.74035348215039,1.46723853683636,1247.952,1393.473,3191.306,3262.773,-0.1180148,0.01462236,0.09578306,-0.779146611690521,-0.349180966615677,0.408748984336853,-0.76598572865452,-0.329582259876133,0.474181654997567,2
1.5,-0.820849299430847,2.73438882827759,1.43361496925354,-0.539455198877605,2.73370387899399,1.4768055561018,1253.112,1388.841,3201.953,3264.388,-0.117479,0.01446446,0.09751552,-0.789523720741272,-0.355800151824951,0.415597140789032,-0.777924000354858,-0.334718964672088,0.481572013878822,1
1.51998901367188,-0.83684891462326,2.72714757919312,1.442063331604,-0.555123050061237,2.72696244033876,1.48650470234772,1259.719,1384.847,3204.972,3270.055,-0.1168963,0.01439288,0.09914123,-0.799978137016296,-0.362061113119125,0.422418773174286,-0.789697369743256,-0.339784716610053,0.488860290373601,1
1.53997802734375,-0.853059232234955,2.71978783607483,1.45065295696259,-0.571024729446907,2.7201203919406,1.49634859938949,1265.995,1379.338,3215.676,3269.66,-0.1162305,0.01440543,0.1006497,-0.810520708560944,-0.367986083030701,0.429482728242874,-0.801318788528229,-0.344785088448372,0.496054502206448,1
1.55999755859375,-0.869480967521667,2.7123167514801,1.45938324928284,-0.587181951496087,2.71316839067337,1.50635068951315,1271.397,1374.651,3220.073,3274.457,-0.1154789,0.0144997,0.1020465,-0.821089029312134,-0.373557329177856,0.436517477035522,-0.812800388649436,-0.349725300221754,0.503162159625937,1
1.57998657226563,-0.886114180088043,2.70474147796631,1.46825337409973,-0.603542258451077,2.7061290076447,1.51647849886779,1292.071,1372.569,3216.549,3269.756,-0.1146901,0.01469053,0.1032681,-0.831660032272339,-0.378759682178497,0.443504810333252,-0.82410201904291,-0.354588076049064,0.510158407210813,0
1.5999755859375,-0.902959227561951,2.69706869125366,1.47727060317993,-0.620126809287134,2.69899313873865,1.52674512586702,1293.603,1367.443,3228.3,3271.899,-0.1139279,0.01493383,0.1043933,-0.842250764369965,-0.383636862039566,0.450859665870667,-0.835236272052476,-0.359378834064062,0.517051040221759,0
1.6199951171875,-0.920015096664429,2.6893048286438,1.48643469810486,-0.636958033083316,2.69175113334911,1.53716445517924,1290.609,1361.889,3236.443,3280.202,-0.11313,0.01523254,0.105423,-0.852793395519257,-0.388193368911743,0.458203852176666,-0.846214826007804,-0.364102599125749,0.523847288101157,0
1.63998413085938,-0.937280237674713,2.68145656585693,1.49574279785156,-0.653981118189727,2.68442657539777,1.54770255578211,1309.596,1359.886,3233.475,3274.046,-0.1122789,0.01561887,0.1062683,-0.863257169723511,-0.392415791749954,0.465405255556107,-0.856999388527105,-0.368742895092007,0.53052344604056,0
1.65997314453125,-0.954753339290619,2.67352986335754,1.50520014762878,-0.671217966514002,2.67701004110563,1.55837298599979,1314.041,1355.521,3242.787,3272.839,-0.1114432,0.01605011,0.1070094,-0.873658835887909,-0.396338671445847,0.472868710756302,-0.86760212115283,-0.373304954734798,0.537087042614082,0
1.67999267578125,-0.972432136535645,2.66553044319153,1.51480567455292,-0.688691692550512,2.66949158495151,1.56919005480539,1312.77,1350.796,3248.144,3279.72,-0.1106011,0.01652058,0.107662,-0.883938014507294,-0.399965882301331,0.480274081230164,-0.878034183119987,-0.377793579561193,0.543544985919778,0
1.69998168945313,-0.990313649177551,2.65746450424194,1.52455651760101,-0.706345246291743,2.66189575395985,1.5801184455266,1329.624,1349.226,3244.327,3274.453,-0.1097563,0.01705495,0.1081461,-0.894074618816376,-0.403292864561081,0.487541317939758,-0.88825927318574,-0.382193150160541,0.549874803759068,0
1.72000122070313,-1.0083954334259,2.64933729171753,1.53445792198181,-0.724228658537036,2.6542010212754,1.5911891296115,1329.883,1344.932,3254.494,3274.477,-0.1089552,0.01761259,0.108539,-0.904091060161591,-0.4063640832901,0.495069354772568,-0.898304216251578,-0.386515208538549,0.556093102023817,0
1.739990234375,-1.02667379379272,2.64115381240845,1.54450619220734,-0.74228345468553,2.64643254688532,1.60236590849663,1331.958,1342.189,3254.972,3278.951,-0.1081835,0.01819992,0.10883,-0.91391658782959,-0.409179270267487,0.502411127090454,-0.908134108040217,-0.390744736359816,0.562178273303667,0
1.75997924804688,-1.04514527320862,2.63291835784912,1.55470335483551,-0.760532711099173,2.63858040167573,1.61366306754931,1335.27,1338.148,3263.009,3275.682,-0.1073914,0.01881657,0.109009,-0.923577189445496,-0.411770701408386,0.509857177734375,-0.917760245372929,-0.394886594330938,0.568137310869129,0
1.77999877929688,-1.06380558013916,2.62463569641113,1.56504595279694,-0.779000609654483,2.63063418086074,1.62509557650306,1336.806,1335.287,3264.058,3278.807,-0.1065824,0.01945692,0.1090932,-0.933017015457153,-0.414133667945862,0.517127931118011,-0.927192788821983,-0.398945154262308,0.57397650459845,0
1.79998779296875,-1.08265018463135,2.61631035804749,1.57553017139435,-0.797626646773287,2.62261991743975,1.63662598076079,1353.686,1335.449,3256.773,3272.366,-0.1058069,0.02013515,0.1090213,-0.942224979400635,-0.416263520717621,0.524213492870331,-0.936399026186941,-0.402906341007953,0.579675604081262,0
1.81997680664063,-1.10167479515076,2.60794615745544,1.58616137504578,-0.816434558901977,2.61452739828301,1.64826897431355,1349.997,1332.2,3266.565,3272.707,-0.1051219,0.02080506,0.1088824,-0.951235711574554,-0.418214321136475,0.531563103199005,-0.945389654806995,-0.406774757334075,0.585241231480109,0
1.83999633789063,-1.12087464332581,2.59954619407654,1.59693646430969,-0.835449117627072,2.60634596486888,1.66003989195343,1341.076,1328.749,3272.081,3280.161,-0.1044513,0.02147128,0.1086856,-0.959988534450531,-0.420002281665802,0.538754940032959,-0.954174163352093,-0.410554485950274,0.590679260733698,0
1.8599853515625,-1.14024376869202,2.59111380577087,1.60784935951233,-0.854607925216182,2.59810246519841,1.67190010651166,1356.295,1329.233,3265.326,3271.865,-0.1037669,0.02217045,0.108339,-0.968464493751526,-0.421618282794952,0.545645952224731,-0.962722140342816,-0.41423244164655,0.595970865687568,0
1.87997436523438,-1.15977787971497,2.5826518535614,1.61890292167664,-0.873935340558452,2.5897864183221,1.683864697301,1356.456,1327.228,3271.719,3268.498,-0.1031373,0.02285809,0.107933,-0.976697742938995,-0.423098206520081,0.552679777145386,-0.971043628570469,-0.417812945555442,0.601122263307942,0
1.89999389648438,-1.17947053909302,2.57416296005249,1.63009321689606,-0.893456683142228,2.58138692997148,1.69594933829086,1349.391,1324.853,3273.788,3275.117,-0.1025392,0.02352837,0.1074924,-0.984639704227448,-0.424450516700745,0.55951589345932,-0.979147395688901,-0.421299770153459,0.606138881190213,0
1.91998291015625,-1.19931638240814,2.56564950942993,1.64141476154327,-0.91310780215452,2.5729316024492,1.70811431707208,1361.938,1325.759,3266.28,3268.512,-0.1019655,0.02421068,0.1069297,-0.992285966873169,-0.425671994686127,0.566077709197998,-0.98700543065471,-0.424680863071164,0.611003379164165,0
1.93997192382813,-1.21930980682373,2.55711317062378,1.6528707742691,-0.932913638115654,2.56440970454612,1.72037507301483,1356.908,1323.921,3273.89,3267.244,-0.101459,0.02486536,0.1063292,-0.999675452709198,-0.426806420087814,0.57280033826828,-0.9946270711101,-0.427960242035134,0.615721537675136,0
1.95999145507813,-1.23944509029388,2.54855608940125,1.66445624828339,-0.952900013794853,2.55581012544606,1.73274759164336,1347.229,1322.053,3276.075,3273.898,-0.1009604,0.02549609,0.1057017,-1.00675642490387,-0.427861124277115,0.579276621341705,-1.00202031904361,-0.431141350077486,0.620298310335216,0
1.97998046875,-1.25971555709839,2.5399796962738,1.67616438865662,-0.973001172086935,2.54716115859433,1.74519116617712,1360.824,1323.865,3266.771,3265.447,-0.1004566,0.02613819,0.1049537,-1.01352226734161,-0.428823977708817,0.585408270359039,-1.0091596546337,-0.434213206731958,0.624717899159203,0
2,-1.28011572360992,2.53138494491577,1.68799781799316,-0.993273599084619,2.53843849960327,1.7577407641983,1357.186,1323.099,3272.337,3262.502,-0.1000155,0.0267478,0.104178,-1.02001547813416,-0.429731816053391,0.591671288013458,-1.01606400046349,-0.437183953857422,0.628992018127441,0
2.01998901367188,-1.30063951015472,2.52277326583862,1.6999499797821,-1.01365055070775,2.52967086658596,1.77035506794184,1352.622,1323.431,3268.592,3266.987,-0.09963099,0.02732923,0.1033773,-1.02618181705475,-0.43058380484581,0.597607553005219,-1.02270954399163,-0.440043345582587,0.633105926142498,0
2.03997802734375,-1.32128083705902,2.51414513587952,1.71202075481415,-1.03415783849082,2.52084715356021,1.78305005597715,1349.327,1322.222,3273.739,3262.737,-0.0992363,0.02788755,0.102538,-1.03206729888916,-0.431409329175949,0.603538751602173,-1.02910434715509,-0.442794850733705,0.637064613927399,0
2.05999755859375,-1.34203338623047,2.50550127029419,1.72420370578766,-1.05482201812353,2.5119559343546,1.79584216754118,1344.221,1322.155,3271.265,3265.683,-0.09881819,0.02842246,0.1016778,-1.03762936592102,-0.432197719812393,0.609147787094116,-1.03525504859546,-0.445441325732794,0.640872191117535,0
2.07998657226563,-1.36289072036743,2.49684262275696,1.73649227619171,-1.07557499515204,2.50302650811029,1.80868924892322,1357.445,1324.953,3259.953,3257.102,-0.09841499,0.02895568,0.1007261,-1.04287230968475,-0.432934254407883,0.614428400993347,-1.04114045847258,-0.4479736531836,0.644515540192423,0
2.0999755859375,-1.38384771347046,2.4881694316864,1.74888968467712,-1.09644304044274,2.49404757120739,1.82160756304102,1349.059,1324.699,3265.959,3256.186,-0.09809168,0.02944157,0.09978112,-1.04784381389618,-0.433660596609116,0.61986917257309,-1.04676782045836,-0.450394949835787,0.647999145330045,0
2.1199951171875,-1.40489768981934,2.47948169708252,1.76139044761658,-1.11745308225396,2.48500753716864,1.83461377976925,1334.218,1323.856,3267.683,3264.201,-0.09777103,0.02988787,0.0988527,-1.05249953269958,-0.434383034706116,0.625035643577576,-1.0521429102862,-0.45270770082608,0.651326581984514,0
2.13998413085938,-1.42603433132172,2.47078013420105,1.77398645877838,-1.13853583516761,2.47593621757383,1.84766500813359,1345.712,1326.398,3257.728,3254.522,-0.09741044,0.03033819,0.09783617,-1.05683755874634,-0.435083627700806,0.629799842834473,-1.05724722779031,-0.454903946049977,0.654486397671922,0
2.15997314453125,-1.44725239276886,2.46206450462341,1.78667902946472,-1.15971797923886,2.46682213274057,1.86077776435915,1341.186,1326.871,3261.201,3250.365,-0.09707861,0.0307511,0.09682754,-1.06089985370636,-0.435786455869675,0.634628713130951,-1.06208716414724,-0.456986435452193,0.657482548835001,0
2.17999267578125,-1.46854531764984,2.45333480834961,1.79946219921112,-1.18102676265167,2.45765355853653,1.8739689163698,1329.544,1326.657,3259.99,3256.969,-0.09674678,0.03112511,0.0958493,-1.06464946269989,-0.436486542224884,0.639157712459564,-1.06666760390386,-0.458957270716794,0.660318059240953,0
2.19998168945313,-1.48990726470947,2.4445915222168,1.81232869625092,-1.20239187218348,2.44846074877705,1.8871949369313,1339.874,1329.124,3249.562,3248.598,-0.09639791,0.03149645,0.09480505,-1.0680947303772,-0.437168031930923,0.643325865268707,-1.07097279461286,-0.460809674005774,0.6629831773745,0
2.22000122070313,-1.51133263111115,2.4358344078064,1.82528054714203,-1.22387315175433,2.43921795429519,1.90049287228091,1331.477,1329.35,3254.19,3246.648,-0.09608418,0.03182564,0.09378558,-1.07127976417542,-0.437860637903214,0.647594213485718,-1.07501419914593,-0.462548577472581,0.665484999299265,0
2.239990234375,-1.53281593322754,2.42706346511841,1.83830976486206,-1.24539969505118,2.42995568409656,1.91381882803312,1324.516,1330.417,3248.502,3251.101,-0.09578005,0.03212634,0.09277825,-1.07415723800659,-0.438550263643265,0.651461958885193,-1.07877792518082,-0.464168003639063,0.667814925005999,0
2.25997924804688,-1.55435132980347,2.41827845573425,1.85141539573669,-1.26699874763832,2.42066221517598,1.92718967049012,1321.094,1330.211,3251.288,3245.13,-0.09541627,0.0324082,0.0917614,-1.07677626609802,-0.439253002405167,0.655279874801636,-1.08226887897249,-0.465670063529659,0.669975991700231,0
2.27999877929688,-1.5759334564209,2.40947961807251,1.86459028720856,-1.28869796983554,2.41132564607061,1.9406225227075,1314.958,1330.946,3246.54,3247.693,-0.09499656,0.03266974,0.09075721,-1.07910025119781,-0.439945816993713,0.658742189407349,-1.08549040888332,-0.467056197851165,0.67197027217779,0
2.29998779296875,-1.59755623340607,2.40066742897034,1.87782752513885,-1.31042570636616,2.40197680804417,1.95407302665558,1327.427,1333.804,3234.068,3238.277,-0.09455713,0.03293389,0.08969197,-1.08113873004913,-0.440606415271759,0.661861538887024,-1.08843144721369,-0.468321644481621,0.673790915005368,0
2.31997680664063,-1.61921501159668,2.39184188842773,1.89113008975983,-1.33220946960077,2.39260386329221,1.96755821380235,1317.385,1334.108,3238.754,3237.219,-0.09416778,0.03315797,0.08866528,-1.08293664455414,-0.441267490386963,0.665131032466888,-1.09109597826566,-0.469468117754907,0.675440386655758,0
2.33999633789063,-1.64090394973755,2.38300371170044,1.90449213981628,-1.35407709248145,2.38319483607731,1.98109531406483,1301.206,1333.437,3239.121,3245.285,-0.09374647,0.0333524,0.08768131,-1.08445560932159,-0.441924899816513,0.66810142993927,-1.09348640563071,-0.470496651869278,0.67692017506657,0
2.3599853515625,-1.6626181602478,2.37415266036987,1.91790521144867,-1.37595634130987,2.37378080654189,1.99463961134278,1313.039,1335.503,3228.226,3234.401,-0.09324206,0.03356335,0.0866275,-1.08569741249084,-0.442552417516708,0.670651733875275,-1.09559452046326,-0.471403714787811,0.678225198571351,0
2.37997436523438,-1.68435204029083,2.36528921127319,1.93137049674988,-1.39787493938994,2.36434984612278,2.00820826768196,1308.415,1336.062,3230.505,3229.389,-0.09273287,0.03375016,0.08560273,-1.08670020103455,-0.443165510892868,0.673266589641571,-1.09742336725307,-0.472190616469403,0.679357341854299,0
2.39999389648438,-1.70610070228577,2.3564145565033,1.94488191604614,-1.41986083522252,2.35488992936084,2.02181858453579,1296.332,1335.543,3228.072,3235.995,-0.09219384,0.0339126,0.08462777,-1.08743059635162,-0.443749964237213,0.675569772720337,-1.09897439291323,-0.472857979480329,0.680317500623536,0
2.41998291015625,-1.727858543396,2.34752893447876,1.9584321975708,-1.4418413890156,2.34543231112926,2.03542559441269,1307.252,1337.052,3217.058,3226.746,-0.09160156,0.03408802,0.08359844,-1.08789932727814,-0.444284200668335,0.677512109279633,-1.10024227275454,-0.473403512755585,0.681102378642803,0
2.43997192382813,-1.74962151050568,2.33863306045532,1.97202348709106,-1.46384447819578,2.33596499655018,2.04904655476771,1299.09,1336.983,3220.719,3224.132,-0.09101672,0.03423866,0.08260535,-1.08814525604248,-0.444790989160538,0.679565250873566,-1.10122909805959,-0.473828116115641,0.681713270515638,0
2.45999145507813,-1.77138411998749,2.3297278881073,1.98564958572388,-1.48589810917879,2.32647593524532,2.06269880290633,1285.327,1335.965,3219.261,3231.264,-0.09038077,0.03437285,0.08165324,-1.08813214302063,-0.445257186889648,0.681302607059479,-1.10193535162022,-0.474131997292339,0.68215047511319,0
2.47998046875,-1.79314136505127,2.32081484794617,1.99930262565613,-1.50792940965705,2.3169964821328,2.07633722739875,1298.271,1337.24,3207.89,3220.031,-0.08965638,0.03453261,0.08063074,-1.0878654718399,-0.445656299591064,0.682650923728943,-1.10235860927677,-0.474314113237503,0.682412491765153,0
2.5,-1.8148889541626,2.31189465522766,2.01298451423645,-1.52999999932945,2.30750012397766,2.08999997377396,1292.845,1337.281,3210.031,3215.873,-0.08892934,0.03467714,0.07963613,-1.08737885951996,-0.446004748344421,0.684092104434967,-1.10250000050292,-0.474374949932098,0.682500019669533,0
2.51998901367188,-1.83662176132202,2.30296897888184,2.02668762207031,-1.5520369476803,2.29801824074336,2.10364189456856,1286.956,1337.198,3203.391,3219.665,-0.08819271,0.0348147,0.0786633,-1.08663308620453,-0.446282893419266,0.685161530971527,-1.10235904000526,-0.474314298567936,0.682412758406603,0
2.53997802734375,-1.85833501815796,2.29403877258301,2.04041194915771,-1.57406826106879,2.28853878207593,2.11728032705303,1283.57,1335.743,3205.887,3213.482,-0.08738151,0.03495433,0.07768817,-1.08567190170288,-0.446504563093185,0.686214864253998,-1.10193621258339,-0.474132367740737,0.682151008090402,0
2.55999755859375,-1.88002419471741,2.28510594367981,2.05415058135986,-1.59612191359838,2.27904971150017,2.13093258853001,1277.326,1335.019,3201.218,3215.739,-0.08648882,0.03509685,0.07672764,-1.08446133136749,-0.446645170450211,0.686935305595398,-1.10123038958312,-0.473828671822132,0.681714070030222,0
2.57998657226563,-1.90168428421021,2.27617216110229,2.06789708137512,-1.61812503288753,2.26958238396605,2.14455356752391,1291.318,1335.837,3189.046,3204.752,-0.08553754,0.03526698,0.07570203,-1.08300721645355,-0.446680009365082,0.687321722507477,-1.1002439936861,-0.473404253224357,0.681103443981416,0
2.5999755859375,-1.92331111431122,2.26723980903625,2.08165431022644,-1.64010562536668,2.26012474908893,2.15816060134934,1283.56,1335.099,3192.273,3202.301,-0.08461022,0.03542318,0.07470965,-1.08134293556213,-0.44663280248642,0.687859237194061,-1.09897654259203,-0.472858904427064,0.680318831377119,0
2.6199951171875,-1.94489979743958,2.25830984115601,2.09541654586792,-1.66209156852628,2.2506648119635,2.17177094750084,1269.121,1333.019,3191.436,3209.812,-0.0836403,0.03557403,0.07375223,-1.0794358253479,-0.446495890617371,0.688117265701294,-1.09742594550583,-0.472191725819537,0.679358937915576,0
2.63998413085938,-1.96644556522369,2.24938488006592,2.10917663574219,-1.6840102224118,2.24123382753286,2.18533963838626,1282.244,1332.831,3181.406,3197.608,-0.08257131,0.0357623,0.07271569,-1.07728970050812,-0.446247845888138,0.688009023666382,-1.09559752564474,-0.471405007833448,0.678227058921845,0
2.65997314453125,-1.98794412612915,2.24046683311462,2.1229362487793,-1.70588953556828,2.23181977031887,2.19888397548635,1278.342,1332.047,3183.058,3192.325,-0.0814874,0.03594896,0.07169862,-1.07492804527283,-0.445900648832321,0.687977969646454,-1.09348983658457,-0.470498128112872,0.676922298990445,0
2.67999267578125,-2.00939035415649,2.23155784606934,2.13668942451477,-1.72775723139253,2.2224107117184,2.21242112090437,1268.15,1329.908,3180.183,3197.655,-0.08036142,0.03613567,0.07071353,-1.07232201099396,-0.445440828800201,0.687655746936798,-1.09109983431736,-0.469469776906228,0.675442773735451,0
2.69998168945313,-2.03078007698059,2.22266101837158,2.15042948722839,-1.74954107593572,2.21303773198162,2.22590635838503,1281.125,1329.224,3169.792,3186.512,-0.07916779,0.03635579,0.06965908,-1.0694797039032,-0.444850623607635,0.687008082866669,-1.08843572622736,-0.468323485621663,0.673793563918671,0
2.72000122070313,-2.05210852622986,2.21377801895142,2.16415905952454,-1.77130202882336,2.20367460188472,2.23937742484041,1274.681,1327.87,3172.327,3183.198,-0.07798161,0.03657162,0.06862745,-1.06642639636993,-0.444148510694504,0.686477243900299,-1.08549040888332,-0.467056197851165,0.671970272177789,0
2.739990234375,-2.07337093353271,2.20491170883179,2.17787075042725,-1.79296822271738,2.1943522439355,2.25278983096475,1269.405,1326.136,3166.175,3186.252,-0.07677627,0.03679552,0.06760047,-1.06312787532806,-0.443319797515869,0.68558657169342,-1.08227399942825,-0.465672266718727,0.669979161506271,0
2.75997924804688,-2.09456348419189,2.19606423377991,2.19156432151794,-1.81456738183361,2.18505872917844,2.26616073936833,1268.483,1323.584,3167.806,3178.387,-0.07548837,0.03703657,0.06654973,-1.05961847305298,-0.442375987768173,0.684675216674805,-1.07878346314437,-0.464170386470068,0.667818353269249,0
2.77999877929688,-2.11568069458008,2.18723821640015,2.205233335495,-1.83612684690458,2.17578229366013,2.27950707526701,1264.31,1321.773,3162.498,3179.3,-0.07412749,0.0372925,0.06549631,-1.05586695671082,-0.441296219825745,0.683452129364014,-1.07501419914593,-0.462548577472581,0.665484999299265,0
2.79998779296875,-2.13671827316284,2.17843699455261,2.2188720703125,-1.85757544288233,2.1665535620153,2.29278477791556,1279.252,1320.982,3150.983,3167.272,-0.07271814,0.03758373,0.06436662,-1.05187737941742,-0.440062880516052,0.681931674480438,-1.07097916161324,-0.460812413548163,0.662987118851036,0
2.81997680664063,-2.15767168998718,2.1696629524231,2.23248338699341,-1.87894068379188,2.15736069572766,2.30601087980613,1272.25,1319.355,3153.615,3164.41,-0.07134821,0.03786945,0.06325859,-1.04767298698425,-0.438698828220367,0.680567741394043,-1.0666743814704,-0.458960186914335,0.660322254877504,0
2.83999633789063,-2.17853593826294,2.16091895103455,2.24606227874756,-1.90024960698239,2.14819206138118,2.31920211834584,1258.919,1316.211,3152.734,3170.813,-0.06995006,0.03815741,0.06217159,-1.0432288646698,-0.437203228473663,0.67894721031189,-1.06209435025759,-0.456989527434725,0.657486997379635,0
2.8599853515625,-2.19930720329285,2.15220761299133,2.25960183143616,-1.92143189875059,2.13907791299805,2.33231496600284,1272.377,1314.496,3143.282,3158.032,-0.06846295,0.03848691,0.06099602,-1.03854763507843,-0.435561716556549,0.676978170871735,-1.05725481901126,-0.454907212340279,0.654491096999312,0
2.87997436523438,-2.21998000144958,2.14353179931641,2.27310347557068,-1.94251480742951,2.13000652638179,2.34536629079331,1269.879,1312.953,3144.265,3151.579,-0.06697317,0.03882077,0.05982659,-1.03364479541779,-0.433785706758499,0.675086975097656,-1.05215090364426,-0.452711140144745,0.65133153025393,0
2.89999389648438,-2.24055004119873,2.13489437103271,2.2865617275238,-1.96352501326936,2.1209664217661,2.35837260906308,1260.834,1309.968,3140.926,3155.96,-0.0654605,0.0391579,0.05867788,-1.02849733829498,-0.431868016719818,0.672918081283569,-1.04677621342161,-0.450398561093403,0.648004340974112,0
2.91998291015625,-2.2610125541687,2.12629842758179,2.29997062683105,-1.98439323028747,2.1119874109737,2.37129102948832,1273.96,1307.949,3131.192,3144.182,-0.06389563,0.0395286,0.05745294,-1.02311396598816,-0.429798781871796,0.670450031757355,-1.0411492471255,-0.447977434695422,0.644520980787238,0
2.93997192382813,-2.28136253356934,2.11774635314941,2.31333255767822,-2.00514638691846,2.10305790745146,2.38413822205285,1268.292,1306.073,3133.035,3140.084,-0.06235632,0.03989665,0.05624158,-1.01751136779785,-0.427595466375351,0.668096661567688,-1.03526422946899,-0.445445276006189,0.640877874515594,0
2.95999145507813,-2.30159616470337,2.10924124717712,2.32664203643799,-2.02581075424974,2.0941666074844,2.39693044981124,1257.344,1302.806,3130.693,3145.087,-0.06079038,0.0402679,0.05504408,-1.01166892051697,-0.425256222486496,0.665471196174622,-1.02911391720548,-0.442798968459032,0.637070538244476,0
2.97998046875,-2.32170796394348,2.10078597068787,2.33989238739014,-2.04631823718085,2.08534281049189,2.40962555865248,1271.022,1300.674,3120.99,3132.288,-0.05915467,0.04067595,0.05375827,-1.00559186935425,-0.42277055978775,0.662523031234741,-1.0227194988233,-0.440047628868552,0.633112088657521,0
3,-2.34169387817383,2.09238290786743,2.35308575630188,-2.06672639957428,2.07656174835205,2.42225918334961,1267.894,1299.077,3121.651,3126.263,-0.05753706,0.04108438,0.05247645,-0.999292135238647,-0.420151352882385,0.659666538238525,-1.01606400046349,-0.437183953857422,0.628992018127441,0
3.01998901367188,-2.36154890060425,2.08403491973877,2.36621522903442,-2.0869680292999,2.06785234056679,2.43478971639231,1263.915,1296.54,3114.98,3128.065,-0.05593331,0.04149769,0.05119425,-0.992747783660889,-0.417393773794174,0.656478404998779,-1.00917036754089,-0.434217816196637,0.624724530959079,0
3.03997802734375,-2.38126850128174,2.07574462890625,2.37928104400635,-2.10706940546153,2.05920327997188,2.4472334257977,1263.249,1293.404,3116.088,3119.721,-0.05428694,0.04192229,0.0498868,-0.985986888408661,-0.414512634277344,0.653289318084717,-1.00203140433628,-0.431146119769234,0.620305172659443,0
3.05999755859375,-2.40084838867188,2.06751441955566,2.39227724075317,-2.12705600675913,2.05060360379452,2.45960608409476,1258.251,1290.892,3111.053,3120.457,-0.05260382,0.04235449,0.0485762,-0.978988230228424,-0.411498874425888,0.649815261363983,-0.994638524886308,-0.427965170275055,0.615728628108227,0
3.07998657226563,-2.42028379440308,2.05934762954712,2.40519857406616,-2.14686207530873,2.04208160581513,2.47186698402085,1272.003,1288.853,3100.854,3107.948,-0.05088715,0.04281393,0.04719068,-0.97175657749176,-0.408344507217407,0.646062672138214,-0.987017247723776,-0.424685947625853,0.611010694492843,0
3.0999755859375,-2.4395694732666,2.05124664306641,2.41804718971252,-2.16651343412374,2.03362617511243,2.48403211125138,1266.375,1287.171,3101.818,3103.863,-0.04922267,0.04326492,0.045821,-0.964304387569427,-0.405066281557083,0.642428576946259,-0.979159571260203,-0.421305008961644,0.606146418448853,0
3.1199951171875,-2.45870184898376,2.04321336746216,2.4308180809021,-2.18603502400946,2.02522658035469,2.49611690533293,1254.783,1283.917,3099.52,3108.813,-0.04755979,0.04371235,0.04446745,-0.956620216369629,-0.401669532060623,0.6385458111763,-0.971056158224178,-0.417818336715394,0.601130019760458,0
3.13998413085938,-2.4776759147644,2.03525066375732,2.44350528717041,-2.20536269329809,2.01691042421237,2.50808165332716,1266.924,1281.402,3091.072,3095.903,-0.0458394,0.04418778,0.04303302,-0.948711395263672,-0.39815080165863,0.634364485740662,-0.962735018414262,-0.414237982720922,0.59597883782726,0
3.15997314453125,-2.49648785591125,2.02735996246338,2.45611023902893,-2.22452176174551,2.00866681230185,2.51994202936911,1263.862,1279.974,3091.013,3089.53,-0.0441419,0.04465887,0.04160684,-0.940583944320679,-0.394519418478012,0.63024365901947,-0.954187384555097,-0.410560174664568,0.590687445288169,0
3.17999267578125,-2.51513242721558,2.01954436302185,2.46862745285034,-2.24353658854737,2.00048526354177,2.53171311296128,1255.208,1276.962,3087.284,3092.695,-0.0424444,0.04512537,0.04020001,-0.932228088378906,-0.390776395797729,0.625860631465912,-0.945403214201559,-0.406780591562751,0.585249625391267,0
3.19998168945313,-2.53360557556152,2.01180601119995,2.48105144500732,-2.26234477504321,1.99239262633251,2.54335627636037,1267.342,1274.394,3078.242,3080.513,-0.04071281,0.04561261,0.03872561,-0.923653364181519,-0.386918723583221,0.621198296546936,-0.936412917636688,-0.402912318110697,0.579684203550396,0
3.219970703125,-2.55190300941467,2.00414705276489,2.49338388442993,-2.2809710931091,1.98437824202785,2.55488685453773,1262.547,1272.967,3078.46,3075.52,-0.0390265,0.04608897,0.03726847,-0.914868116378784,-0.382958441972733,0.616626381874084,-0.927207006545169,-0.398951271751399,0.573985306046387,0
3.239990234375,-2.57002019882202,1.99656891822815,2.50562000274658,-2.2994392795179,1.97643189735754,2.5663195416865,1251.958,1269.972,3075.17,3079.901,-0.03734657,0.04655772,0.03583147,-0.905866146087646,-0.378900229930878,0.611800611019135,-0.917774783907129,-0.394892849856044,0.568146310914365,0
3.25997924804688,-2.58795356750488,1.98907387256622,2.51775407791138,-2.31768882969315,1.96857962575054,2.57761688259161,1263.795,1267.425,3066.788,3067.046,-0.03561978,0.04704699,0.03432212,-0.896657168865204,-0.37474250793457,0.606700360774994,-0.908148960779607,-0.390751127078637,0.562187467856884,0
3.27999877929688,-2.60569858551025,1.9816642999649,2.52978730201721,-2.33577134012187,1.96079922667992,2.58881081793642,1259.915,1266.339,3066.284,3061.324,-0.03392974,0.04752625,0.03282784,-0.887244522571564,-0.37049326300621,0.601665198802948,-0.898304216251578,-0.386515208538549,0.556093102023818,0
3.29998779296875,-2.62325096130371,1.97434115409851,2.54171347618103,-2.35362764460945,1.95311615770631,2.59986472102797,1256.058,1263.84,3059.303,3062.397,-0.03226633,0.04800018,0.03133986,-0.877622067928314,-0.366154164075851,0.596313297748566,-0.888274735793772,-0.382199803288803,0.549884375850026,0
3.31997680664063,-2.64060688018799,1.96710634231567,2.55353283882141,-2.37128151039117,1.94552019245235,2.61079330491711,1256.124,1261.319,3059.23,3053.175,-0.03058268,0.04847448,0.02983511,-0.867810845375061,-0.361736685037613,0.590965151786804,-0.878049940595779,-0.377800359562814,0.543554740547926,0
3.33999633789063,-2.65776324272156,1.95996141433716,2.56524014472961,-2.38875555478454,1.93800159931817,2.62161057080077,1250.232,1259.32,3053.936,3053.964,-0.0288937,0.04894322,0.02834269,-0.857800841331482,-0.357237964868546,0.585364937782288,-0.867618167158097,-0.373311858882592,0.53709697585572,0
3.3599853515625,-2.67471504211426,1.95290863513947,2.57683062553406,-2.40599272667425,1.93058492580486,2.63228120132087,1261.514,1257.058,3045.111,3042.075,-0.02718502,0.04942363,0.02679631,-0.847600221633911,-0.352656126022339,0.579522609710693,-0.857015715678588,-0.368749920209162,0.530533553325099,0
3.37997436523438,-2.69145941734314,1.94594860076904,2.58830595016479,-2.42301614089521,1.92326022624472,2.64281950566132,1256.493,1256.128,3044.486,3037.542,-0.02553652,0.04988785,0.02527579,-0.837213575839996,-0.348000377416611,0.573765337467194,-0.846231427202182,-0.364109742155906,0.523857565031302,0
3.39999389648438,-2.70799255371094,1.93908298015594,2.5996618270874,-2.43984769972619,1.91601807669906,2.65323904237604,1245.842,1253.551,3041.366,3041.417,-0.02390879,0.05033874,0.02378329,-0.826643645763397,-0.343278735876083,0.567788481712341,-0.835253140422974,-0.35938609205264,0.51706148254665,0
3.41998291015625,-2.72431063652039,1.93231296539307,2.61089301109314,-2.45643259034873,1.90888206159239,2.66350587971929,1255.613,1251.067,3033.901,3029.578,-0.02224325,0.05080185,0.02223531,-0.815901219844818,-0.338492184877396,0.561561167240143,-0.824119146742881,-0.354595445619869,0.510169010073001,0
3.43997192382813,-2.74041032791138,1.92563998699188,2.6220006942749,-2.47279324219826,1.90184253016523,2.67363390258008,1252.441,1250.388,3032.662,3023.417,-0.02061233,0.05125161,0.02070902,-0.804986715316772,-0.333644777536392,0.555381238460541,-0.812817768079999,-0.3497327781052,0.503172918321354,0
3.45999145507813,-2.75628805160522,1.91906547546387,2.63298010826111,-2.48895081463434,1.8948903781363,2.68363620960993,1244.359,1248.054,3028.214,3026.021,-0.01899899,0.05168859,0.0192129,-0.793902695178986,-0.328740388154984,0.548967123031616,-0.80133641229185,-0.344792671461508,0.496065412155666,0
3.47998046875,-2.77194118499756,1.91259002685547,2.64382672309875,-2.50485284867397,1.88804817714046,2.69348032619939,1254.405,1245.645,3020.571,3014.374,-0.01736541,0.05213277,0.01767252,-0.782660961151123,-0.323780059814453,0.542335748672485,-0.789715229532172,-0.33979240117828,0.488871346433721,0
3.5,-2.78736662864685,1.90621423721313,2.6545422077179,-2.5205447997813,1.88129636896134,2.70319439144611,1249.337,1245.081,3019.649,3009.877,-0.01578562,0.05255889,0.0161656,-0.771262943744659,-0.318769037723541,0.535777270793915,-0.777924000354857,-0.334718964672089,0.481572013878822,0
3.51998901367188,-2.80256080627441,1.89994025230408,2.66512131690979,-2.53597583877076,1.87465682397749,2.71274693966292,1244.085,1242.824,3013.707,3011.282,-0.01423566,0.05297314,0.0146806,-0.759714782238007,-0.313713014125824,0.528950989246368,-0.766004036374581,-0.329590137176618,0.474192988348404,0
3.53997802734375,-2.81752109527588,1.89376759529114,2.67556357383728,-2.55116718971613,1.86812041006291,2.72215110956251,1244.289,1240.809,3012.503,3002.783,-0.01266759,0.0533834,0.01318826,-0.748031198978424,-0.308618396520615,0.522107481956482,-0.753942941956194,-0.324400585196356,0.466726596353819,0
3.55999755859375,-2.83224534988403,1.88769805431366,2.68586468696594,-2.56613872308604,1.86167857751006,2.73141920191151,1240.051,1239.424,3007.106,3001.999,-0.01109846,0.05378459,0.0117145,-0.736209809780121,-0.303483068943024,0.515061736106873,-0.741727567798258,-0.319144650954242,0.459164697851087,0
3.57998657226563,-2.84673047065735,1.88173198699951,2.69602108001709,-2.58084213759183,1.85535210901407,2.74052131591136,1248.981,1237.45,2999.266,2991.744,-0.009523996,0.05418848,0.01021149,-0.72425776720047,-0.298306316137314,0.507822334766388,-0.72940084364523,-0.31384080592,0.451533868397061,0
3.5999755859375,-2.86097431182861,1.87586998939514,2.70603442192078,-2.59529790318687,1.84913219692586,2.7494701234383,1244.448,1237.003,2998.03,2987.375,-0.008011322,0.05457348,0.008745226,-0.712176859378815,-0.293092727661133,0.500664830207825,-0.716950039288888,-0.308483572640672,0.443826227386424,0
3.6199951171875,-2.8749737739563,1.87011313438416,2.71590089797974,-2.60952509409627,1.84301063413925,2.75827743234631,1234.725,1234.981,2994.63,2990.858,-0.006529006,0.05494232,0.007317784,-0.699977695941925,-0.287850350141525,0.493325740098953,-0.704361775018033,-0.303067194200314,0.436033492140578,0
3.63998413085938,-2.88872694969177,1.86446142196655,2.72561693191528,-2.623478029369,1.83700707589127,2.76691496395061,1242.865,1232.693,2988.336,2980.109,-0.005018993,0.05531601,0.005856029,-0.68767249584198,-0.282581657171249,0.485796242952347,-0.691680442442073,-0.297610771068296,0.428183143180413,0
3.65997314453125,-2.90223240852356,1.85891568660736,2.73518323898315,-2.63717640706374,1.8311130466576,2.77539491228788,1239.822,1232.507,2986.515,2974.678,-0.003548396,0.05567434,0.004427731,-0.675258338451385,-0.277286857366562,0.478314578533173,-0.678893054168409,-0.29210871513241,0.420267140691237,0
3.67999267578125,-2.91548728942871,1.85347616672516,2.74459624290466,-2.65063849381582,1.82532068681534,2.78372858527554,1232.764,1230.628,2982.172,2976.743,-0.002102299,0.05601816,0.003038726,-0.66274493932724,-0.271970301866531,0.470646589994431,-0.665986083416798,-0.286555206197011,0.41227711095171,0
3.69998168945313,-2.92848992347717,1.84814381599426,2.75385284423828,-2.66382131180924,1.81964848851807,2.79188937759817,1241.018,1228.441,2975.942,2966.288,-0.0006434197,0.05636315,0.001627399,-0.650143802165985,-0.266633868217468,0.462824791669846,-0.653005218467595,-0.280969902652754,0.404241337183804,0
3.719970703125,-2.94123911857605,1.84291803836823,2.76295399665833,-2.67674377421065,1.81408831395855,2.7998889974069,1236.647,1228.254,2974.076,2962.652,0.0007607244,0.05668991,0.0002590069,-0.637453377246857,-0.261278331279755,0.455062389373779,-0.639937296597115,-0.275347140947358,0.396151671034529,0
3.739990234375,-2.95373320579529,1.83779966831207,2.77189683914185,-2.68942333385363,1.80863265367006,2.80773824883709,1229.154,1226.392,2970.488,2964.764,0.002138515,0.05700189,-0.001070058,-0.624686896800995,-0.255910247564316,0.447145402431488,-0.62676873176137,-0.26968107538565,0.387999702095468,0
3.75997924804688,-2.96597027778625,1.83278918266296,2.78067851066589,-2.70181978867538,1.80329880547712,2.81541224489679,1236.144,1224.33,2964.722,2955.286,0.003532251,0.05731482,-0.00241815,-0.611855208873749,-0.250531494617462,0.439081907272339,-0.6135463347885,-0.263991847359231,0.379814408499146,0
3.77999877929688,-2.97794914245605,1.82788622379303,2.78929996490479,-2.7139695770734,1.79807109095524,2.82293354268985,1233.186,1224.2,2962.55,2950.855,0.004881854,0.05761274,-0.003729491,-0.598955631256104,-0.245141431689262,0.431068122386932,-0.60023651686137,-0.258265004538452,0.371574997167698,0
3.79998779296875,-2.98966908454895,1.82309138774872,2.79775762557983,-2.72583438304408,1.79296599641037,2.83027842278479,1230.124,1222.496,2957.277,2950.72,0.006195292,0.05789817,-0.005008874,-0.586000323295593,-0.239745363593102,0.422881722450256,-0.586886736182787,-0.252520966862155,0.36331084698941,0
3.81997680664063,-3.00112915039063,1.81840443611145,2.8060519695282,-2.73743179640664,1.78797595343468,2.83745777411762,1229.998,1221.123,2955.83,2944.003,0.007500313,0.05817508,-0.006272277,-0.572997987270355,-0.234346643090248,0.414717942476273,-0.573483731835694,-0.246754028528195,0.355013748824923,0
3.83999633789063,-3.01232814788818,1.81382536888123,2.81418061256409,-2.74877791451009,1.78309403578861,2.84448156171422,1225.734,1220.046,2951.404,2943.904,0.008784243,0.05844012,-0.007499994,-0.559954404830933,-0.228946328163147,0.406429886817932,-0.560014026276881,-0.240958390526246,0.346675359432959,0
3.8599853515625,-3.02326560020447,1.80935454368591,2.82214140892029,-2.75983729406747,1.77833549372837,2.85132784449154,1232.052,1218.263,2945.949,2935.503,0.01006448,0.05870309,-0.008731972,-0.546878218650818,-0.223545700311661,0.398036658763885,-0.546525890176286,-0.235154822377061,0.338325560657667,0
3.87997436523438,-3.03394079208374,1.80499172210693,2.8299355506897,-2.77062673073895,1.77369310055059,2.85800701976334,1228.787,1218.066,2943.957,2932.137,0.01128714,0.05894931,-0.009918145,-0.533768713474274,-0.218145221471786,0.389708667993546,-0.533006127404299,-0.22933764615472,0.329956183466192,0
3.89999389648438,-3.04435348510742,1.80073654651642,2.83756113052368,-2.78116151864576,1.76916027562219,2.86452855531919,1222.738,1216.514,2940.696,2933.634,0.01247244,0.05918131,-0.01106117,-0.520640730857849,-0.212751314043999,0.381278932094574,-0.519441457145543,-0.223501147495394,0.321559006401168,0
3.91998291015625,-3.05450391769409,1.79658913612366,2.84501647949219,-2.79140913007042,1.76475101471128,2.87087231495249,1227.946,1214.712,2936.303,2925.709,0.01365716,0.05941097,-0.0122058,-0.507504820823669,-0.207367166876793,0.372765213251114,-0.505880764601328,-0.217666360335509,0.313164291730931,0
