t,x_s1,x_s2,x_s3,x_s_d1,x_s_d2,x_s_d3,propellers_rpms1,propellers_rpms2,propellers_rpms3,propellers_rpms4,rollRad,pitchRad,yawRad,v_s1,v_s2,v_s3,v_s_d1,v_s_d2,v_s_d3,insideCount
0,-0.0599999986588955,2.94000005722046,1.17999994754791,-0.0599999986588955,2.94000005722046,1.17999994754791,0,0,0,0,0,0,0,0,0,0,-1.06581410364015E-15,4.44089209850063E-16,4.44089209850063E-16,0
0.019989013671875,-0.0599999986588955,2.94000005722046,1.17811644077301,-0.0600018659130177,2.93999925379318,1.18000110346716,0,0,0,0,-0.01635288,0.0001297794,-0.01587137,-1.10653664009419E-09,-7.76775763711157E-08,-0.0941759571433067,-0.000279680311988734,-0.000120338624884473,0.000173135436141649,5
0.040008544921875,-0.0599999986588955,2.94000005722046,1.17242503166199,-0.060014880898484,2.93999365380853,1.18000916036316,0,0,0,0,-0.03270202,0.0005238493,-0.03175127,-1.08383135799528E-09,-7.60859677484405E-08,-0.284568399190903,-0.00111143977225461,-0.000478221483967637,0.00068803416424398,5
0.05999755859375,-0.0599058866500854,2.93990302085876,1.16596496105194,-0.0600498857373401,2.93997859220429,1.18003083002592,1868.637,3252.903,3183.539,1722.181,-0.04942454,0.000330191,-0.0136961,0.00470551569014788,-0.00484904320910573,-0.32300192117691,-0.00247936261166862,-0.00106680046642749,0.00153484356504269,5
0.079986572265625,-0.0598203726112843,2.93960738182068,1.16000318527222,-0.0601174907153006,2.93994950367094,1.18007268072775,1925.04,2314.229,3252.61,2829.559,-0.07543723,-0.00213692,0.0209493,0.00427562370896339,-0.0147794876247644,-0.298089414834976,-0.00437104534358026,-0.00188073869847162,0.00270588528944111,5
0.100006103515625,-0.0599374510347843,2.93904495239258,1.15498673915863,-0.0602282404704493,2.93990185114529,1.18014124010193,979.8604,1498.825,3915.135,3896.708,-0.1031991,-0.008064052,0.06331196,-0.0058539817109704,-0.0281186141073704,-0.25082266330719,-0.00677739276378709,-0.00291612276782231,0.00419552897277328,4
0.1199951171875,-0.0604638531804085,2.93818354606628,1.15081310272217,-0.0603918861403606,2.93983143898525,1.18024254456713,346.7827,980.5504,4172.278,4613.394,-0.1214359,-0.01542183,0.1040051,-0.0263201259076595,-0.0430696196854115,-0.208680123090744,-0.00967801353495435,-0.00416417885169243,0.00599115140585487,4
0.1400146484375,-0.061563678085804,2.93704128265381,1.14728283882141,-0.0606187761383957,2.93973381455767,1.18038300028418,352.6307,746.7843,3975.87,4855.073,-0.1254035,-0.0211684,0.1351094,-0.054991353303194,-0.0571161657571793,-0.17651554942131,-0.0130687916036232,-0.00562313592726786,0.00809020455552005,4
0.160003662109375,-0.0633409693837166,2.93568086624146,1.14427483081818,-0.0609177895434042,2.93960515744296,1.18056810382587,821.2325,815.2833,3462.14,4692.37,-0.1184633,-0.02352477,0.1522711,-0.0888645648956299,-0.0680166184902191,-0.150402218103409,-0.0169265510445065,-0.00728302204135792,0.0104783414199936,3
0.17999267578125,-0.0658471137285233,2.9341721534729,1.14182543754578,-0.0612985250199726,2.93944133760391,1.18080379722281,1348.464,1083.129,3007.334,4255.142,-0.1079832,-0.02278068,0.1557793,-0.12530729174614,-0.0754339993000031,-0.122471913695335,-0.0212433804254414,-0.00914043312572283,0.0131506644458931,3
0.20001220703125,-0.0690852776169777,2.93255376815796,1.14006173610687,-0.0617708265342762,2.93923811945689,1.181096174359,1636.144,1380.987,2918.821,3666.399,-0.09982433,-0.02030234,0.1501591,-0.161908209323883,-0.0809197127819061,-0.0881853997707367,-0.0260142813927851,-0.0111932185284278,0.0161040794142088,3
0.220001220703125,-0.0730106383562088,2.93082594871521,1.13903546333313,-0.0623420644491781,2.93899233174064,1.18144979784016,1642.161,1581.273,3146.898,3113.088,-0.09583811,-0.01735475,0.1421885,-0.196268007159233,-0.0863882526755333,-0.0513136610388756,-0.03121219533433,-0.0134297356845702,0.019321835755004,3
0.239990234375,-0.07755047082901,2.92897343635559,1.1386331319809,-0.0630214373585105,2.93870001655724,1.18187036203406,1523.928,1623.955,3418.377,2777.391,-0.09475847,-0.01467828,0.1377323,-0.226991713047028,-0.0926268845796585,-0.0201164092868567,-0.0368316683029241,-0.015847637913056,0.022800557215184,3
0.260009765625,-0.0826394855976105,2.92699217796326,1.13863575458527,-0.0638185570309634,2.93835703823113,1.18236381708338,1438.247,1500.505,3534.058,2744.41,-0.09438775,-0.01258983,0.1393034,-0.25445032119751,-0.0990616530179977,0.000129351392388344,-0.0428699302682246,-0.0184457333472145,0.0265385290140116,3
0.279998779296875,-0.0882453769445419,2.9249005317688,1.13885200023651,-0.0647390625194898,2.93796097043536,1.18293365383054,1401.394,1276.615,3475.28,2977.483,-0.09320904,-0.01110485,0.1456818,-0.280295073986053,-0.10458642989397,0.0108142988756299,-0.0492963837173861,-0.0212108567320638,0.030516809833474,3
0.29998779296875,-0.0943712294101715,2.92273235321045,1.13920700550079,-0.0657918945890516,2.93750796620855,1.18358540703494,1350.517,1061.34,3345.721,3324.642,-0.09053416,-0.009934656,0.1533082,-0.306292921304703,-0.108408875763416,0.0177490953356028,-0.0561078595514081,-0.0241416444928383,0.0347334378503248,3
0.32000732421875,-0.101036638021469,2.92052555084229,1.13972532749176,-0.0669865614821475,2.93699393441958,1.18432496275165,1280.105,940.6628,3238.462,3590.821,-0.08597376,-0.008524778,0.1583616,-0.333270162343979,-0.110345959663391,0.0259153246879578,-0.0633036493784043,-0.0272377918282996,0.0391879745362408,3
0.339996337890625,-0.108252197504044,2.91831183433533,1.14046144485474,-0.068326768706371,2.93641728069206,1.18515461486636,1254.112,944.9176,3169.351,3649.746,-0.07944369,-0.006290919,0.1584747,-0.36077818274498,-0.110681265592575,0.0368074849247932,-0.0708499516420146,-0.0304847548730522,0.0438594951176439,4
0.3599853515625,-0.116003811359406,2.91611456871033,1.14145267009735,-0.0698213312158394,2.93577421219747,1.18607982025561,1319.672,1046.985,3121.371,3497.81,-0.07154955,-0.002961968,0.1534709,-0.38758111000061,-0.109859138727188,0.0495621114969254,-0.0787457139191101,-0.0338820807988248,0.0487473480944833,4
0.3800048828125,-0.124252259731293,2.91394948959351,1.14270794391632,-0.0714797725314022,2.93506063123087,1.18710647443246,1454.115,1181.007,3092.026,3231.879,-0.0636096,0.001257515,0.1450413,-0.412422239780426,-0.108259372413158,0.0627622529864311,-0.0869921272359981,-0.0374302820709642,0.0538522707687797,4
0.399993896484375,-0.132944002747536,2.91182613372803,1.14421701431274,-0.0733036822025899,2.9342758538535,1.18823556140379,1580.838,1274.435,3102.854,2981.553,-0.05701295,0.005828006,0.135745,-0.434587925672531,-0.106166027486324,0.0754517838358879,-0.0955525119207663,-0.0411135764513579,0.0591515566763244,4
0.420013427734375,-0.142024412751198,2.90975022315979,1.14595770835876,-0.0753050585276311,2.93341471753282,1.18947450868777,1631.445,1288.484,3159.605,2844.258,-0.05243924,0.01017702,0.1278529,-0.454020887613297,-0.103801190853119,0.0870373472571373,-0.104441553474511,-0.0449382827008623,0.0646542968418633,4
0.44000244140625,-0.15144681930542,2.90772438049316,1.14789545536041,-0.077483988232608,2.93247718495301,1.19082336997196,1606.878,1238.23,3218.878,2843.368,-0.04966689,0.01397552,0.1224584,-0.471120357513428,-0.101289838552475,0.0968851819634438,-0.113620829717891,-0.048887868829098,0.0703367061060819,4
0.459991455078125,-0.161177590489388,2.9057514667511,1.14999735355377,-0.0798493430620752,2.93145943885026,1.19228763728888,1540.724,1157.97,3254.133,2937.938,-0.04789642,0.01718488,0.1193411,-0.486539095640182,-0.0986409708857536,0.10509392619133,-0.123092454730403,-0.0529632444654124,0.0762000931848968,4
0.480010986328125,-0.171194478869438,2.90383577346802,1.15223968029022,-0.0824109101018722,2.93035726811493,1.19387336931088,1472.865,1085.605,3249.287,3067.794,-0.04628521,0.01998489,0.1173865,-0.500844478607178,-0.0957833379507065,0.112117670476437,-0.132860437136906,-0.0571661344090936,0.082246939608052,5
0.5,-0.18148185312748,2.90198302268982,1.15461540222168,-0.085166398670376,2.92917165836334,1.1955791479969,1434.246,1047.095,3213.702,3169.019,-0.04432565,0.02264631,0.1152237,-0.514369010925293,-0.0926422327756882,0.118786573410034,-0.142884000065179,-0.0614789935111996,0.0884520025491718,5
0.519989013671875,-0.19202509522438,2.90019845962524,1.15713453292847,-0.0881248588203387,2.92789871561062,1.19741057576073,1424.007,1044.947,3178.02,3209.737,-0.04192082,0.02538002,0.1118857,-0.527162492275238,-0.089226983487606,0.125957295298576,-0.153166947611899,-0.0659034585682559,0.0948176369253132,5
0.540008544921875,-0.202805459499359,2.89848566055298,1.15981018543243,-0.0912963635428427,2.92653410573011,1.19937388826368,1442.93,1072.641,3150.464,3186.29,-0.03929388,0.02828568,0.107058,-0.539018273353577,-0.0856397822499275,0.133782833814621,-0.163714777034477,-0.0704418948965508,0.101347245800684,5
0.55999755859375,-0.213798746466637,2.89684510231018,1.16265261173248,-0.094676112580471,2.92507989413848,1.20146611391775,1485.907,1114.594,3136.558,3113.735,-0.03688158,0.03132937,0.1010548,-0.549664199352264,-0.0820319876074791,0.142119467258453,-0.17448465888317,-0.0750758741803766,0.108014315705644,5
0.579986572265625,-0.224977105855942,2.89527368545532,1.16566812992096,-0.0982734311149,2.92353206847056,1.2036930254546,1521.582,1148.864,3146.694,3033.628,-0.03512603,0.03434754,0.09464817,-0.558917999267578,-0.0785753205418587,0.150775298476219,-0.185481935470438,-0.0798076950675377,0.114822153786096,5
0.600006103515625,-0.236311823129654,2.89376521110535,1.16885197162628,-0.102098762959148,2.92188613504538,1.20606108809202,1538.063,1166.434,3164.654,2980.813,-0.03428607,0.03715979,0.08862041,-0.566736102104187,-0.0754195302724838,0.159195020794868,-0.196713446836865,-0.0846403006364086,0.121774994352997,5
0.6199951171875,-0.247777074575424,2.89231181144714,1.17219424247742,-0.106144683970236,2.92014528826426,1.20856570593183,1537.667,1167.935,3179.674,2962.987,-0.03440964,0.03963638,0.08344923,-0.573263049125671,-0.0726642236113548,0.167110696434975,-0.208134604141382,-0.0895545055543457,0.128845234789665,5
0.6400146484375,-0.259352296590805,2.89090418815613,1.17568719387054,-0.110427588881679,2.91830247393137,1.21121702809507,1507.097,1156.411,3195.905,2985.717,-0.03534547,0.04170113,0.07928916,-0.578762650489807,-0.0703772604465485,0.174647808074951,-0.21977002223474,-0.0945609009039674,0.136048112861281,5
0.660003662109375,-0.271021991968155,2.88953232765198,1.17932045459747,-0.114938248900541,2.91636166293851,1.21400934151928,1466.098,1144.305,3196.93,3032.669,-0.03679743,0.04338488,0.07590535,-0.583485007286072,-0.0685936659574509,0.181662112474442,-0.231574097577923,-0.0996398647564507,0.143355397804799,5
0.67999267578125,-0.282774984836578,2.88818573951721,1.18309044837952,-0.119686638739014,2.91431856344567,1.21694882102647,1428.495,1139.502,3192.212,3074.516,-0.03846297,0.04477467,0.07288802,-0.58765035867691,-0.0673262104392052,0.188496977090836,-0.243554411173546,-0.104794659005432,0.150771782621969,5
0.70001220703125,-0.294602006673813,2.88685417175293,1.1869934797287,-0.124683985757554,2.91216834463331,1.22004241688759,1401.337,1145.646,3178.516,3104.2,-0.04017219,0.04596226,0.0698742,-0.591351807117462,-0.0665800049901009,0.195152074098587,-0.255719729227087,-0.11002905550423,0.158302694011575,5
0.720001220703125,-0.306494295597076,2.88552689552307,1.19102847576141,-0.129918284978346,2.90991617190799,1.22328269744952,1397.828,1163.375,3160.264,3105.159,-0.04191815,0.04702421,0.06662758,-0.594613194465637,-0.0663626790046692,0.201750099658966,-0.268023157655716,-0.11532287703907,0.16591910230247,5
0.739990234375,-0.318442791700363,2.88419270515442,1.1951996088028,-0.135400001298574,2.90755754251682,1.2266761409821,1393.324,1185.28,3154.323,3092.453,-0.04382924,0.04795444,0.06321607,-0.597425162792206,-0.0667094439268112,0.20855475962162,-0.280473432677602,-0.12067988256057,0.173626415629864,5
0.760009765625,-0.330437958240509,2.88283944129944,1.19950532913208,-0.141140917956636,2.9050873864615,1.23023004187122,1387.821,1207.026,3151.304,3078.053,-0.04600611,0.04872954,0.0598246,-0.599759697914124,-0.0676625296473503,0.215286538004875,-0.293080296154222,-0.126104263719567,0.181430664670081,5
0.779998779296875,-0.342470824718475,2.88145446777344,1.20394217967987,-0.147126184485884,2.90251209348295,1.23393520697061,1390.639,1226.895,3148.497,3057.733,-0.04853291,0.04932105,0.05664216,-0.601642668247223,-0.0692543610930443,0.221841022372246,-0.305795832832518,-0.131575403921268,0.189302187598958,5
0.79998779296875,-0.354533910751343,2.88002419471741,1.20850932598114,-0.153366821193532,2.89982692185086,1.2377984583754,1374.711,1240.912,3155.322,3052.494,-0.05147304,0.04966342,0.05392456,-0.603154242038727,-0.0715191587805748,0.228354543447495,-0.318629798715703,-0.137097500901303,0.197247023847227,5
0.82000732421875,-0.366621732711792,2.87853479385376,1.21319985389709,-0.159875221826383,2.89702653888221,1.24182746840525,1348.42,1250.409,3157.749,3065.096,-0.05474713,0.04973692,0.0517665,-0.604393064975739,-0.0744694545865059,0.234526067972183,-0.331592781842754,-0.14267511039705,0.205271727915392,4
0.839996337890625,-0.378731459379196,2.87697291374207,1.21800696849823,-0.166633637018892,2.89411858163313,1.24601124935738,1331.165,1259.802,3152.987,3076.084,-0.05823854,0.04956539,0.05008931,-0.605487287044525,-0.0780954658985138,0.240353897213936,-0.344636106234817,-0.148287288494656,0.213346167053785,4
0.8599853515625,-0.390862584114075,2.87532520294189,1.22292935848236,-0.173653699721778,2.89109804476993,1.25035700258242,1301.059,1269.365,3152.941,3095.437,-0.06187322,0.04915483,0.04885368,-0.606555223464966,-0.0823897644877434,0.246117115020752,-0.357770416714212,-0.153938615363784,0.221476930914505,4
0.8800048828125,-0.403015941381454,2.87357878684998,1.22796142101288,-0.180948461186242,2.88795931270381,1.25487280742661,1272.022,1280.407,3147.054,3117.566,-0.06551962,0.04854994,0.04793294,-0.607667505741119,-0.0873248875141144,0.251604616641998,-0.371007022483504,-0.159633957038354,0.229671020432672,4
0.899993896484375,-0.415193527936935,2.87172150611877,1.23309886455536,-0.18849723509595,2.8847112861788,1.25954585807468,1263.746,1295.28,3135.898,3121.868,-0.0691037,0.04781035,0.04717099,-0.608879685401917,-0.0928651839494705,0.256870925426483,-0.384296738353309,-0.165352150505452,0.237897987633041,4
0.920013427734375,-0.427398055791855,2.86974167823792,1.23834311962128,-0.196324452211266,2.88134345332121,1.26439127833112,1247.205,1311.221,3133.657,3126.054,-0.07266435,0.04693639,0.04660161,-0.610226213932037,-0.0989928171038628,0.26221364736557,-0.397671404529394,-0.171106895716105,0.246177543119742,4
0.94000244140625,-0.439632266759872,2.86762833595276,1.24368953704834,-0.204407453948074,2.87786556348678,1.26939504145298,1235.611,1326.683,3126.931,3130.5,-0.07619996,0.04594853,0.04623207,-0.611710131168365,-0.105669677257538,0.26732063293457,-0.411081631631503,-0.176876941799768,0.254479112513653,4
0.959991455078125,-0.451899766921997,2.86537075042725,1.24913883209229,-0.212759000778906,2.87427212620069,1.27456504678061,1226.323,1340.851,3128.121,3127.413,-0.07969616,0.0448506,0.04610429,-0.613375008106232,-0.112879410386086,0.272463917732239,-0.424539267042903,-0.182667386354485,0.262810029909387,3
0.980010986328125,-0.464204460382462,2.86295914649963,1.25468695163727,-0.221393324468958,2.87055701793193,1.27991010445463,1212.238,1352.945,3126.479,3134.139,-0.08315986,0.04363791,0.04629163,-0.61523562669754,-0.120577894151211,0.277406096458435,-0.438056556301695,-0.188483498293199,0.271177875878363,3
1,-0.476551234722137,2.8603847026825,1.26032996177673,-0.230284798736574,2.86673126495361,1.28541435058594,1211.001,1363.81,3121.31,3134.008,-0.08657457,0.04232995,0.04676792,-0.617340326309204,-0.128720909357071,0.282152205705643,-0.451584000205995,-0.194303979492187,0.279552008056641,3
1.01998901367188,-0.488946169614792,2.85763883590698,1.26607000827789,-0.239446912293295,2.86278906344998,1.29108613532954,1193.445,1372.737,3125.194,3144.016,-0.08996052,0.04090933,0.04759939,-0.619747698307037,-0.137287676334381,0.287002503871918,-0.46513400752272,-0.200134169097193,0.287940108062054,3
1.04000854492188,-0.501395881175995,2.85471439361572,1.27190351486206,-0.248894644448595,2.85872396824263,1.29693473159157,1173.593,1379.651,3125.332,3161.397,-0.09322502,0.03940017,0.04874329,-0.622486710548401,-0.146225988864899,0.291675686836243,-0.47871923339115,-0.205979512261105,0.296350010028666,3
1.05999755859375,-0.513907909393311,2.85160493850708,1.27782702445984,-0.258599401509697,2.85454828239877,1.30294243851408,1173.966,1387.576,3119.503,3164.839,-0.09629405,0.037852,0.05007393,-0.625597298145294,-0.155478745698929,0.296174913644791,-0.492290296490434,-0.211818761581115,0.30475114456651,3
1.07998657226563,-0.526490092277527,2.84830474853516,1.28384363651276,-0.268575430648764,2.85025587575821,1.30911807577533,1162.676,1395.235,3122.003,3173.389,-0.09920169,0.03626066,0.05161768,-0.629111766815186,-0.165015295147896,0.30083179473877,-0.50586005237609,-0.217657448443621,0.313151469876847,3
1.10000610351563,-0.539150536060333,2.84480929374695,1.28995144367218,-0.278838480013141,2.84583997233313,1.31547139222872,1151.423,1401.456,3121.451,3186.232,-0.1019011,0.03465052,0.05333678,-0.633023500442505,-0.174774765968323,0.305388867855072,-0.519441457145546,-0.223501147495394,0.321559006401169,3
1.1199951171875,-0.551897406578064,2.84111523628235,1.29614865779877,-0.289357002179081,2.84131414609862,1.32198285851614,1159.849,1408.408,3116.506,3184.648,-0.104373,0.0330618,0.05514117,-0.637343287467957,-0.184700220823288,0.309863537549973,-0.532985466132485,-0.229328756186667,0.329943393154705,3
1.1400146484375,-0.564739167690277,2.83721995353699,1.30244040489197,-0.300162704591434,2.83666475422696,1.32867210305637,1153.994,1414.034,3121.868,3189.739,-0.1066846,0.03147569,0.05710211,-0.642085790634155,-0.194769024848938,0.314585000276566,-0.54652589017629,-0.235154822377061,0.338325560657667,3
1.16000366210938,-0.577683687210083,2.83312153816223,1.30882441997528,-0.311222084148811,2.83190621216671,1.33551838583369,1151.759,1418.021,3121.355,3198.428,-0.1088178,0.02991114,0.05919808,-0.647227168083191,-0.204917624592781,0.319201856851578,-0.560014026276883,-0.240958390526247,0.34667535943296,3
1.17999267578125,-0.590739607810974,2.82881903648376,1.31530451774597,-0.322550701230474,2.8270318247214,1.34253133946411,1151.484,1420.4,3127.936,3200.728,-0.1107348,0.02837891,0.06141089,-0.652796626091003,-0.215123385190964,0.324007123708725,-0.573463232144024,-0.246745208083563,0.355001058539242,3
1.20001220703125,-0.603914976119995,2.82431244850159,1.3218799829483,-0.334165615614823,2.82203425154496,1.34972152476313,1149.107,1422.027,3129.824,3210.529,-0.1124339,0.02688627,0.06374221,-0.658770203590393,-0.225323811173439,0.328772783279419,-0.586886736182789,-0.252520966862155,0.363310846989412,3
1.22000122070313,-0.617218017578125,2.81960320472717,1.32855033874512,-0.346030421585499,2.81692915700008,1.35706640485806,1162.557,1423.986,3126.705,3210.485,-0.1139252,0.02546163,0.06611125,-0.665152907371521,-0.235465049743652,0.333517789840698,-0.600236516861372,-0.258265004538453,0.371574997167698,3
1.239990234375,-0.630657255649567,2.81469249725342,1.33532238006592,-0.358161486344149,2.81170949873715,1.36457611182642,1159.285,1424.237,3135.02,3218.335,-0.1152685,0.02408336,0.06856797,-0.671961784362793,-0.245538428425789,0.338603854179382,-0.613526094901141,-0.263983138701136,0.379801879044709,2
1.260009765625,-0.64424055814743,2.80958247184753,1.34219694137573,-0.37057666480527,2.80636759428526,1.37226169871082,1154.233,1422.963,3140.626,3231.102,-0.1164041,0.02276955,0.07107688,-0.679161846637726,-0.255496591329575,0.343726307153702,-0.626768731761373,-0.26968107538565,0.387999702095469,2
1.27999877929688,-0.657975375652313,2.80427670478821,1.3491735458374,-0.383236695417198,2.80092033679326,1.3800988607405,1170.467,1423.273,3139.104,3229.056,-0.1173043,0.02155992,0.07353456,-0.686740636825562,-0.265289217233658,0.348832041025162,-0.639917282339435,-0.275338529371412,0.396139281255613,2
1.29998779296875,-0.671869337558746,2.79877853393555,1.35625898838043,-0.396158759015336,2.79536033382764,1.388098233671,1173.324,1422.24,3147.533,3232.831,-0.118042,0.02042887,0.07600119,-0.694701373577118,-0.27490821480751,0.354270249605179,-0.652985332144132,-0.280961346123326,0.404229026602261,2
1.32000732421875,-0.685929358005524,2.79309225082397,1.36345422267914,-0.409361504843077,2.78967956113998,1.39627136227237,1173.724,1419.759,3152.965,3242.566,-0.1185964,0.01938395,0.07846659,-0.702997267246246,-0.284310400485992,0.359762698411942,-0.6659860834168,-0.286555206197011,0.41227711095171,2
1.33999633789063,-0.700161516666412,2.78722310066223,1.37075972557068,-0.422802873722428,2.78389611561957,1.40459220990988,1192.09,1418.692,3151.999,3240.079,-0.1189709,0.01845363,0.08084755,-0.711611986160278,-0.293455809354782,0.365277528762817,-0.678873453515705,-0.29210028151913,0.420255006953505,2
1.3599853515625,-0.714572548866272,2.78117609024048,1.37818312644958,-0.436500861174643,2.77800225429635,1.41307191666844,1194.651,1415.661,3162.633,3244.337,-0.1192318,0.01760658,0.08321017,-0.720550537109375,-0.302351385354996,0.371169418096542,-0.69166099897751,-0.297602405088682,0.428171106749628,2
1.3800048828125,-0.729167759418488,2.77495670318604,1.38572549819946,-0.450474904562636,2.77198961381608,1.4217225152016,1194.67,1411.432,3169.82,3254.333,-0.1193368,0.01685052,0.08554121,-0.729759097099304,-0.310964286327362,0.377120047807693,-0.704361775018035,-0.303067194200314,0.436033492140578,2
1.39999389648438,-0.743952095508575,2.76857161521912,1.39338684082031,-0.464680216184654,2.76587746507559,1.43051627978847,1214.446,1409.287,3168.889,3251.145,-0.1192803,0.01621618,0.0877502,-0.739215910434723,-0.319258600473404,0.383066713809967,-0.716930938559026,-0.308475354130225,0.443814403124744,2
1.42001342773438,-0.758930623531342,2.7620267868042,1.4011744260788,-0.479157861067077,2.75964813894125,1.43947863163655,1218.895,1405.232,3179.322,3254.379,-0.1191344,0.0156691,0.0899028,-0.748926520347595,-0.327247232198715,0.38937970995903,-0.729400843645231,-0.313840805920001,0.451533868397062,2
1.44000244140625,-0.774107158184052,2.7553288936615,1.40908825397491,-0.493861275572861,2.75332167044526,1.4485807456364,1225.495,1401.489,3182.36,3261.283,-0.1188947,0.01521828,0.09197415,-0.758826971054077,-0.334899067878723,0.39568954706192,-0.741727567798258,-0.319144650954242,0.459164697851088,2
1.45999145507813,-0.789485692977905,2.74848437309265,1.4171336889267,-0.508809800712713,2.74688973769103,1.45783459479497,1232.091,1396.36,3192.969,3262.018,-0.1185282,0.0148647,0.09394581,-0.768927395343781,-0.342227011919022,0.402272701263428,-0.753924423002454,-0.324392617007921,0.466715132239272,2
1.48001098632813,-0.805069029331207,2.74150037765503,1.42531108856201,-0.524024159888143,2.74034342397783,1.467253007885,1237.86,1391.876,3197.742,3267.798,-0.1180345,0.01460826,0.09581798,-0.779166638851166,-0.349203616380692,0.408868730068207,-0.766004036374583,-0.329590137176618,0.474192988348404,2
1.5,-0.820859491825104,2.73438429832458,1.43362033367157,-0.539455198877605,2.73370387899399,1.4768055561018,1259.141,1389.665,3195.136,3263.753,-0.1174582,0.01446561,0.09752412,-0.789519786834717,-0.355805933475494,0.415461421012878,-0.777924000354858,-0.334718964672088,0.481572013878822,1
1.51998901367188,-0.836859345436096,2.72714281082153,1.44206941127777,-0.555123050061237,2.72696244033876,1.48650470234772,1261.903,1384.665,3207.05,3266.576,-0.1168691,0.01439536,0.09914006,-0.799997329711914,-0.362068951129913,0.422452092170715,-0.789697369743256,-0.339784716610053,0.488860290373601,1
1.54000854492188,-0.853069961071014,2.71978306770325,1.45065903663635,-0.571049184024557,2.72010986981902,1.49636373793799,1260.599,1378.993,3215.734,3275.161,-0.1162108,0.01440092,0.1006642,-0.810532033443451,-0.367987960577011,0.429480075836182,-0.801336412291853,-0.344792671461508,0.496065412155667,1
1.55999755859375,-0.869491696357727,2.7123122215271,1.45938742160797,-0.587181951496087,2.71316839067337,1.50635068951315,1280.514,1376.446,3214.01,3269.848,-0.1154683,0.01451244,0.1020102,-0.821091413497925,-0.373543441295624,0.436420261859894,-0.812800388649436,-0.349725300221754,0.503162159625937,1
1.57998657226563,-0.886125504970551,2.70473694801331,1.46826064586639,-0.603542258451077,2.7061290076447,1.51647849886779,1286.094,1371.652,3224.086,3269.662,-0.1147114,0.01468972,0.1032539,-0.831687033176422,-0.378764659166336,0.443663954734802,-0.82410201904291,-0.354588076049064,0.510158407210813,0
1.60000610351563,-0.902970731258392,2.69706392288208,1.47727859020233,-0.620152298932711,2.69898217125626,1.52676090517188,1286.376,1366.343,3230.384,3277.209,-0.1139188,0.01492782,0.1044063,-0.842257261276245,-0.383648425340652,0.450899630784988,-0.835253140422976,-0.35938609205264,0.51706148254665,0
1.6199951171875,-0.920026242733002,2.6893002986908,1.48643958568573,-0.636958033083316,2.69175113334911,1.53716445517924,1304.596,1364,3227.788,3272.74,-0.1130949,0.01525144,0.1053853,-0.852778553962708,-0.388185292482376,0.458050340414047,-0.846214826007804,-0.364102599125749,0.523847288101157,0
1.6400146484375,-0.93729156255722,2.68145203590393,1.49574971199036,-0.654007271984653,2.68441532215046,1.54771874622704,1306.539,1359.089,3238.672,3273.614,-0.1122895,0.01562112,0.1062637,-0.863267421722412,-0.392415642738342,0.46550515294075,-0.857015715678588,-0.368749920209162,0.530533553325099,0
1.66000366210938,-0.954764604568481,2.67352533340454,1.50520634651184,-0.671244443874359,2.67699864863716,1.55838937674714,1310.471,1355.566,3240.404,3278.448,-0.11149,0.01604332,0.1070277,-0.873650789260864,-0.396334737539291,0.472833812236786,-0.867618167158098,-0.373311858882592,0.53709697585572,0
1.67999267578125,-0.972443521022797,2.66552591323853,1.51481258869171,-0.688691692550512,2.66949158495151,1.56919005480539,1315.399,1350.755,3249.474,3275.968,-0.1106506,0.01651665,0.1076669,-0.883947372436523,-0.399972289800644,0.480314046144485,-0.878034183119987,-0.377793579561193,0.543544985919778,0
1.70001220703125,-0.990325331687927,2.65745949745178,1.52456605434418,-0.706372354049449,2.66188409024902,1.58013522651994,1318.945,1347.082,3251.638,3279.455,-0.1097771,0.01703598,0.1081952,-0.89409738779068,-0.403320521116257,0.487671256065369,-0.888274735793774,-0.382199803288802,0.549884375850026,0
1.72000122070313,-1.00840699672699,2.64933204650879,1.53446400165558,-0.724228658537036,2.6542010212754,1.5911891296115,1337.497,1346.333,3245.776,3273.473,-0.1089222,0.01761421,0.108552,-0.904084920883179,-0.406373709440231,0.494899213314056,-0.898304216251578,-0.386515208538549,0.556093102023817,0
1.739990234375,-1.02668583393097,2.64114832878113,1.54451262950897,-0.74228345468553,2.64643254688532,1.60236590849663,1335.631,1342.189,3256.582,3274.455,-0.1081446,0.01820498,0.1088249,-0.91393768787384,-0.409185230731964,0.502431988716125,-0.908134108040217,-0.390744736359816,0.562178273303667,0
1.760009765625,-1.04515755176544,2.6329128742218,1.55470979213715,-0.760560719141003,2.63856835059778,1.61368040586141,1328.889,1337.796,3263.371,3281.981,-0.1073701,0.01881231,0.1090209,-0.923591136932373,-0.411769956350327,0.509860038757324,-0.91777478390713,-0.394892849856044,0.568146310914365,0
1.77999877929688,-1.06381797790527,2.62463045120239,1.56505048274994,-0.779000609654483,2.63063418086074,1.62509557650306,1345.652,1337.326,3257.941,3274.276,-0.1065744,0.01947053,0.1090503,-0.933020412921906,-0.414118498563766,0.517036199569702,-0.927192788821983,-0.398945154262308,0.57397650459845,0
1.79998779296875,-1.08266305923462,2.61630511283875,1.57553827762604,-0.797626646773287,2.62261991743975,1.63662598076079,1347.564,1334.355,3265.323,3271.56,-0.1058276,0.02013543,0.1090004,-0.942254424095154,-0.416267693042755,0.524392783641815,-0.936399026186941,-0.402906341007953,0.579675604081262,0
1.82000732421875,-1.1016880273819,2.60794067382813,1.58617031574249,-0.816463410111527,2.61451498441355,1.64828683458664,1342.622,1331.058,3268.576,3278.192,-0.105108,0.02080017,0.1088934,-0.951240599155426,-0.41822674870491,0.531600832939148,-0.94540321420156,-0.406780591562751,0.585249625391268,0
1.83999633789063,-1.1208872795105,2.59954071044922,1.59694194793701,-0.835449117627072,2.60634596486888,1.66003989195343,1356.376,1331.047,3262.425,3272.239,-0.1044114,0.02149267,0.1086451,-0.95996880531311,-0.419994115829468,0.538581252098083,-0.954174163352093,-0.410554485950274,0.590679260733698,0
1.8599853515625,-1.14025688171387,2.59110832214355,1.60785698890686,-0.854607925216182,2.59810246519841,1.67190010651166,1353.178,1328.284,3271.043,3271.245,-0.1037802,0.02217264,0.108336,-0.968472719192505,-0.421615958213806,0.545754313468933,-0.962722140342816,-0.41423244164655,0.595970865687568,0
1.8800048828125,-1.15979075431824,2.58264636993408,1.61891138553619,-0.873964974649439,2.58977366760063,1.68388304221498,1345.452,1325.55,3274.328,3277.876,-0.103157,0.02284284,0.1079772,-0.976695835590363,-0.423101216554642,0.552721858024597,-0.971056158224177,-0.417818336715394,0.601130019760457,0
1.89999389648438,-1.17948317527771,2.57415747642517,1.63009905815125,-0.893456683142228,2.58138692997148,1.69594933829086,1360.396,1326.599,3266.174,3269.756,-0.1025338,0.02353631,0.1074782,-0.984626650810242,-0.424440503120422,0.559385001659393,-0.979147395688901,-0.421299770153459,0.606138881190213,0
1.92001342773438,-1.1993293762207,2.56564402580261,1.64142322540283,-0.913137923350175,2.5729186421402,1.70813296352707,1358.165,1324.952,3272.761,3267.214,-0.1019783,0.02420781,0.1069309,-0.992303788661957,-0.425674170255661,0.566207766532898,-0.987017247723777,-0.424685947625853,0.611010694492843,0
1.94000244140625,-1.21932291984558,2.55710792541504,1.65287804603577,-0.932943991899774,2.5643966441608,1.72039386345315,1355.083,1324.519,3270.071,3271.808,-0.1014851,0.02486127,0.1063373,-0.999668836593628,-0.42680436372757,0.572738528251648,-0.994638524886308,-0.427965170275055,0.615728628108227,0
1.95999145507813,-1.23945808410645,2.54855060577393,1.66446387767792,-0.952900013794853,2.55581012544606,1.73274759164336,1353.129,1322.573,3276.17,3267.785,-0.1009881,0.02550013,0.1056849,-1.0067640542984,-0.427864104509354,0.579291760921478,-1.00202031904361,-0.431141350077486,0.620298310335216,0
1.98001098632813,-1.25972878932953,2.53997373580933,1.6761748790741,-0.973031969359004,2.54714790738853,1.74521023115561,1349.379,1321.831,3274.685,3270.763,-0.1004773,0.02612281,0.1049918,-1.01354289054871,-0.428846329450607,0.585552096366882,-1.00917036754089,-0.434217816196637,0.624724530959079,0
2,-1.28012907505035,2.53137898445129,1.68800508975983,-0.993273599084619,2.53843849960327,1.7577407641983,1363.422,1324.118,3264.184,3262.664,-0.09999211,0.02674907,0.1041897,-1.0200058221817,-0.429739773273468,0.591508567333221,-1.01606400046349,-0.437183953857422,0.628992018127441,0
2.01998901367188,-1.30065298080444,2.52276706695557,1.6999579668045,-1.01365055070775,2.52967086658596,1.77035506794184,1356.119,1323.197,3271.052,3261.969,-0.0995969,0.02733321,0.1033747,-1.02619922161102,-0.430590391159058,0.597644925117493,-1.02270954399163,-0.440043345582587,0.633105926142498,0
2.04000854492188,-1.32129454612732,2.51413893699646,1.71202862262726,-1.03418924440916,2.52083364047092,1.78306949773667,1342.573,1321.841,3273.697,3269.721,-0.09921446,0.02788165,0.1025576,-1.03207516670227,-0.43140909075737,0.603531777858734,-1.02911391720548,-0.442798968459032,0.637070538244476,0
2.05999755859375,-1.34204697608948,2.50549530982971,1.72420930862427,-1.05482201812353,2.5119559343546,1.79584216754118,1354.511,1324.076,3264.38,3260.608,-0.09880647,0.02843587,0.101638,-1.03762757778168,-0.432181239128113,0.609032988548279,-1.03525504859546,-0.445441325732794,0.640872191117535,0
2.07998657226563,-1.36290502548218,2.49683666229248,1.7365015745163,-1.07557499515204,2.50302650811029,1.80868924892322,1350.92,1324.08,3268.616,3256.472,-0.09843842,0.02895411,0.1007097,-1.04289829730988,-0.432935237884521,0.614613652229309,-1.04114045847258,-0.4479736531836,0.644515540192423,0
2.10000610351563,-1.38386201858521,2.48816323280334,1.74889981746674,-1.09647498538954,2.49403382618922,1.82162733848484,1340.058,1323.537,3268.124,3263.093,-0.09808369,0.029434,0.09979728,-1.04784739017487,-0.433670282363892,0.619910180568695,-1.04677621342161,-0.450398561093403,0.648004340974112,0
2.1199951171875,-1.40491151809692,2.47947573661804,1.7613970041275,-1.11745308225396,2.48500753716864,1.83461377976925,1350.684,1325.887,3258.209,3255.131,-0.09772683,0.02990964,0.09880675,-1.05248093605042,-0.434374153614044,0.62485808134079,-1.0521429102862,-0.45270770082608,0.651326581984514,0
2.1400146484375,-1.42604851722717,2.47077417373657,1.77399528026581,-1.13856809990831,2.47592233495728,1.84768498154507,1342.863,1325.821,3263.47,3253.28,-0.0974179,0.03034161,0.0978279,-1.0568436384201,-0.435080587863922,0.629914343357086,-1.05725481901126,-0.454907212340279,0.654491096999312,0
2.16000366210938,-1.44726610183716,2.46205854415894,1.78668689727783,-1.15975039167652,2.46680818657414,1.86079782920208,1336.248,1326.795,3258.372,3257.857,-0.09713188,0.0307424,0.09685016,-1.06088519096375,-0.43577966094017,0.63458126783371,-1.0620943502576,-0.456989527434725,0.657486997379635,0
2.17999267578125,-1.46855926513672,2.45332884788513,1.79947090148926,-1.18102676265167,2.45765355853653,1.8739689163698,1333.171,1326.522,3261.61,3252.04,-0.09680004,0.03112087,0.09585314,-1.06465470790863,-0.436490535736084,0.639201819896698,-1.06666760390386,-0.458957270716794,0.660318059240953,0
2.20001220703125,-1.48992156982422,2.44458508491516,1.81234037876129,-1.20242455577657,2.44844668594002,1.88721516963236,1327.261,1327.245,3257.289,3254.798,-0.09642561,0.03147472,0.09486017,-1.06811392307281,-0.437193721532822,0.643471777439117,-1.07097916161324,-0.460812413548163,0.662987118851036,0
2.22000122070313,-1.51134705543518,2.43582773208618,1.82528841495514,-1.22387315175433,2.43921795429519,1.90049287228091,1339.706,1330.319,3245.093,3245.695,-0.0960469,0.0318268,0.09379861,-1.07127213478088,-0.437869906425476,0.647403538227081,-1.07501419914593,-0.462548577472581,0.665484999299265,0
2.239990234375,-1.53283059597015,2.42705678939819,1.83831810951233,-1.24539969505118,2.42995568409656,1.91381882803312,1329.62,1330.604,3250.323,3244.864,-0.09573052,0.03213281,0.0927687,-1.07417595386505,-0.43855544924736,0.651487588882446,-1.07877792518082,-0.464168003639063,0.667814925005999,0
2.260009765625,-1.55436611175537,2.41827154159546,1.85142350196838,-1.26703177594152,2.42064800401982,1.92721011658316,1313.55,1330.069,3251.084,3252.954,-0.09539283,0.03240334,0.09177563,-1.07678484916687,-0.439249306917191,0.655272364616394,-1.08227399942825,-0.465672266718726,0.669979161506271,0
2.27999877929688,-1.5759482383728,2.40947294235229,1.86459624767303,-1.28869796983554,2.41132564607061,1.9406225227075,1325.258,1332.514,3240.502,3242.134,-0.09498377,0.03268411,0.09071015,-1.0791003704071,-0.439927488565445,0.658639311790466,-1.08549040888332,-0.467056197851165,0.67197027217779,0
2.29998779296875,-1.59757137298584,2.40066075325012,1.87783741950989,-1.31042570636616,2.40197680804417,1.95407302665558,1320.345,1333.227,3242.871,3237.735,-0.09458163,0.03293345,0.08967196,-1.08116173744202,-0.440606772899628,0.662058055400848,-1.08843144721369,-0.468321644481621,0.673790915005368,0
2.32000732421875,-1.61923027038574,2.39183521270752,1.8911406993866,-1.33224276726637,2.39258953623693,1.96757882664355,1308.409,1332.99,3240.64,3244.285,-0.09416032,0.0331516,0.08867966,-1.08293652534485,-0.441275596618652,0.665166914463043,-1.09109983431736,-0.469469776906228,0.675442773735451,0
2.33999633789063,-1.64091897010803,2.38299703598022,1.90449905395508,-1.35407709248145,2.38319483607731,1.98109531406483,1318.638,1335.002,3229.87,3235.513,-0.09369799,0.03337519,0.08763323,-1.08443546295166,-0.441914439201355,0.667917191982269,-1.09348640563071,-0.470496651869278,0.67692017506657,0
2.3599853515625,-1.66263294219971,2.37414598464966,1.91791439056396,-1.37595634130987,2.37378080654189,1.99463961134278,1309.889,1335.176,3233.807,3233.419,-0.09325112,0.03356643,0.08662231,-1.0856990814209,-0.442547827959061,0.670768141746521,-1.09559452046326,-0.471403714787811,0.678225198571351,0
2.3800048828125,-1.68436658382416,2.36528253555298,1.93138039112091,-1.39790843013262,2.36433543599182,2.00822900004707,1296.224,1334.57,3232.531,3240.318,-0.09275684,0.03373478,0.08565058,-1.08669066429138,-0.443164050579071,0.673298418521881,-1.09742594550583,-0.472191725819537,0.679358937915576,0
2.39999389648438,-1.70611500740051,2.35640811920166,1.94488906860352,-1.41986083522252,2.35488992936084,2.02181858453579,1308.718,1336.488,3221.053,3229.459,-0.09218425,0.03392123,0.08461097,-1.08741521835327,-0.443736582994461,0.675431907176971,-1.09897439291323,-0.472857979480329,0.680317500623536,0
2.42001342773438,-1.72787320613861,2.34752249717712,1.95844209194183,-1.44187496577138,2.34541786398928,2.035446380024,1302.762,1336.866,3223.381,3225.743,-0.091617,0.0340845,0.08360161,-1.08790993690491,-0.444283246994019,0.677651464939117,-1.1002439936861,-0.473404253224357,0.681103443981416,0
2.44000244140625,-1.74963581562042,2.33862686157227,1.97203195095062,-1.46387808506052,2.33595053645515,2.04906735901791,1296.536,1337.308,3216.872,3229.64,-0.09104548,0.03423379,0.08261627,-1.088134765625,-0.44478514790535,0.679495275020599,-1.10123038958312,-0.473828671822132,0.681714070030222,0
2.45999145507813,-1.77139854431152,2.32972168922424,1.98565828800201,-1.48589810917879,2.32647593524532,2.06269880290633,1292.459,1336.307,3219.591,3223.858,-0.09040313,0.0343776,0.08163337,-1.08813571929932,-0.445257127285004,0.681316256523132,-1.10193535162022,-0.474131997292339,0.68215047511319,0
2.48001098632813,-1.79315626621246,2.32080817222595,1.99931418895721,-1.5079630509786,2.31698200721197,2.07635805297935,1285.716,1336.05,3215.008,3226.435,-0.08968195,0.03451728,0.08066949,-1.0878781080246,-0.445673674345016,0.68279355764389,-1.10235904000526,-0.474314298567936,0.682412758406602,0
2.5,-1.81490361690521,2.31188774108887,2.01299262046814,-1.52999999932945,2.30750012397766,2.08999997377396,1299.347,1337.537,3202.592,3215.778,-0.08890537,0.03467875,0.07964434,-1.08736896514893,-0.446008861064911,0.683925807476044,-1.10250000050292,-0.474374949932098,0.682500019669533,0
2.51998901367188,-1.83663654327393,2.30296230316162,2.02669668197632,-1.5520369476803,2.29801824074336,2.10364189456856,1291.114,1337.214,3205.964,3213.647,-0.08815436,0.03481947,0.07865665,-1.08664536476135,-0.446287453174591,0.6852046251297,-1.10235904000526,-0.474314298567936,0.682412758406603,0
2.54000854492188,-1.85835015773773,2.29403233528137,2.04042053222656,-1.57410188948011,2.28852431271001,2.11730114464159,1276.096,1335.62,3205.267,3221.494,-0.08736181,0.03494876,0.07770883,-1.08567333221436,-0.4465012550354,0.686198353767395,-1.10193535162022,-0.474131997292339,0.682150475113189,0
2.55999755859375,-1.88003897666931,2.28509974479675,2.05415678024292,-1.59612191359838,2.27904971150017,2.13093258853001,1288.651,1336.106,3195.067,3209.736,-0.08647124,0.03511051,0.07668641,-1.08445680141449,-0.446627080440521,0.686815619468689,-1.10123038958312,-0.473828671822132,0.681714070030222,0
2.57998657226563,-1.90169954299927,2.27616620063782,2.06790685653687,-1.61812503288753,2.26958238396605,2.14455356752391,1284.34,1335.736,3196.96,3204.595,-0.08556364,0.03526564,0.07568809,-1.08302283287048,-0.446677476167679,0.687506020069122,-1.1002439936861,-0.473404253224357,0.681103443981416,0
2.60000610351563,-1.92332637310028,2.26723337173462,2.08166480064392,-1.64013916343638,2.26011031859448,2.15818136301212,1273.583,1334.072,3194.147,3210.33,-0.08461183,0.03541537,0.07472792,-1.08134067058563,-0.446637153625488,0.687895655632019,-1.09897439291323,-0.472857979480329,0.680317500623536,0
2.6199951171875,-1.94491481781006,2.25830364227295,2.09542369842529,-1.66209156852628,2.2506648119635,2.17177094750084,1286.276,1334.021,3183.483,3199.512,-0.08359077,0.03559527,0.07370299,-1.07941937446594,-0.446485996246338,0.687948942184448,-1.09742594550583,-0.472191725819537,0.679358937915576,0
2.63998413085938,-1.96646058559418,2.24937868118286,2.10918617248535,-1.6840102224118,2.24123382753286,2.18533963838626,1279.396,1333.025,3186.299,3196.413,-0.0825745,0.03576643,0.07270653,-1.07728779315948,-0.446243047714233,0.688119173049927,-1.09559752564474,-0.471405007833448,0.678227058921845,0
2.66000366210938,-1.98795890808105,2.24046063423157,2.12294602394104,-1.70592290617745,2.23180541187802,2.19890463348308,1267.021,1330.801,3184.53,3202.755,-0.08150711,0.03593695,0.07173967,-1.07491505146027,-0.445897370576859,0.687998592853546,-1.09348640563071,-0.470496651869278,0.67692017506657,0
2.67999267578125,-2.00940489768982,2.23155212402344,2.13669633865356,-1.72775723139253,2.2224107117184,2.21242112090437,1280.644,1330.372,3173.907,3190.821,-0.08034917,0.03614521,0.07069311,-1.072305560112,-0.445427447557449,0.687521517276764,-1.09109983431736,-0.469469776906228,0.675442773735451,0
2.70001220703125,-2.0307948589325,2.2226550579071,2.15043926239014,-1.74957429229274,2.21302343991116,2.22592692089233,1276.28,1329.387,3175.642,3185.997,-0.07918643,0.03635231,0.0696628,-1.06948328018188,-0.444847851991653,0.68714451789856,-1.08843144721369,-0.468321644481621,0.673790915005369,0
2.72000122070313,-2.05212306976318,2.21377229690552,2.1641674041748,-1.77130202882336,2.20367460188472,2.23937742484041,1271.633,1327.935,3168.977,3188.939,-0.07801358,0.03656599,0.06864084,-1.06641352176666,-0.444142669439316,0.686412572860718,-1.08549040888332,-0.467056197851165,0.671970272177789,0
2.739990234375,-2.07338547706604,2.20490574836731,2.17788100242615,-1.79296822271738,2.1943522439355,2.25278983096475,1269.994,1325.413,3170.933,3181.655,-0.07676882,0.03679399,0.06760169,-1.0631331205368,-0.44332566857338,0.685676693916321,-1.08227399942825,-0.465672266718727,0.669979161506271,0
2.760009765625,-2.09457802772522,2.19605827331543,2.19157361984253,-1.81460030360772,2.18504456385877,2.26618111951479,1264.723,1323.561,3166.23,3183.167,-0.07545428,0.03703443,0.06656497,-1.05961120128632,-0.442377418279648,0.684635102748871,-1.07877792518082,-0.464168003639063,0.667814925005998,0
2.77999877929688,-2.11569476127625,2.18723273277283,2.20523929595947,-1.83612684690458,2.17578229366013,2.27950707526701,1279.111,1322.794,3154.858,3171.529,-0.07408488,0.03731018,0.06545321,-1.05585157871246,-0.441279500722885,0.68328469991684,-1.07501419914593,-0.462548577472581,0.665484999299265,0
2.79998779296875,-2.13673257827759,2.17843151092529,2.21888089179993,-1.85757544288233,2.1665535620153,2.29278477791556,1272.8,1321.234,3157.354,3168.111,-0.07274584,0.0375821,0.0643611,-1.05187809467316,-0.440053522586823,0.682081878185272,-1.07097916161324,-0.460812413548163,0.662987118851036,0
2.82000732421875,-2.15768575668335,2.16965770721436,2.23249340057373,-1.87897323600723,2.1573466894188,2.30603103117811,1259.687,1318.205,3156.252,3174.54,-0.07137698,0.03785598,0.06329173,-1.04766476154327,-0.438697040081024,0.680620014667511,-1.06666760390385,-0.458957270716794,0.660318059240952,0
2.83999633789063,-2.17855000495911,2.16091370582581,2.24606966972351,-1.90024960698239,2.14819206138118,2.31920211834584,1273.132,1316.595,3146.607,3162.008,-0.06992076,0.03817108,0.0621347,-1.04321455955505,-0.437194883823395,0.678810060024261,-1.06209435025759,-0.456989527434725,0.657486997379635,0
2.8599853515625,-2.19932079315186,2.15220260620117,2.25961136817932,-1.92143189875059,2.13907791299805,2.33231496600284,1270.43,1315.094,3147.773,3155.666,-0.06846188,0.03849017,0.06098421,-1.03854429721832,-0.43555936217308,0.677085399627686,-1.05725481901126,-0.454907212340279,0.654491096999312,0
2.8800048828125,-2.21999311447144,2.14352703094482,2.27311301231384,-1.94254691640495,2.12999271078668,2.34538616777867,1260.88,1312.152,3144.605,3160.419,-0.0669785,0.03881257,0.05985513,-1.03362965583801,-0.433783173561096,0.675082623958588,-1.0521429102862,-0.45270770082608,0.651326581984514,0
2.89999389648438,-2.240562915802,2.13488960266113,2.2865686416626,-1.96352501326936,2.1209664217661,2.35837260906308,1274.209,1310.226,3134.859,3148.432,-0.06543919,0.03916997,0.05864806,-1.02847909927368,-0.431855738162994,0.672776460647583,-1.04677621342161,-0.450398561093403,0.648004340974112,0
2.92001342773438,-2.26102495193481,2.12629413604736,2.2999804019928,-1.98442500350686,2.11197373984504,2.37131069862469,1268.634,1308.388,3136.848,3144.167,-0.06392066,0.03952532,0.05745535,-1.02310979366302,-0.429794311523438,0.670586049556732,-1.04114045847258,-0.4479736531836,0.644515540192422,0
2.94000244140625,-2.28137516975403,2.11774206161499,2.31334114074707,-2.00517798053537,2.10304431360073,2.38415778000673,1263.822,1305.821,3130.316,3146.895,-0.06239999,0.03988891,0.05625985,-1.01749503612518,-0.427590906620026,0.668038785457611,-1.03525504859546,-0.445441325732794,0.640872191117535,0
2.95999145507813,-2.30160856246948,2.10923671722412,2.32665085792542,-2.02581075424974,2.0941666074844,2.39693044981124,1264.094,1302.753,3131.607,3137.683,-0.06081488,0.04026942,0.05503113,-1.0116651058197,-0.425259202718735,0.665487170219421,-1.02911391720548,-0.442798968459032,0.637070538244476,0
2.98001098632813,-2.32172012329102,2.10078120231628,2.33990359306335,-2.04634944795115,2.08532938136936,2.40964487960608,1259.72,1300.43,3126.156,3138.416,-0.0591813,0.04066154,0.05379689,-1.00559306144714,-0.422785311937332,0.662636518478394,-1.02270954399162,-0.440043345582586,0.633105926142498,0
3,-2.34170579910278,2.09237813949585,2.35309362411499,-2.06672639957428,2.07656174835205,2.42225918334961,1274.462,1298.655,3115.274,3125.813,-0.05751256,0.04108505,0.0524832,-0.999283611774445,-0.420158594846725,0.65950208902359,-1.01606400046349,-0.437183953857422,0.628992018127441,0
3.01998901367188,-2.36156105995178,2.08402991294861,2.36622381210327,-2.0869680292999,2.06785234056679,2.43478971639231,1268.318,1296.902,3117.049,3121.969,-0.05589815,0.04150124,0.05118607,-0.99275267124176,-0.417399317026138,0.656513869762421,-1.00917036754089,-0.434217816196637,0.624724530959079,0
3.04000854492188,-2.38128042221069,2.07573986053467,2.37928938865662,-2.10709998486405,2.05919012250926,2.44725235590455,1255.435,1293.513,3115.573,3127.781,-0.05427789,0.04191576,0.04990769,-0.985984086990356,-0.414512157440186,0.653276264667511,-1.00202031904361,-0.431141350077486,0.620298310335216,0
3.05999755859375,-2.40086030960083,2.06751012802124,2.39228367805481,-2.12705600675913,2.05060360379452,2.45960608409476,1268.403,1291.052,3106.596,3114.745,-0.05258625,0.04236414,0.04854196,-0.978983521461487,-0.411490142345428,0.649709284305573,-0.994638524886308,-0.427965170275055,0.615728628108227,0
3.07998657226563,-2.42029523849487,2.05934309959412,2.40520787239075,-2.14686207530873,2.04208160581513,2.47186698402085,1266.23,1289.518,3106.783,3107.711,-0.05090952,0.04281218,0.04718021,-0.971759915351868,-0.4083431661129,0.646212995052338,-0.987017247723776,-0.424685947625853,0.611010694492843,0
3.10000610351563,-2.43958139419556,2.05124163627625,2.41805696487427,-2.16654331551667,2.03361331798384,2.48405060925705,1257.4,1286.443,3103.059,3111.414,-0.04923119,0.04325775,0.04583848,-0.964298665523529,-0.405070215463638,0.642449378967285,-0.979147395688901,-0.421299770153459,0.606138881190213,0
3.1199951171875,-2.45871353149414,2.04320859909058,2.43082499504089,-2.18603502400946,2.02522658035469,2.49611690533293,1269.68,1283.881,3093.953,3099.421,-0.04751612,0.04372799,0.04442557,-0.956609785556793,-0.401667535305023,0.638404428958893,-0.971056158224178,-0.417818336715394,0.601130019760458,0
3.13998413085938,-2.47768759727478,2.03524565696716,2.44351410865784,-2.20536269329809,2.01691042421237,2.50808165332716,1264.534,1282.224,3094.666,3094.742,-0.04584099,0.04419015,0.04302679,-0.948703706264496,-0.398149132728577,0.634454846382141,-0.962735018414262,-0.414237982720922,0.59597883782726,0
3.16000366210938,-2.49649906158447,2.0273551940918,2.45611906051636,-2.22455088103183,2.00865428308644,2.51996005559448,1253.94,1279.066,3091.756,3099.063,-0.04416214,0.04464841,0.04164399,-0.94057023525238,-0.394518405199051,0.630246758460999,-0.954174163352092,-0.410554485950274,0.590679260733698,0
3.17999267578125,-2.51514339447021,2.01953983306885,2.46863389015198,-2.24353658854737,2.00048526354177,2.53171311296128,1266.423,1276.56,3082.861,3086.195,-0.04242948,0.04513193,0.04018266,-0.932217001914978,-0.390771239995956,0.625743329524994,-0.945403214201559,-0.406780591562751,0.585249625391267,0
3.20001220703125,-2.533616065979,2.01180148124695,2.48106002807617,-2.26237335188561,1.99238033051557,2.54337396678712,1263.132,1275.262,3082.563,3080.114,-0.04072932,0.04560892,0.03873075,-0.923649787902832,-0.386917173862457,0.621311366558075,-0.93639902618694,-0.402906341007952,0.579675604081262,0
3.22000122070313,-2.55191326141357,2.00414228439331,2.49339127540588,-2.28099938900442,1.98436606709459,2.55490437104486,1259.249,1272.713,3075.743,3081.255,-0.03905579,0.04608309,0.03728301,-0.914858043193817,-0.382956773042679,0.616562604904175,-0.927192788821982,-0.398945154262308,0.573976504598449,0
3.239990234375,-2.5700306892395,1.99656426906586,2.50562763214111,-2.2994392795179,1.97643189735754,2.5663195416865,1258.643,1269.931,3076.012,3072.684,-0.03735882,0.04656004,0.0358165,-0.905864715576172,-0.37890300154686,0.611812233924866,-0.917774783907129,-0.394892849856044,0.568146310914365,0
3.260009765625,-2.58796381950378,1.98906910419464,2.51776361465454,-2.31771654397337,1.96856770107001,2.57763403905129,1253.128,1267.688,3070.793,3073.284,-0.03564588,0.04703549,0.03435479,-0.896657347679138,-0.374751955270767,0.606797754764557,-0.908134108040216,-0.390744736359816,0.562178273303667,0
3.27999877929688,-2.605708360672,1.98165917396545,2.52979421615601,-2.33577134012187,1.96079922667992,2.58881081793642,1265.41,1265.474,3061.499,3060.88,-0.03390896,0.04752718,0.0328309,-0.887242436408997,-0.370500117540359,0.601528286933899,-0.898304216251578,-0.386515208538549,0.556093102023818,0
3.29998779296875,-2.62326121330261,1.97433590888977,2.54172134399414,-2.35362764460945,1.95311615770631,2.59986472102797,1260.204,1264.324,3061.332,3056.358,-0.03223277,0.04800394,0.0313302,-0.877626359462738,-0.366158872842789,0.596353352069855,-0.888274735793772,-0.382199803288803,0.549884375850026,0
3.32000732421875,-2.64061737060547,1.96710133552551,2.55354022979736,-2.37130830610839,1.94550866300381,2.61080989274252,1249.044,1261.494,3058.376,3060.761,-0.03057362,0.04846962,0.02985452,-0.86780834197998,-0.36173602938652,0.590945422649384,-0.878034183119985,-0.377793579561194,0.543544985919778,0
3.33999633789063,-2.65777349472046,1.959956407547,2.56524562835693,-2.38875555478454,1.93800159931817,2.62161057080077,1259.783,1258.937,3050.49,3048.385,-0.02887133,0.04895169,0.02831374,-0.857798635959625,-0.357231706380844,0.585269033908844,-0.867618167158097,-0.373311858882592,0.53709697585572,0
3.3599853515625,-2.67472505569458,1.9529036283493,2.57683873176575,-2.40599272667425,1.93058492580486,2.63228120132087,1256.49,1258.072,3049.72,3042.023,-0.02720259,0.04942227,0.0267909,-0.847599029541016,-0.35265189409256,0.579649806022644,-0.857015715678588,-0.368749920209162,0.530533553325099,0
3.3800048828125,-2.69146919250488,1.94594347476959,2.58831429481506,-2.42304196557559,1.92324911460621,2.64283549236868,1247.982,1255.518,3045.26,3045.114,-0.02554877,0.04988157,0.025295,-0.83720850944519,-0.34799987077713,0.57377678155899,-0.846214826007803,-0.364102599125748,0.523847288101157,0
3.39999389648438,-2.70800232887268,1.93907809257507,2.59966778755188,-2.43984769972619,1.91601807669906,2.65323904237604,1258.905,1253.028,3037.428,3032.716,-0.02386885,0.05035162,0.02374657,-0.826639235019684,-0.343276232481003,0.567675113677979,-0.835253140422974,-0.35938609205264,0.51706148254665,0
3.42001342773438,-2.72432017326355,1.93230819702148,2.61090064048767,-2.45645774020782,1.90887124031063,2.66352144868012,1253.45,1252.239,3036.621,3028.555,-0.02224219,0.05080444,0.02222874,-0.815893352031708,-0.338487684726715,0.561640441417694,-0.824102019042908,-0.354588076049064,0.510158407210813,0
3.44000244140625,-2.74041962623596,1.92563545703888,2.62200713157654,-2.47281804716281,1.90183185728196,2.67364925803476,1248.755,1249.812,3030.415,3029.621,-0.02064269,0.05124757,0.02072519,-0.804974019527435,-0.333639413118362,0.555320501327515,-0.812800388649434,-0.349725300221754,0.503162159625937,0
3.45999145507813,-2.75629758834839,1.91906094551086,2.6329870223999,-2.48895081463434,1.8948903781363,2.68363620960993,1248.664,1247.674,3029.626,3020.903,-0.01902349,0.05168785,0.01921085,-0.79389750957489,-0.32873922586441,0.548989176750183,-0.80133641229185,-0.344792671461508,0.496065412155666,0
3.48001098632813,-2.77195048332214,1.91258502006531,2.64383554458618,-2.50487694859767,1.88803780761656,2.69349524520019,1243.851,1246.066,3023.996,3020.806,-0.01740003,0.05212027,0.01771097,-0.782658696174622,-0.323784679174423,0.542427122592926,-0.789697369743255,-0.339784716610052,0.488860290373601,0
3.5,-2.78737592697144,1.90620970726013,2.65454864501953,-2.5205447997813,1.88129636896134,2.70319439144611,1254.26,1244.029,3015.9,3009.112,-0.01576485,0.05255896,0.01617092,-0.77126532793045,-0.31877464056015,0.535661101341248,-0.777924000354857,-0.334718964672089,0.481572013878822,0
3.51998901367188,-2.802570104599,1.89993536472321,2.66512799263,-2.53597583877076,1.87465682397749,2.71274693966292,1248.883,1243.476,3014.729,3005.331,-0.01419518,0.05297811,0.01466747,-0.759719133377075,-0.313715189695358,0.528971552848816,-0.766004036374581,-0.329590137176618,0.474192988348404,0
3.54000854492188,-2.81753087043762,1.89376294612885,2.67556977272034,-2.55119019794619,1.86811051026429,2.72216535275294,1239.161,1241.191,3011.405,3008.599,-0.01265108,0.05338207,0.0131974,-0.748029351234436,-0.308614671230316,0.522084712982178,-0.753924423002452,-0.324392617007921,0.466715132239272,0
3.55999755859375,-2.83225512504578,1.88769340515137,2.68586945533752,-2.56613872308604,1.86167857751006,2.73141920191151,1247.591,1238.875,3004.757,2997.542,-0.01107768,0.05379238,0.01168708,-0.736207544803619,-0.303475260734558,0.514988541603088,-0.741727567798258,-0.319144650954242,0.459164697851087,0
3.57998657226563,-2.84674024581909,1.88172745704651,2.69602799415588,-2.58084213759183,1.85535210901407,2.74052131591136,1244.256,1238.501,3003.045,2992.074,-0.009541041,0.05418789,0.01020636,-0.724251985549927,-0.298298388719559,0.507933020591736,-0.72940084364523,-0.31384080592,0.451533868397061,0
3.60000610351563,-2.86098337173462,1.8758659362793,2.70604133605957,-2.59531978247425,1.84912278287974,2.74948366775945,1237.142,1236.467,2998.596,2993.98,-0.008024104,0.05456925,0.008760027,-0.712170243263245,-0.293088287115097,0.500672698020935,-0.716930938559024,-0.308475354130224,0.443814403124743,0
3.6199951171875,-2.8749828338623,1.87010860443115,2.7159059047699,-2.60952509409627,1.84301063413925,2.75827743234631,1245.981,1234.241,2991.765,2983.115,-0.006493319,0.05495372,0.007284204,-0.699973702430725,-0.287846297025681,0.493234217166901,-0.704361775018033,-0.303067194200314,0.436033492140578,0
3.63998413085938,-2.88873624801636,1.86445713043213,2.72562313079834,-2.623478029369,1.83700707589127,2.76691496395061,1241.174,1233.955,2990.436,2979.023,-0.00501633,0.05531914,0.005849638,-0.68766176700592,-0.282574832439423,0.48586505651474,-0.691680442442073,-0.297610771068296,0.428183143180413,0
3.66000366210938,-2.90224123001099,1.85891175270081,2.73518919944763,-2.63719712493647,1.83110413233575,2.77540773763803,1232.66,1231.894,2986.406,2982.169,-0.00356331,0.05566951,0.004452852,-0.675246000289917,-0.277280151844025,0.478301346302032,-0.678873453515702,-0.29210028151913,0.420255006953505,0
3.67999267578125,-2.91549587249756,1.85347247123718,2.74460053443909,-2.65063849381582,1.82532068681534,2.78372858527554,1241.349,1229.695,2980.102,2971.138,-0.002085255,0.05602381,0.003023662,-0.662737786769867,-0.271963983774185,0.470571994781494,-0.665986083416798,-0.286555206197011,0.41227711095171,0
3.70001220703125,-2.92849826812744,1.848140001297,2.75385856628418,-2.66384123964357,1.81963991412768,2.79190171387692,1237.612,1229.653,2978.223,2966.601,-0.0006551376,0.05636159,0.001632319,-0.650133550167084,-0.266626209020615,0.462900847196579,-0.65298533214413,-0.280961346123326,0.404229026602262,0
3.72000122070313,-2.94124746322632,1.84291458129883,2.76295900344849,-2.6767633032417,1.81407991116207,2.79990108680742,1233.83,1227.758,2972.507,2967.142,0.0007404062,0.05668664,0.0002706653,-0.637444853782654,-0.261272370815277,0.455018043518066,-0.639917282339434,-0.275338529371411,0.396139281255611,0
3.739990234375,-2.9537410736084,1.83779644966125,2.77190208435059,-2.68942333385363,1.80863265367006,2.80773824883709,1234.061,1226.221,2971.227,2959.442,0.002136307,0.05700432,-0.001081776,-0.624682009220123,-0.255906730890274,0.447153627872467,-0.62676873176137,-0.26968107538565,0.387999702095468,0
3.760009765625,-2.96597838401794,1.83278572559357,2.78068470954895,-2.70183851231475,1.80329074921818,2.81542383572149,1229.37,1225.105,2966.398,2959.526,0.003515333,0.05731004,-0.002401639,-0.611848652362823,-0.250529229640961,0.439136892557144,-0.613526094901139,-0.263983138701136,0.379801879044709,0
3.77999877929688,-2.97795701026917,1.82788300514221,2.78930449485779,-2.7139695770734,1.79807109095524,2.82293354268985,1236.514,1223.205,2960.332,2950.384,0.004895602,0.05761462,-0.003732154,-0.598953664302826,-0.245140925049782,0.430989623069763,-0.60023651686137,-0.258265004538452,0.371574997167698,0
3.79998779296875,-2.98967742919922,1.8230881690979,2.79776263237,-2.72583438304408,1.79296599641037,2.83027842278479,1232.894,1222.991,2958.408,2946.692,0.006217671,0.05790185,-0.005018993,-0.585996329784393,-0.239742651581764,0.422908067703247,-0.586886736182787,-0.252520966862155,0.36331084698941,0
3.82000732421875,-3.00113677978516,1.81840133666992,2.80605673789978,-2.73744929742843,1.78796842323393,2.8374686080838,1225.6,1221.318,2955.044,2948.892,0.007504738,0.05817408,-0.006263222,-0.572991013526917,-0.234341308474541,0.414701133966446,-0.573463232144022,-0.246745208083563,0.355001058539243,0
3.83999633789063,-3.01233577728271,1.81382250785828,2.81418418884277,-2.74877791451009,1.78309403578861,2.84448156171422,1231.8,1219.344,2950.051,2939.981,0.008801009,0.05844587,-0.007518637,-0.559948921203613,-0.22893999516964,0.406377404928207,-0.560014026276881,-0.240958390526246,0.346675359432959,0
3.8599853515625,-3.02327370643616,1.80935156345367,2.82214617729187,-2.75983729406747,1.77833549372837,2.85132784449154,1228.85,1219.261,2948.004,2935.963,0.01005265,0.05870271,-0.008733038,-0.546867430210114,-0.223537683486938,0.398104906082153,-0.546525890176286,-0.235154822377061,0.338325560657667,0
3.8800048828125,-3.03394842147827,1.80498874187469,2.82994031906128,-2.77064299647982,1.77368610185671,2.85801708903178,1223.597,1217.683,2944.253,2936.986,0.01127501,0.0589464,-0.009905894,-0.533759772777557,-0.218139290809631,0.389710366725922,-0.532985466132484,-0.229328756186666,0.329943393154704,0
3.89999389648438,-3.04436135292053,1.80073404312134,2.83756470680237,-2.78116151864576,1.76916027562219,2.86452855531919,1230.044,1215.833,2939.267,2928.367,0.0124959,0.05918802,-0.01108248,-0.520635545253754,-0.212747007608414,0.381224185228348,-0.519441457145543,-0.223501147495394,0.321559006401168,0
3.92001342773438,-3.05451107025146,1.79658699035645,2.84502077102661,-2.79142456801014,1.76474437219711,2.87088187177258,1226.674,1215.746,2937.262,2925.337,0.01365959,0.05941312,-0.01221113,-0.507493257522583,-0.207360371947289,0.372804343700409,-0.505860052376089,-0.217657448443621,0.313151469876846,0
