t,x_s1,x_s2,x_s3,x_s_d1,x_s_d2,x_s_d3,propellers_rpms1,propellers_rpms2,propellers_rpms3,propellers_rpms4,rollRad,pitchRad,yawRad,v_s1,v_s2,v_s3,v_s_d1,v_s_d2,v_s_d3,insideCount
0,-0.0599999986588955,2.94000005722046,1.17999994754791,-0.0599999986588955,2.94000005722046,1.17999994754791,0,0,0,0,0,0,0,0,0,0,-1.06581410364015E-15,4.44089209850063E-16,4.44089209850063E-16,0
0.0200004577636719,-0.0599999986588955,2.94000005722046,1.17811644077301,-0.0600018691155303,2.93999925241522,1.18000110544967,0,0,0,0,-0.01635288,0.0001297794,-0.01587137,-1.10653664009419E-09,-7.76775763711157E-08,-0.0941759571433067,-0.000279999361409376,-0.000120475902936966,0.000173332942931458,5
0.0400009155273438,-0.0599999986588955,2.94000005722046,1.17242503166199,-0.0600148724204753,2.93999365745638,1.18000915511487,0,0,0,0,-0.03270202,0.0005238493,-0.03175127,-1.08383135799528E-09,-7.60859677484405E-08,-0.284568399190903,-0.00111101934050116,-0.00047804058392963,0.00068777389696065,5
0.0600013732910156,-0.0599058866500854,2.93990302085876,1.16596508026123,-0.0600498951959519,2.93997858813451,1.18003083588125,1868.158,3252.8,3183.883,1722.412,-0.04942188,0.0003295469,-0.01369504,0.00470569217577577,-0.00484922388568521,-0.322996377944946,-0.0024796740721389,-0.00106693447916665,0.00153503637391071,5
0.0799999237060547,-0.0598203726112843,2.93960738182068,1.16000306606293,-0.0601175490846357,2.93994947855624,1.18007271686115,1925.485,2314.352,3252.117,2829.462,-0.07543244,-0.002136388,0.02094808,0.0042757336050272,-0.0147785618901253,-0.298098176717758,-0.00437248097278563,-0.00188135640961186,0.00270677401230774,5
0.100000381469727,-0.059937447309494,2.93904495239258,1.15498650074005,-0.0602282016920704,2.93990186783054,1.18014121609627,980.1564,1498.851,3914.982,3896.603,-0.1031954,-0.008062987,0.06330834,-0.00585370231419802,-0.0281167402863503,-0.250826150178909,-0.0067766330492767,-0.00291579588389246,0.00419505867330113,4
0.120000839233398,-0.0604638457298279,2.93818354606628,1.15081310272217,-0.0603919415209741,2.93983141515652,1.18024257885037,346.4167,980.3741,4172.86,4613.373,-0.1214322,-0.01542077,0.1040022,-0.0263199545443058,-0.043068490922451,-0.208669781684875,-0.00967891386376713,-0.00416456623802829,0.00599170875227859,4
0.14000129699707,-0.0615636147558689,2.93704128265381,1.14728271961212,-0.0606186016673619,2.93973388962768,1.1803828922783,352.9139,747.0927,3975.362,4854.956,-0.1254013,-0.0211668,0.1351061,-0.0549884922802448,-0.0571139045059681,-0.176518619060516,-0.0130663711011143,-0.0056220944526593,0.00808870614916252,4
0.159999847412109,-0.0633408650755882,2.93568086624146,1.14427483081818,-0.0609177249752248,2.93960518522485,1.18056806385509,820.9596,814.9492,3462.73,4692.391,-0.118459,-0.02352423,0.1522699,-0.088862419128418,-0.0680149048566818,-0.15039549767971,-0.0169257706321904,-0.00728268625174051,0.0104778583075938,3
0.180000305175781,-0.0658469125628471,2.9341721534729,1.14182531833649,-0.0612986871007165,2.9394412678651,1.18080389755851,1348.682,1083.357,3006.794,4255.207,-0.10798,-0.02278015,0.1557783,-0.125302463769913,-0.0754309296607971,-0.122477933764458,-0.0212451141043368,-0.00914117907931815,0.0131517376757159,3
0.200000762939453,-0.0690849795937538,2.93255376815796,1.14006149768829,-0.0617705288407759,2.93923824754608,1.18109599007255,1636.475,1381.2,2918.385,3666.346,-0.09982699,-0.02030074,0.1501564,-0.161903500556946,-0.0809154435992241,-0.0881898701190948,-0.0260114285934326,-0.0111919910485645,0.016102313395512,3
0.220001220703125,-0.0730103105306625,2.93082594871521,1.13903558254242,-0.0623420644491781,2.93899233174064,1.18144979784016,1641.444,1580.702,3148.171,3113.111,-0.09583918,-0.01735475,0.1421887,-0.196266651153564,-0.0863861739635468,-0.0512957945466042,-0.03121219533433,-0.0134297356845702,0.019321835755004,3
0.239999771118164,-0.077550046145916,2.92897343635559,1.1386331319809,-0.063021788625926,2.93869986541668,1.18187057948532,1524.102,1624.226,3417.785,2777.451,-0.09475687,-0.01467775,0.1377333,-0.226986765861511,-0.0926247239112854,-0.0201220028102398,-0.0368344480011416,-0.0158488339395432,0.022802277980796,3
0.260000228881836,-0.0826389491558075,2.92699217796326,1.13863551616669,-0.0638181482056218,2.93835721413725,1.18236356400102,1438.896,1500.805,3533.359,2744.213,-0.09439041,-0.01258876,0.1393023,-0.254445135593414,-0.0990581437945366,0.000120129436254501,-0.0428669580186739,-0.0184444544712678,0.0265366890499518,3
0.280000686645508,-0.0882448256015778,2.9249005317688,1.1388521194458,-0.0647391565454824,2.9379609299786,1.18293371203711,1400.56,1275.994,3476.591,2977.655,-0.09321064,-0.01110591,0.1456843,-0.28029391169548,-0.104584693908691,0.0108312126249075,-0.0492970154907394,-0.021211128566488,0.0305172009312752,3
0.30000114440918,-0.0943705886602402,2.92273235321045,1.13920700550079,-0.0657926437410092,2.93750764386939,1.18358587079569,1350.667,1061.588,3345.067,3324.815,-0.09053256,-0.009935189,0.1533105,-0.306288361549377,-0.108406953513622,0.0177413318306208,-0.0561125352021854,-0.0241436562947452,0.034736332300888,3
0.319999694824219,-0.101035907864571,2.92052555084229,1.13972508907318,-0.0669860785243584,2.93699414222283,1.18432466377777,1280.946,941.1476,3237.509,3590.522,-0.08597856,-0.008523713,0.1583599,-0.333265602588654,-0.110342338681221,0.0259043835103512,-0.0633008373176985,-0.0272365818771378,0.0391862337367069,3
0.340000152587891,-0.108251497149467,2.91831183433533,1.14046168327332,-0.0683270389802989,2.93641716440073,1.1851547821788,1253.013,944.1155,3171.183,3649.849,-0.07944635,-0.006292517,0.1584772,-0.360779643058777,-0.110679998993874,0.0368323065340519,-0.0708514254995047,-0.0304853890327553,0.0438604075056398,4
0.360000610351563,-0.116003036499023,2.91611456871033,1.14145278930664,-0.0698225328270578,2.93577369517774,1.1860805641102,1319.704,1047.219,3120.672,3498.119,-0.07154742,-0.002963033,0.1534739,-0.387577623128891,-0.109858654439449,0.0495530851185322,-0.0787518717320621,-0.0338847303337087,0.0487511600740379,4
0.380001068115234,-0.124251395463943,2.91394948959351,1.14270770549774,-0.0714794406858296,2.93506077401475,1.18710626900424,1455.444,1181.684,3090.693,3231.291,-0.06361386,0.001258782,0.1450388,-0.412418127059937,-0.108256831765175,0.0627461820840836,-0.0869905243502129,-0.0374295923939903,0.0538512785061227,4
0.399999618530273,-0.132943198084831,2.91182613372803,1.14421725273132,-0.0733042289655903,2.93427561859665,1.18823589987613,1579.592,1273.658,3104.75,2981.751,-0.05701881,0.005826154,0.1357478,-0.434590011835098,-0.106165066361427,0.0754783675074577,-0.0955550080350531,-0.0411146504596022,0.0591531018899743,4
0.420000076293945,-0.142023578286171,2.90974998474121,1.14595782756805,-0.075303664122713,2.9334153175063,1.1894736454847,1631.136,1288.541,3159.156,2844.824,-0.05243977,0.0101753,0.1278574,-0.454019337892532,-0.103801980614662,0.087030440568924,-0.104435522469179,-0.0449356877277546,0.0646505633622661,4
0.440000534057617,-0.151445999741554,2.90772414207458,1.14789569377899,-0.0774837715189226,2.93247727819886,1.19082323581587,1606.886,1238.095,3219.375,2842.979,-0.0496573,0.01397494,0.1224624,-0.471121490001678,-0.101290479302406,0.096892349421978,-0.113619939708908,-0.0488874858830966,0.0703361551481246,4
0.460000991821289,-0.161176711320877,2.9057514667511,1.1499969959259,-0.0798505169850734,2.93145893374399,1.19228836400314,1541.601,1158.258,3252.667,2938.208,-0.04788577,0.01718607,0.1193409,-0.486535727977753,-0.0986387804150581,0.105065330862999,-0.123097041639078,-0.0529652180840716,0.076202932699871,4
0.479999542236328,-0.171193554997444,2.9038360118866,1.15223908424377,-0.0824093896672336,2.93035792231548,1.19387242808941,1474.41,1086.204,3248.193,3066.949,-0.04628893,0.01998715,0.1173772,-0.500842034816742,-0.0957773923873901,0.112104646861553,-0.13285477482153,-0.0571636980729742,0.0822434343651008,5
0.5,-0.181481003761292,2.9019832611084,1.15461587905884,-0.085166398670376,2.92917165836334,1.1955791479969,1431.572,1046.257,3216.605,3169.677,-0.04433524,0.02264356,0.1152233,-0.514372825622559,-0.0926389247179031,0.118837162852287,-0.142884000065179,-0.0614789935111996,0.0884520025491718,5
0.520000457763672,-0.192024230957031,2.90019869804382,1.15713489055634,-0.0881266117110474,2.92789796139072,1.19741166088358,1423.506,1045.039,3177.451,3210.439,-0.04191975,0.0253788,0.1118864,-0.52716052532196,-0.0892274379730225,0.125949770212173,-0.153172907027918,-0.0659060227384819,0.0948213260877149,5
0.540000915527344,-0.202804520726204,2.89848589897156,1.15981006622314,-0.0912951145137283,2.92653464315245,1.19937311505516,1445.862,1073.45,3148.68,3184.408,-0.03929281,0.02828944,0.1070491,-0.539014399051666,-0.0856388509273529,0.133757710456848,-0.163710711144578,-0.0704401454577151,0.101344728821151,5
0.559999465942383,-0.213797807693481,2.89684534072876,1.16265308856964,-0.0946764453845371,2.92507975094219,1.20146631993932,1484.255,1113.895,3138.625,3114.144,-0.03688691,0.03132814,0.1010582,-0.549664676189423,-0.0820314437150955,0.142150461673737,-0.174485697560587,-0.0750763210942518,0.108014958696444,5
0.579999923706055,-0.224976092576981,2.8952739238739,1.16566824913025,-0.0982759076154404,2.92353100290156,1.20369455852641,1520.815,1148.708,3146.028,3035.043,-0.03512869,0.03434513,0.09465621,-0.558914840221405,-0.0785761922597885,0.150758281350136,-0.18548935464012,-0.0798108873289844,0.114826746605553,5
0.600000381469727,-0.23631078004837,2.89376544952393,1.1688517332077,-0.102097637365047,2.92188661935708,1.20606039129565,1540.541,1167.019,3163.221,2979.287,-0.03429086,0.03716081,0.08861779,-0.566734075546265,-0.0754189044237137,0.159173637628555,-0.196710206510864,-0.0846389064146545,0.121772988436844,5
0.620000839233398,-0.247776105999947,2.89231204986572,1.17219483852386,-0.106145874935429,2.92014477582521,1.20856644319602,1535.154,1167.357,3182.031,2963.8,-0.03441976,0.03963237,0.08345719,-0.573266625404358,-0.0726650059223175,0.167152404785156,-0.208137902157644,-0.089555924598607,0.128847276418837,5
0.639999389648438,-0.259351342916489,2.89090442657471,1.17568731307983,-0.110424235525481,2.91830391678686,1.21121495220784,1506.627,1156.379,3194.903,2986.983,-0.03534654,0.0416984,0.07929596,-0.578763127326965,-0.0703798457980156,0.174625709652901,-0.219761081350814,-0.0945570538913933,0.136042578028218,5
0.659999847412109,-0.271021127700806,2.88953256607056,1.17932093143463,-0.114937365519793,2.91636204303257,1.21400879466451,1466.584,1144.288,3197.803,3031.343,-0.03678198,0.04338508,0.07590606,-0.583489835262299,-0.0685959011316299,0.181678265333176,-0.231571827761751,-0.0996388881179631,0.143353992680462,5
0.680000305175781,-0.282774120569229,2.88818597793579,1.18309009075165,-0.119688496929273,2.91431776391831,1.21694997133476,1429.403,1139.661,3190.44,3075.159,-0.03844486,0.0447766,0.07288396,-0.587649583816528,-0.067325085401535,0.188456594944,-0.243559016194652,-0.104796640417365,0.150774633349401,5
0.700000762939453,-0.294601112604141,2.88685441017151,1.18699276447296,-0.124681059317553,2.91216960379868,1.22004060528183,1404.574,1146.278,3177.245,3101.902,-0.04016792,0.04596762,0.06985702,-0.591350555419922,-0.0665745437145233,0.195133611559868,-0.255712729184339,-0.110026043581393,0.158298360651655,5
0.719999313354492,-0.306493401527405,2.88552713394165,1.19102907180786,-0.129917773765869,2.90991639186844,1.22328238098464,1393.579,1162.889,3163.457,3106.812,-0.04193307,0.04702088,0.0666293,-0.594614863395691,-0.066359743475914,0.201815977692604,-0.268021976505935,-0.115322368823317,0.165918371114489,5
0.739999771118164,-0.318441867828369,2.884192943573,1.19519984722137,-0.13540267613015,2.90755639161152,1.22667779683026,1392.04,1185.058,3153.758,3094.139,-0.04383244,0.04795204,0.06321982,-0.597422540187836,-0.066709540784359,0.208541437983513,-0.280479406212952,-0.12068245280595,0.173630113532805,5
0.760000228881836,-0.330437004566193,2.88283967971802,1.19950497150421,-0.141138122953911,2.90508858907309,1.23022831163139,1392.501,1207.59,3149.611,3074.591,-0.04600078,0.04873428,0.0598115,-0.599757015705109,-0.0676617249846458,0.215256705880165,-0.293074259331322,-0.126101666243323,0.181426927589132,5
0.780000686645508,-0.342469811439514,2.88145446777344,1.20394265651703,-0.14712676774631,2.90251184252229,1.2339355680366,1387.765,1226.58,3150.74,3058.839,-0.04854037,0.04931873,0.05664894,-0.601642191410065,-0.0692551583051682,0.221884250640869,-0.30579705194586,-0.131575928471681,0.189302942288191,5
0.80000114440918,-0.354532837867737,2.88002419471741,1.20850908756256,-0.153371075417786,2.89982509137701,1.23780109194287,1373.985,1240.631,3154.117,3054.457,-0.05147571,0.04966076,0.05393478,-0.603150427341461,-0.0715194940567017,0.22832202911377,-0.318638408531467,-0.137101205464496,0.197252353733327,5
0.819999694824219,-0.366620689630508,2.87853479385376,1.21319913864136,-0.159872691993147,2.89702762739878,1.24182590231796,1352.547,1250.834,3156.382,3062.104,-0.05475033,0.04973903,0.05176025,-0.604392170906067,-0.0744682177901268,0.234500840306282,-0.331587821991737,-0.142672976311719,0.205268657531342,4
0.840000152587891,-0.378730475902557,2.87697291374207,1.21800744533539,-0.166634951706069,2.89411801595997,1.24601206321137,1326.465,1259.528,3155.915,3078.233,-0.05825558,0.04955948,0.0501037,-0.605490922927856,-0.0780984088778496,0.240416273474693,-0.344638604388044,-0.148288363380199,0.213347713529636,4
0.860000610351563,-0.390861630439758,2.87532496452332,1.22292912006378,-0.173659158941841,2.89109569582005,1.2503603820997,1300.407,1269.103,3151.625,3097.282,-0.06187482,0.04915132,0.04886377,-0.606556177139282,-0.0823923721909523,0.246083036065102,-0.357780475378537,-0.153942943326036,0.221483157706883,4
0.880001068115234,-0.40301501750946,2.8735785484314,1.22796058654785,-0.180947045911593,2.88795992165696,1.25487193130418,1277.764,1280.984,3145.378,3113.145,-0.06551269,0.04855462,0.04791872,-0.607671022415161,-0.0873256176710129,0.251573264598846,-0.37100449298811,-0.159632868667153,0.229669454554527,4
0.899999618530273,-0.415192723274231,2.8717212677002,1.23309922218323,-0.188499434070438,2.88471034002151,1.25954721934464,1259.449,1295.212,3138.5,3123.838,-0.06911702,0.04780634,0.04717999,-0.608885645866394,-0.0928697660565376,0.256928980350494,-0.384300552311253,-0.165353791545005,0.237900348654692,4
0.920000076293945,-0.427397310733795,2.86974143981934,1.23834300041199,-0.196319142784876,2.88134573781905,1.26438799154326,1246.117,1310.859,3132.689,3128.15,-0.07266914,0.04693337,0.0466114,-0.610228657722473,-0.0989962890744209,0.262186318635941,-0.397662465047122,-0.171103049306624,0.246172009154369,4
0.940000534057617,-0.439631640911102,2.8676278591156,1.24368989467621,-0.204406669873309,2.87786590085225,1.26939455607335,1236.468,1326.596,3128.151,3128.516,-0.07618079,0.0459487,0.04623285,-0.611717820167542,-0.105675250291824,0.267342805862427,-0.41108034963383,-0.176876390191985,0.254478318896024,4
0.960000991821289,-0.451899170875549,2.86537027359009,1.24913811683655,-0.212763049531523,2.87427038413554,1.27456755315135,1227.591,1341.055,3125.84,3128.15,-0.07967272,0.04485362,0.04609991,-0.613376498222351,-0.112877584993839,0.272412449121475,-0.424545697646264,-0.182670153263461,0.262814010759199,3
0.980001449584961,-0.464203953742981,2.86295890808105,1.25468575954437,-0.221389146866832,2.87055881543742,1.2799075183199,1216.849,1353.401,3125.063,3130.898,-0.08315188,0.04364495,0.04627147,-0.615237593650818,-0.120571576058865,0.277380019426346,-0.438050109049398,-0.188480724220651,0.271173884722065,3
1.00000190734863,-0.476550817489624,2.86038446426392,1.26033043861389,-0.230285660065931,2.86673089434765,1.28541488378984,1204.816,1363.628,3124.882,3136.969,-0.08659694,0.04232591,0.04677527,-0.617345094680786,-0.128721877932549,0.282236158847809,-0.451585292198286,-0.194304535400376,0.279552807861415,3
1.01999855041504,-0.488945752382278,2.8576385974884,1.26607012748718,-0.239451348187707,2.86278715480854,1.29108888135949,1192.118,1372.314,3124.536,3145.931,-0.08996744,0.040907,0.04760532,-0.6197469830513,-0.137287989258766,0.286985576152802,-0.465140476318736,-0.200136952439402,0.28794411255494,3
1.03999900817871,-0.501395523548126,2.85471415519714,1.27190315723419,-0.248890079057088,2.85872593260306,1.29693190539675,1179.29,1380.033,3123.955,3156.804,-0.09321596,0.03940601,0.04872766,-0.622487723827362,-0.146225348114967,0.291649580001831,-0.478712759579464,-0.205976726760794,0.296346002430842,3
1.05999946594238,-0.513907551765442,2.85160446166992,1.27782762050629,-0.258600340480156,2.85454787838601,1.30294301978152,1169.786,1387.495,3121.787,3166.956,-0.09629937,0.03784918,0.05008421,-0.625600218772888,-0.155482992529869,0.296225339174271,-0.492291591500725,-0.211819318787865,0.30475194623957,3
1.07999992370605,-0.526489794254303,2.848304271698,1.28384339809418,-0.268582184669612,2.85025296969173,1.30912225683598,1162.852,1394.899,3120.316,3174.946,-0.09919742,0.0362592,0.05162644,-0.62910932302475,-0.165013954043388,0.300787419080734,-0.505869113977232,-0.21766134739744,0.313157079439617,3
1.10000038146973,-0.539150238037109,2.84480881690979,1.28995048999786,-0.278835507756382,2.84584125121218,1.3154695522602,1156.789,1401.912,3119.706,3182.463,-0.1019,0.03465507,0.05332521,-0.633024871349335,-0.174770399928093,0.30535551905632,-0.51943757729378,-0.223499478103569,0.321556604588103,3
1.1200008392334,-0.55189722776413,2.84111475944519,1.2961493730545,-0.289360051957465,2.84131283386418,1.32198474647424,1153.818,1408.234,3119.956,3187.574,-0.1043964,0.0330552,0.05515641,-0.637350976467133,-0.18470524251461,0.309942573308945,-0.53298934012525,-0.229330423057527,0.32994579134077,3
1.14000129699707,-0.564739048480988,2.83721923828125,1.30244052410126,-0.300155407743787,2.83666789385665,1.32866758596008,1152.941,1413.677,3120.838,3191.706,-0.1066905,0.03147147,0.05711357,-0.642087578773499,-0.194771289825439,0.314558893442154,-0.546516869536604,-0.235150941047811,0.338319976451988,3
1.16000175476074,-0.577683746814728,2.83312082290649,1.30882501602173,-0.311221016008049,2.83190667175784,1.33551772460368,1153.16,1417.91,3122.563,3195.891,-0.1087912,0.02991216,0.05919657,-0.64723527431488,-0.204923272132874,0.319221943616867,-0.560012740982886,-0.240957837500147,0.346674563774749,3
1.17999839782715,-0.590739607810974,2.82881855964661,1.31530392169952,-0.322553982624406,2.82703041282926,1.34253337080327,1153.507,1420.852,3124.976,3201.179,-0.1107044,0.028384,0.06140228,-0.652795553207397,-0.21511746942997,0.323944121599197,-0.573467075844405,-0.246746861920456,0.355003437972878,3
1.19999885559082,-0.60391503572464,2.82431221008301,1.3218789100647,-0.334157779891176,2.82203762303794,1.34971667407692,1153.45,1422.538,3128.426,3207.562,-0.1124248,0.02689498,0.06371852,-0.658771157264709,-0.225312814116478,0.328748106956482,-0.586877800774655,-0.252517122205661,0.363305315546124,3
1.21999931335449,-0.617218255996704,2.81960296630859,1.32855117321014,-0.346029276726411,2.81692964960096,1.35706569613575,1155.442,1423.504,3131.013,3213.9,-0.1139455,0.02545781,0.06611661,-0.665159046649933,-0.235464990139008,0.333612978458405,-0.600235245789198,-0.258264457631606,0.371574210313473,3
1.23999977111816,-0.630657374858856,2.81469225883484,1.33532285690308,-0.3581673374151,2.81170698118478,1.36457973391807,1158.521,1423.888,3134.216,3219.677,-0.1152664,0.02408302,0.06856893,-0.671957492828369,-0.245535969734192,0.338585793972015,-0.613532419882739,-0.263985860164018,0.379805794509619,2
1.26000022888184,-0.644240438938141,2.80958247184753,1.34219646453857,-0.370570687502852,2.8063701661515,1.37225799847589,1161.419,1423.679,3138.08,3225.918,-0.1163913,0.02277939,0.07105307,-0.679156363010406,-0.25548928976059,0.343680083751678,-0.626762440440062,-0.269678368405849,0.38799580746788,2
1.28000068664551,-0.657975256443024,2.80427670478821,1.34917438030243,-0.383237915963745,2.80091981162618,1.38009961631695,1165.879,1422.962,3142.176,3231.153,-0.1173165,0.02155763,0.07354171,-0.68674111366272,-0.265289962291718,0.348896056413651,-0.639918533236038,-0.275339067597274,0.396140055620199,2
1.30000114440918,-0.671869099140167,2.79877853393555,1.35625922679901,-0.396167477368181,2.79535658256398,1.38810363074672,1172.049,1421.87,3146.357,3235.284,-0.1180494,0.02042586,0.07601421,-0.694693505764008,-0.274904847145081,0.354240506887436,-0.652994032435618,-0.280965089615694,0.404234412497144,2
1.32000160217285,-0.685929000377655,2.79309248924255,1.36345374584198,-0.409357694050734,2.78968120081747,1.39626900321038,1179.124,1420.307,3150.875,3238.909,-0.1186033,0.01938789,0.07845809,-0.702993273735046,-0.284304082393646,0.359724879264832,-0.665982380593837,-0.286553612975735,0.412274818727906,2
1.33999824523926,-0.700161397457123,2.78722333908081,1.37076091766357,-0.42280416857195,2.783895558482,1.40459301148342,1186.401,1418.172,3155.841,3242.59,-0.1189954,0.0184461,0.08086453,-0.711618959903717,-0.293461382389069,0.365355938673019,-0.678874678563316,-0.292100808622893,0.420255765316334,2
1.35999870300293,-0.714572370052338,2.78117632865906,1.37818384170532,-0.436510095902056,2.77799828085114,1.41307763340462,1193.141,1415.343,3161.77,3246.509,-0.1192329,0.01760123,0.08322599,-0.720549404621124,-0.302355051040649,0.371145933866501,-0.691669505523675,-0.297606065217852,0.428176372706927,2
1.3799991607666,-0.729167520999908,2.77495718002319,1.3857250213623,-0.450470874182571,2.77199134797602,1.42172002020435,1201.65,1412.317,3166.588,3249.874,-0.1193261,0.01685689,0.08552617,-0.729758381843567,-0.310960978269577,0.377058357000351,-0.704358160626625,-0.303065639028665,0.436031254660118,2
1.39999961853027,-0.743951976299286,2.7685718536377,1.39338767528534,-0.464684318506637,2.76587569996104,1.4305188193212,1210.34,1408.941,3172.147,3252.677,-0.1192904,0.01621262,0.08775552,-0.739226162433624,-0.319263577461243,0.383130639791489,-0.716934519966859,-0.308476895109962,0.443816620186799,2
1.42000007629395,-0.758930504322052,2.7620267868042,1.40117478370667,-0.479148122570409,2.75965232914431,1.43947260304321,1217.596,1405.117,3178.306,3256.486,-0.1191392,0.0156659,0.08990984,-0.748927235603333,-0.327249318361282,0.389357596635818,-0.729392568029154,-0.313837245153597,0.451528745396487,2
1.44000053405762,-0.774107277393341,2.75532865524292,1.40908920764923,-0.493859860840914,2.7533222791649,1.44857986984993,1225.478,1401.047,3184.277,3259.755,-0.1188723,0.01521819,0.09197471,-0.758835136890411,-0.334905833005905,0.395719677209854,-0.741726397688367,-0.319144147488646,0.459163973497326,2
1.46000099182129,-0.78948575258255,2.74848413467407,1.41713333129883,-0.508816990723896,2.74688664403008,1.4578390457544,1234.265,1396.968,3189.805,3262.292,-0.1184984,0.01486974,0.09393752,-0.768923103809357,-0.342222273349762,0.402209252119064,-0.753930210209442,-0.324395107081412,0.46671871479608,2
1.48000144958496,-0.805069029331207,2.74150037765503,1.42530989646912,-0.524016854731666,2.74034656718258,1.46724848564514,1243.216,1392.85,3195.246,3264.504,-0.1180318,0.01461804,0.09579075,-0.779163897037506,-0.349191009998322,0.408828556537628,-0.765998315247402,-0.329587675535422,0.474189446698144,2
1.49999809265137,-0.820859611034393,2.73438429832458,1.43362140655518,-0.539453715106405,2.73370451741928,1.47680463757674,1251.739,1388.632,3200.805,3266.734,-0.117488,0.0144598,0.09752956,-0.789529800415039,-0.355807989835739,0.415575206279755,-0.777922869861026,-0.334718478252175,0.481571314049288,1
1.51999855041504,-0.836859464645386,2.72714281082153,1.44207048416138,-0.555130581228843,2.72695919988774,1.48650936449923,1259.304,1384.16,3207.09,3268.93,-0.1168718,0.01439056,0.09915146,-0.799993753433228,-0.362073510885239,0.422451466321945,-0.789702950965343,-0.339787118053995,0.488863745415943,1
1.53999900817871,-0.85306990146637,2.71978306770325,1.45065867900848,-0.571041541911266,2.72011315800687,1.49635900710582,1268.41,1380.019,3211.808,3270.289,-0.1161937,0.0144095,0.1006472,-0.810523092746735,-0.367984443902969,0.429407507181168,-0.801330904905084,-0.34479030178684,0.496062002820904,1
1.55999946594238,-0.869491755962372,2.7123122215271,1.45938813686371,-0.587183501790833,2.71316772362485,1.50635164921945,1277.386,1375.866,3217.03,3270.912,-0.1154709,0.01451061,0.1020167,-0.821094632148743,-0.373545140028,0.436472445726395,-0.812801474874933,-0.34972576759424,0.503162832051264,1
1.57999992370605,-0.886125385761261,2.70473694801331,1.46826076507568,-0.603553261450117,2.7061242733616,1.51648531024834,1284.357,1371.519,3222.702,3272.641,-0.1147167,0.01468569,0.1032671,-0.831680595874786,-0.378762036561966,0.44363334774971,-0.824109512459656,-0.354591300256948,0.510163045992739,0
1.60000038146973,-0.902970552444458,2.69706416130066,1.47727799415588,-0.620147519584954,2.69898422767608,1.52675794652794,1291.353,1367.167,3228.114,3273.903,-0.1139311,0.01493134,0.1043952,-0.842254519462585,-0.383642345666885,0.45086458325386,-0.835249977634101,-0.359384731192946,0.517059524629672,0
1.6200008392334,-0.920026361942291,2.6893002986908,1.48644089698792,-0.636962875172296,2.6917490499335,1.53716745266298,1298.67,1363.023,3232.817,3274.727,-0.1131183,0.01524355,0.1053981,-0.852790713310242,-0.388192892074585,0.458146214485168,-0.8462179387632,-0.364103938457435,0.523849215045028,0
1.64000129699707,-0.93729168176651,2.68145179748535,1.4957503080368,-0.653995829638063,2.68442024547254,1.54771166286943,1305.866,1359.075,3237.11,3275.308,-0.112289,0.0156169,0.1062757,-0.863265514373779,-0.39242234826088,0.46547269821167,-0.857008572601967,-0.368746846742847,0.530529131420399,0
1.66000175476074,-0.954764783382416,2.67352485656738,1.50520706176758,-0.671242789024991,2.67699936067261,1.55838835231655,1312.271,1355.257,3241.32,3276.006,-0.1114533,0.01604487,0.1070293,-0.873656034469604,-0.396341979503632,0.472838819026947,-0.867617164295501,-0.373311427378833,0.537096355036,0
1.67999839782715,-0.972443521022797,2.66552567481995,1.51481175422668,-0.688696716710861,2.66948942319567,1.56919316499998,1318.035,1351.593,3245.478,3276.556,-0.1106176,0.01652236,0.1076597,-0.883939862251282,-0.399964869022369,0.48023334145546,-0.878037137680598,-0.377794850826084,0.543546814933542,0
1.69999885559082,-0.990325570106506,2.65745949745178,1.52456474304199,-0.706360494347389,2.66188919314749,1.58012788479941,1322.738,1347.953,3249.916,3277.124,-0.1097803,0.01704384,0.1081703,-0.894095540046692,-0.403305560350418,0.487647116184235,-0.888267970958778,-0.382196892569292,0.54988018809491,0
1.71999931335449,-1.00840735435486,2.64933204650879,1.53446531295776,-0.724226945158621,2.65420175849427,1.59118806894864,1329.021,1344.953,3252.422,3276.746,-0.1089478,0.01760682,0.1085569,-0.904097557067871,-0.406374365091324,0.495029181241989,-0.898303268694426,-0.386514800831178,0.556092515440802,0
1.73999977111816,-1.02668595314026,2.64114832878113,1.54451358318329,-0.74229211534941,2.6464288204436,1.60237126986013,1334.817,1342.121,3255.383,3275.754,-0.108135,0.0182038,0.1088261,-0.913931310176849,-0.409187436103821,0.502411365509033,-0.908138749572296,-0.3907467334814,0.562181146633131,0
1.76000022888184,-1.04515755176544,2.63291311264038,1.5547091960907,-0.76055196658027,2.63857211658015,1.61367498760938,1338.084,1339.198,3258.941,3276.038,-0.107351,0.01882554,0.1089916,-0.923578321933746,-0.411762952804565,0.509782135486603,-0.917770240667228,-0.394890895026838,0.568143498432442,0
1.78000068664551,-1.06381809711456,2.62463068962097,1.56505131721497,-0.779002378135229,2.63063341993288,1.62509667127688,1341.207,1336.424,3262.064,3275.957,-0.1065872,0.0194684,0.1090552,-0.933020949363708,-0.414117634296417,0.517108380794525,-0.927193677444144,-0.398945536611599,0.573977054697898,0
1.80000114440918,-1.08266282081604,2.61630535125732,1.5755387544632,-0.797639149089676,2.62261453804228,1.6366337202902,1344.822,1334.004,3264.323,3275.253,-0.105842,0.02012963,0.1090186,-0.942243635654449,-0.416265785694122,0.524369418621063,-0.936405103758047,-0.402908956017012,0.579679366387291,0
1.82000160217285,-1.10168743133545,2.6079409122467,1.58616995811462,-0.816458000478217,2.61451731202764,1.64828348576592,1348.219,1331.899,3265.925,3274.552,-0.105123,0.02080309,0.1088863,-0.95123302936554,-0.418221682310104,0.531557679176331,-0.945400671854024,-0.406779497661632,0.585248051557035,0
1.83999824523926,-1.12088716030121,2.5995409488678,1.59694349765778,-0.835450937570646,2.606345181798,1.6600410185852,1350.679,1329.994,3267.48,3274.061,-0.1044359,0.02148373,0.1086632,-0.95997828245163,-0.420001417398453,0.538674533367157,-0.954174989692508,-0.410554841501469,0.590679772277779,0
1.85999870300293,-1.140256524086,2.59110832214355,1.60785794258118,-0.854620778981102,2.59809693458245,1.67190806360445,1351.403,1328.082,3269.687,3273.974,-0.103777,0.02216621,0.1083561,-0.968469679355621,-0.421623110771179,0.545720934867859,-0.962727774564036,-0.414234865894539,0.595974353538898,0
1.8799991607666,-1.15979027748108,2.58264660835266,1.61891078948975,-0.873959418228252,2.58977605837344,1.68387960252558,1353.701,1326.86,3269.936,3272.948,-0.1031442,0.02285059,0.1079612,-0.976691603660583,-0.423099011182785,0.552640318870544,-0.971053808954927,-0.417817325890467,0.60112856545088,0
1.89999961853027,-1.17948317527771,2.57415771484375,1.63010001182556,-0.8934622858751,2.58138451927205,1.6959528066494,1355.831,1325.883,3270.475,3271.178,-0.1025466,0.02353179,0.1074847,-0.984639227390289,-0.424444973468781,0.559463083744049,-0.979149678649926,-0.42130075244781,0.60614029445184,0
1.92000007629395,-1.19932913780212,2.56564426422119,1.64142370223999,-0.913124745282702,2.57292431229448,1.70812480567554,1355.776,1324.865,3271.662,3270.388,-0.1019868,0.02420279,0.1069418,-0.992304563522339,-0.425678133964539,0.566185235977173,-0.987012077823863,-0.42468372316235,0.61100749407852,0
1.94000053405762,-1.21932291984558,2.55710792541504,1.65287911891937,-0.932942094778026,2.56439746043929,1.72039268904442,1355.476,1323.983,3272.325,3269.577,-0.1014574,0.02486139,0.1063375,-0.999679148197174,-0.426812767982483,0.572773039340973,-0.994637809041649,-0.427964862267096,0.615728184966283,0
1.96000099182129,-1.23945784568787,2.54855060577393,1.66446340084076,-0.9529095698218,2.55580601375463,1.73275350727926,1355.744,1323.384,3272.276,3268.142,-0.1009524,0.02550641,0.1056745,-1.00675821304321,-0.427860766649246,0.579213976860046,-1.00202378325828,-0.431142840632279,0.62030045484912,0
1.98000144958496,-1.25972867012024,2.53997397422791,1.67617344856262,-0.973022345176363,2.54715204840546,1.74520427332809,1355.738,1323.041,3271.693,3266.846,-0.1004752,0.02613418,0.1049588,-1.01353800296783,-0.428832858800888,0.585503995418549,-1.00916701981882,-0.434216375765357,0.624722458559645,0
1.99999809265137,-1.28012895584106,2.53137922286987,1.68800640106201,-0.993271661096953,2.53843933346522,1.75773956449162,1354.857,1322.839,3271.044,3265.918,-0.1000278,0.02674176,0.1041954,-1.02001702785492,-0.429740637540817,0.591645121574402,-1.01606335446626,-0.437183675902864,0.628991618224387,0
2.01999855041504,-1.30065274238586,2.52276730537415,1.69995927810669,-1.01366030404084,2.52966666999921,1.77036110571964,1352.566,1322.601,3271.081,3265.237,-0.09960276,0.02732679,0.1033898,-1.02619504928589,-0.430596888065338,0.597643852233887,-1.02271265493931,-0.440044684136465,0.633107851967309,0
2.03999900817871,-1.32129406929016,2.51413917541504,1.7120281457901,-1.03417943002831,2.52083786332482,1.7830634221674,1351.889,1322.964,3269.159,3263.845,-0.09919476,0.02789157,0.1025381,-1.03206491470337,-0.431407958269119,0.603445887565613,-1.02911092662815,-0.442797681697156,0.63706868693465,0
2.05999946594238,-1.3420467376709,2.50549554824829,1.72421002388,-1.05482399271638,2.51195508474246,1.79584338990822,1351.305,1323.481,3267.805,3261.445,-0.0988086,0.02843391,0.1016455,-1.03763067722321,-0.432183682918549,0.609092712402344,-1.03525562241752,-0.445441572632395,0.640872546340724,0
2.07999992370605,-1.36290454864502,2.49683690071106,1.7365015745163,-1.07558889590252,2.5030205270057,1.80869785414995,1348.471,1323.901,3266.929,3260.476,-0.09844694,0.02894872,0.1007272,-1.04289066791534,-0.432933628559113,0.614575326442719,-1.04114430358224,-0.447975307626868,0.644517920498472,0
2.10000038146973,-1.38386142253876,2.4881637096405,1.74889898300171,-1.09646899569251,2.49403640338852,1.82162363057704,1345.893,1324.356,3265.691,3259.123,-0.09809754,0.02943737,0.09978519,-1.04784488677979,-0.433665096759796,0.619870781898499,-1.04677463978721,-0.450397884002483,0.648003366819457,0
2.1200008392334,-1.40491127967834,2.47947597503662,1.76139831542969,-1.11745910266827,2.48500494675256,1.8346175066925,1343.884,1324.993,3263.806,3257.361,-0.09775452,0.02990038,0.09882182,-1.05249464511871,-0.434382379055023,0.624969244003296,-1.05214440908742,-0.452708345718374,0.651327509813868,0
2.14000129699707,-1.4260481595993,2.47077417373657,1.77399575710297,-1.13855398405575,2.47592840861429,1.8476762431599,1341.745,1325.738,3261.66,3255.641,-0.09741843,0.0303365,0.09784178,-1.05684280395508,-0.435089021921158,0.62987494468689,-1.05725149792793,-0.454905783370899,0.654489041090521,0
2.15999794006348,-1.44726598262787,2.46205830574036,1.78668749332428,-1.15974431432775,2.46681080148754,1.86079406703369,1338.936,1326.516,3259.438,3254.361,-0.0970898,0.03074536,0.09684911,-1.0608925819397,-0.435788601636887,0.634588658809662,-1.06209300290918,-0.456988947708343,0.657486163306784,0
2.17999839782715,-1.46855890750885,2.45332860946655,1.79946994781494,-1.18103286617629,2.4576509323604,1.8739726947423,1335.044,1327.158,3257.906,3253.274,-0.09675797,0.03112682,0.09584743,-1.06464886665344,-0.436485439538956,0.639121532440186,-1.06666887474518,-0.458957817524312,0.66031884595227,0
2.19999885559082,-1.48992109298706,2.44458508491516,1.81233835220337,-1.20241025668069,2.44845283844151,1.88720631781084,1332.919,1328.238,3254.449,3251.626,-0.09641922,0.03148523,0.09483059,-1.06810939311981,-0.43717747926712,0.643422842025757,-1.07097637612794,-0.460811215031657,0.662985394502945,0
2.21999931335449,-1.51134657859802,2.43582773208618,1.82528924942017,-1.22387110132782,2.43921883653644,1.90049160296922,1331.083,1329.361,3251.769,3248.844,-0.09607673,0.03182058,0.09380129,-1.07128262519836,-0.437867045402527,0.647543668746948,-1.07501382704219,-0.462548417366737,0.665484768949324,0
2.23999977111816,-1.532830119133,2.42705655097961,1.83831882476807,-1.24540998308744,2.42995125744197,1.91382519681765,1326.951,1330.279,3249.706,3247.645,-0.09573372,0.03212964,0.09277329,-1.07417011260986,-0.438556253910065,0.651477754116058,-1.07877965586273,-0.46416874830314,0.667815996380546,0
2.26000022888184,-1.55436563491821,2.41827178001404,1.85142290592194,-1.26702145457998,2.42065244501334,1.92720372716869,1323.305,1331.074,3247.375,3246.027,-0.09537473,0.03241583,0.09174572,-1.07677459716797,-0.439244657754898,0.655203402042389,-1.08227239935447,-0.465671578251677,0.669978170984375,0
2.28000068664551,-1.57594764232635,2.40947294235229,1.86459720134735,-1.28870004024447,2.41132475523149,1.94062380438925,1320.686,1331.96,3244.341,3243.833,-0.09499389,0.03268198,0.09071772,-1.07909953594208,-0.439928829669952,0.658712267875671,-1.08549070267236,-0.467056324260381,0.671970454047199,0
2.30000114440918,-1.5975706577301,2.4006609916687,1.87783753871918,-1.31044023850629,2.40197055527025,1.95408202274258,1318.148,1332.836,3241.205,3241.584,-0.09459282,0.03292826,0.08969242,-1.08114993572235,-0.440605103969574,0.662016570568085,-1.08843331936148,-0.468322450014513,0.673792073954033,0
2.31999778747559,-1.61922919750214,2.39183568954468,1.89113986492157,-1.33223236173323,2.39259401344714,1.96757238512285,1314.885,1333.621,3237.97,3240.094,-0.0941731,0.03315502,0.08867229,-1.08292996883392,-0.441270053386688,0.665116906166077,-1.0910986293707,-0.469469258451341,0.675442027816066,0
2.33999824523926,-1.64091813564301,2.3829972743988,1.90450048446655,-1.35407917814146,2.38319393867607,1.98109660518773,1310.789,1334.157,3235.661,3238.546,-0.0937257,0.033364,0.08765773,-1.08444607257843,-0.441922098398209,0.668033361434937,-1.09348662008434,-0.470496744142684,0.676920307823584,0
2.35999870300293,-1.66263210773468,2.37414622306824,1.91791474819183,-1.37597096908363,2.3737745126195,1.99464866663155,1308.425,1334.967,3231.633,3236.517,-0.09324579,0.03356034,0.08664156,-1.0856968164444,-0.442553579807281,0.670716404914856,-1.09559583531025,-0.471404280529741,0.678226012524276,0
2.3799991607666,-1.68436586856842,2.36528301239014,1.93137907981873,-1.39790215061238,2.36433813789396,2.0082251127249,1306.664,1335.73,3228.29,3233.305,-0.09273659,0.03374539,0.08562402,-1.08668982982635,-0.443160980939865,0.673214316368103,-1.09742546213314,-0.472191517837776,0.679358638684859,0
2.39999961853027,-1.70611429214478,2.35640811920166,1.94488954544067,-1.41986712360559,2.35488722364528,2.02182247734447,1302.894,1336.239,3225.495,3231.618,-0.09220183,0.03391692,0.08461609,-1.08742678165436,-0.443740636110306,0.675524532794952,-1.09897479602782,-0.472858152929276,0.680317750170671,0
2.42000007629395,-1.72787261009216,2.34752225875854,1.95844221115112,-1.44186027593426,2.3454241846158,2.03543728631505,1299.705,1336.52,3222.563,3229.489,-0.09163085,0.03407878,0.08361488,-1.08791053295135,-0.44428750872612,0.677631437778473,-1.10024324085915,-0.473403929303954,0.681102977945675,0
2.44000053405762,-1.74963545799255,2.33862638473511,1.97203278541565,-1.46387598463032,2.33595144021159,2.04906605875155,1297.322,1336.765,3219.182,3226.939,-0.09101833,0.03423372,0.08261852,-1.08814418315887,-0.444794535636902,0.679531395435333,-1.10123030888212,-0.473828637098746,0.681714020072459,0
2.46000099182129,-1.77139806747437,2.32972097396851,1.9856573343277,-1.4859086180545,2.32647141356968,2.062705308401,1295.211,1336.941,3215.545,3224.396,-0.09036531,0.03438318,0.08162668,-1.08813095092773,-0.445254355669022,0.681230247020721,-1.10193562074175,-0.474132113087814,0.682150641712234,0
2.48000144958496,-1.79315543174744,2.32080793380737,1.99931216239929,-1.50795253806421,2.31698653062533,2.07635154498454,1292.809,1336.969,3212.164,3221.96,-0.0896745,0.03452821,0.08063959,-1.08787488937378,-0.445661008358002,0.682741343975067,-1.10235890547318,-0.474314240682543,0.682412675124841,0
2.49999809265137,-1.81490325927734,2.31188774108887,2.01299333572388,-1.52999789647758,2.30750102877607,2.08999867200848,1290.044,1336.858,3208.731,3219.932,-0.08894479,0.03467055,0.07965577,-1.08737790584564,-0.446008324623108,0.684060037136078,-1.10250000050163,-0.474374949931546,0.682500019668738,0
2.51999855041504,-1.83663618564606,2.30296182632446,2.02669739723206,-1.5520474605947,2.29801371732999,2.10364840256337,1286.922,1336.492,3206.115,3217.547,-0.08816608,0.0348126,0.07867367,-1.08664393424988,-0.446291655302048,0.685204386711121,-1.10235890547318,-0.474314240682543,0.682412675124841,0
2.53999900817871,-1.85834944248199,2.29403185844421,2.04041981697083,-1.5740913806044,2.28852883438564,2.11729463914691,1285.889,1336.316,3201.669,3214.597,-0.0873373,0.03495893,0.07768548,-1.08566951751709,-0.446500539779663,0.686124622821808,-1.10193562074175,-0.474132113087814,0.682150641712234,0
2.55999946594238,-1.88003849983215,2.28509926795959,2.05415725708008,-1.59612401402858,2.27904880774374,2.13093388879636,1285.396,1336.047,3197.955,3210.596,-0.08646858,0.03510983,0.07669163,-1.08446025848389,-0.446629524230957,0.686875104904175,-1.10123030888212,-0.473828637098746,0.681714020072458,0
2.57999992370605,-1.90169894695282,2.27616572380066,2.06790637969971,-1.61813972272464,2.26957606333952,2.14456266123286,1282.456,1335.457,3195.022,3208.411,-0.08556736,0.03526224,0.07570294,-1.08301651477814,-0.446674674749374,0.687458693981171,-1.10024324085916,-0.473403929303954,0.681102977945675,0
2.60000038146973,-1.92332577705383,2.26723313331604,2.08166360855103,-1.64013287505331,2.26011302431004,2.15817747020344,1279.91,1334.554,3192.095,3205.888,-0.08462141,0.03541981,0.07471476,-1.08133959770203,-0.446631103754044,0.687857270240784,-1.09897479602782,-0.472858152929276,0.680317750170671,0
2.6200008392334,-1.9449143409729,2.25830340385437,2.09542489051819,-1.66209784804653,2.25066211006137,2.17177483482301,1278.613,1333.628,3188.592,3202.615,-0.08362433,0.03558577,0.07372174,-1.079430103302,-0.446491688489914,0.688062429428101,-1.09742546213314,-0.472191517837776,0.679358638684859,0
2.64000129699707,-1.96646022796631,2.24937844276428,2.10918664932251,-1.68402902957527,2.24122573533583,2.18535128091636,1277.811,1332.666,3184.784,3199.179,-0.08258037,0.03576092,0.07272261,-1.07728910446167,-0.446249336004257,0.688082277774811,-1.09559583531025,-0.471404280529741,0.678226012524277,0
2.65999794006348,-1.98795831203461,2.24046039581299,2.1229453086853,-1.70591664919621,2.23180810408224,2.19890076011363,1276.578,1331.56,3181.178,3196.063,-0.08149539,0.03594534,0.07171784,-1.0749180316925,-0.445898622274399,0.687929749488831,-1.093487048984,-0.470496928686224,0.676920573332903,0
2.67999839782715,-2.00940489768982,2.23155164718628,2.13669776916504,-1.7277634747138,2.22240802539167,2.21242498581764,1274.229,1330.182,3178.346,3193.388,-0.08036675,0.03613893,0.07070801,-1.07231831550598,-0.445436030626297,0.687617480754852,-1.09109911135695,-0.469469465836558,0.675442326188514,0
2.69999885559082,-2.03079438209534,2.22265458106995,2.15043973922729,-1.74955976015262,2.21302969268507,2.22591792480533,1273.761,1328.895,3174.008,3190.097,-0.07919176,0.03634629,0.06968287,-1.06948661804199,-0.444854319095612,0.687101244926453,-1.08843331936148,-0.468322450014513,0.673792073954033,0
2.71999931335449,-2.05212306976318,2.2137713432312,2.16416835784912,-1.77129995841443,2.20367549272384,2.23937614315866,1274.019,1327.605,3170.402,3185.44,-0.07797736,0.03656767,0.06864078,-1.06642627716064,-0.444150358438492,0.686431050300598,-1.08549070267236,-0.467056324260381,0.6719704540472,0
2.73999977111816,-2.07338571548462,2.20490479469299,2.17788052558899,-1.79297854407892,2.19434780294198,2.25279622037922,1271.936,1326.075,3167.416,3182.563,-0.07673206,0.03679937,0.06759271,-1.06313538551331,-0.443321973085403,0.685604512691498,-1.08227239935447,-0.465671578251677,0.669978170984375,0
2.76000022888184,-2.09457802772522,2.19605755805969,2.19157242774963,-1.81459001557147,2.18504899051335,2.26617475073026,1270.647,1324.275,3164.18,3179.185,-0.07544629,0.03704458,0.06653311,-1.05961358547211,-0.442365974187851,0.684599757194519,-1.07877965586273,-0.46416874830314,0.667815996380545,0
2.78000068664551,-2.1156952381134,2.18723201751709,2.20524072647095,-1.83612889733108,2.17578141141889,2.27950834457869,1270.415,1322.483,3160.52,3175.104,-0.07411844,0.03730469,0.06545809,-1.05586087703705,-0.441278368234634,0.683417856693268,-1.07501382704219,-0.462548417366737,0.665484768949324,0
2.80000114440918,-2.13673281669617,2.17843103408813,2.21888208389282,-1.85758974197822,2.16654740951382,2.29279362973707,1270.122,1320.645,3156.825,3171.124,-0.0727549,0.03757899,0.06436881,-1.05187726020813,-0.440055787563324,0.682068765163422,-1.07097637612794,-0.460811215031656,0.662985394502945,0
2.81999778747559,-2.15768575668335,2.1696572303772,2.23249316215515,-1.87896306346215,2.15735106638076,2.30602473388812,1269.36,1318.681,3153.218,3167.542,-0.07135993,0.03786675,0.06326538,-1.04766273498535,-0.438696086406708,0.680555939674377,-1.06666972196052,-0.458958182057406,0.660319370418926,0
2.83999824523926,-2.17855000495911,2.16091322898865,2.24607110023499,-1.90025163276617,2.14819118974301,2.3192033724025,1267.85,1316.529,3150.256,3164.081,-0.06993088,0.03816766,0.06214742,-1.04321813583374,-0.437198728322983,0.678891360759735,-1.06209390114388,-0.456989334193641,0.657486719356853,0
2.85999870300293,-2.19932079315186,2.15220212936401,2.25961184501648,-1.92144601460316,2.13907183934104,2.33232370438801,1268.093,1314.495,3145.884,3160.017,-0.06846561,0.03848517,0.06100652,-1.03854012489319,-0.435559868812561,0.677034080028534,-1.05725149792792,-0.454905783370899,0.65448904109052,0
2.8799991607666,-2.21999335289001,2.14352655410767,2.27311253547668,-1.94254089599063,2.12999530120277,2.34538244085541,1268.721,1312.49,3142.131,3154.989,-0.06697424,0.03881777,0.05984247,-1.03363084793091,-0.433779448270798,0.675029277801514,-1.05214440908742,-0.452708345718374,0.651327509813868,0
2.89999961853027,-2.24056339263916,2.13488936424255,2.28657007217407,-1.9635310029664,2.1209638445668,2.35837631697087,1267.323,1310.339,3138.908,3151.427,-0.06546476,0.03916239,0.05866448,-1.02848875522614,-0.431858509778976,0.672875225543976,-1.04677463978721,-0.450397884002483,0.648003366819456,0
2.92000007629395,-2.26102542877197,2.12629318237305,2.29998111724854,-1.98441110275638,2.11197972094963,2.37130209339796,1266.339,1307.972,3135.623,3147.509,-0.06392812,0.03952009,0.05746888,-1.02311384677887,-0.429797649383545,0.670555293560028,-1.04114430358224,-0.447975307626868,0.644517920498472,0
2.94000053405762,-2.28137564659119,2.11774158477783,2.31334233283997,-2.00517600594252,2.10304516321287,2.3841565576397,1266.437,1305.65,3131.916,3142.799,-0.06236271,0.03989201,0.05625281,-1.01750576496124,-0.427596479654312,0.668065249919891,-1.03525562241752,-0.445441572632395,0.640872546340724,0
2.96000099182129,-2.30160927772522,2.10923647880554,2.32665038108826,-2.0258205686306,2.0941623846305,2.39693652538051,1266.436,1303.338,3127.861,3138.487,-0.06077547,0.04027667,0.0550176,-1.01166439056396,-0.425254374742508,0.665407061576843,-1.02911092662815,-0.442797681697156,0.63706868693465,0
2.9799976348877,-2.32172107696533,2.10078096389771,2.33990240097046,-2.04633579327653,2.08533525659438,2.40963642671202,1266.22,1300.964,3124.206,3133.986,-0.05917118,0.04067251,0.05376333,-1.00559115409851,-0.422772943973541,0.662598371505737,-1.0227138993024,-0.44004521955114,0.633108622287341,0
2.99999809265137,-2.34170699119568,2.09237766265869,2.35309529304504,-2.06672446158539,2.07656258221453,2.42225798364216,1264.614,1298.488,3121.022,3130.315,-0.05754878,0.04107852,0.05249346,-0.999286293983459,-0.420154482126236,0.659640848636627,-1.01606464645845,-0.437184231811008,0.628992418029098,0
3.01999855041504,-2.36156153678894,2.08402991294861,2.36622524261475,-2.08697765348254,2.06784819954987,2.43479567421983,1265.098,1296.083,3116.507,3125.679,-0.05590454,0.04149733,0.05119827,-0.992748558521271,-0.417398929595947,0.656495273113251,-1.00916701981882,-0.434216375765357,0.624722458559645,0
3.03999900817871,-2.38128137588501,2.07573962211609,2.37928938865662,-2.1070904288371,2.05919423420069,2.44724644026866,1265.976,1293.833,3112.455,3120.125,-0.05424912,0.04192713,0.04987868,-0.985980093479156,-0.414508581161499,0.65320485830307,-1.00202378325828,-0.431142840632279,0.62030045484912,0
3.05999946594238,-2.40086078643799,2.06750988960266,2.39228487014771,-2.12705790388088,2.05060278751603,2.4596072585035,1264.467,1291.489,3109.122,3116.179,-0.05259104,0.04236362,0.04854588,-0.978980958461761,-0.411487519741058,0.649774312973022,-0.994637809041649,-0.427964862267096,0.615728184966283,0
3.07999992370605,-2.42029595375061,2.0593433380127,2.40520834922791,-2.1468752533762,2.04207593566084,2.47187514187237,1263.404,1288.955,3105.55,3111.989,-0.05092124,0.04280822,0.04719646,-0.971752226352692,-0.40833905339241,0.64617782831192,-0.987012077823862,-0.42468372316235,0.61100749407852,0
3.10000038146973,-2.43958187103271,2.0512421131134,2.41805672645569,-2.1665377127838,2.03361572868328,2.48404714089851,1263.436,1286.506,3101.572,3106.98,-0.04923705,0.04326129,0.04582707,-0.964295446872711,-0.405065327882767,0.642415285110474,-0.979149678649927,-0.42130075244781,0.60614029445184,0
3.1200008392334,-2.45871376991272,2.04320883750916,2.43082666397095,-2.18604058043065,2.02522418958188,2.49612034502233,1263.456,1284.144,3097.493,3101.987,-0.04754382,0.04372114,0.0444405,-0.956611812114716,-0.401668637990952,0.638495326042175,-0.971053808954926,-0.417817325890466,0.60112856545088,0
3.14000129699707,-2.47768783569336,2.03524589538574,2.44351506233215,-2.2053792196778,2.01690331337287,2.50809188394346,1263.007,1281.764,3093.425,3097.407,-0.04584792,0.04418591,0.04303933,-0.948703110218048,-0.398152023553848,0.634420216083527,-0.962727774564037,-0.41423486589454,0.595974353538898,0
3.15999794006348,-2.49649953842163,2.0273551940918,2.45611906051636,-2.22454542119638,2.00865663230111,2.51995667569625,1262.21,1279.364,3089.514,3092.954,-0.04414988,0.04465481,0.04162367,-0.940571904182434,-0.394519507884979,0.630194187164307,-0.954176642367246,-0.410555552601238,0.590680795362169,0
3.17999839782715,-2.51514387130737,2.01953983306885,2.46863555908203,-2.24354199818069,2.00048293592768,2.53171646178199,1260.655,1276.951,3086.11,3088.642,-0.04244653,0.04512692,0.04019518,-0.932220995426178,-0.390775322914124,0.625825464725494,-0.945400671854024,-0.406779497661632,0.585248051557035,0
3.19999885559082,-2.53361678123474,2.01180148124695,2.48106098175049,-2.26236084956923,1.99238570991304,2.54336622725771,1260.978,1274.637,3081.141,3083.834,-0.04073518,0.04560426,0.03874661,-0.923650681972504,-0.386921256780624,0.621268212795258,-0.936405103758047,-0.402908956017012,0.579679366387291,0
3.21999931335449,-2.55191397666931,2.00414204597473,2.49339246749878,-2.28099762052367,1.98436682802245,2.55490327627103,1261.782,1272.507,3077.004,3077.698,-0.0390265,0.04608481,0.03727984,-0.914865016937256,-0.382961481809616,0.616580486297607,-0.927193677444144,-0.398945536611599,0.573977054697898,0
3.23999977111816,-2.57003116607666,1.99656414985657,2.50562763214111,-2.29944803207863,1.97642813137517,2.56632495993854,1259.773,1270.362,3073.308,3073.813,-0.03733059,0.04656377,0.03580897,-0.905865490436554,-0.378901064395905,0.611754238605499,-0.917770240667228,-0.394890895026838,0.568143498432441,0
3.26000022888184,-2.58796405792236,1.98906922340393,2.5177628993988,-2.31770788330949,1.96857142751172,2.57762867768778,1258.449,1267.984,3069.427,3069.493,-0.03563576,0.04704284,0.03432876,-0.896656334400177,-0.374744951725006,0.606768548488617,-0.908138749572296,-0.390746733481401,0.562181146633132,0
3.28000068664551,-2.60570907592773,1.98165941238403,2.5297954082489,-2.33577305350028,1.96079848946105,2.58881187859927,1258.237,1265.771,3065.323,3064.135,-0.03393932,0.04752231,0.03283693,-0.88724148273468,-0.37049674987793,0.601630032062531,-0.898303268694425,-0.386514800831178,0.556092515440801,0
3.30000114440918,-2.62326121330261,1.97433626651764,2.54172229766846,-2.35363950431151,1.95311105480783,2.59987206274851,1257.551,1263.658,3060.962,3059.432,-0.03224662,0.04800051,0.03133814,-0.877623677253723,-0.366159558296204,0.59633880853653,-0.888267970958776,-0.382196892569291,0.54988018809491,0
3.31999778747559,-2.64061737060547,1.96710157394409,2.55354022979736,-2.37129993249841,1.94551226593426,2.61080470907906,1257.018,1261.531,3056.692,3054.507,-0.03056031,0.04847658,0.02983243,-0.867807269096375,-0.361737251281738,0.590902805328369,-0.87803910737898,-0.377795698332271,0.54354803427067,0
3.33999824523926,-2.65777349472046,1.95995664596558,2.56524682044983,-2.38875720963391,1.93800088728271,2.62161159523137,1255.249,1259.445,3052.869,3050.293,-0.02888092,0.04894855,0.02832412,-0.857796669006348,-0.357234299182892,0.585333585739136,-0.8676171642955,-0.373311427378832,0.537096355035999,0
3.35999870300293,-2.67472529411316,1.9529036283493,2.57683873176575,-2.40600416902084,1.93058000248278,2.63228828467848,1254.842,1257.371,3048.188,3045.521,-0.02720579,0.04941849,0.02680752,-0.847595691680908,-0.352653980255127,0.579601109027863,-0.857008572601967,-0.368746846742847,0.530529131420399,0
3.3799991607666,-2.69146919250488,1.94594359397888,2.58831357955933,-2.42303712348661,1.92325119802182,2.64283249488494,1254.804,1255.486,3043.829,3040.007,-0.02554025,0.04988502,0.02528391,-0.837208926677704,-0.348000198602676,0.573737919330597,-0.846217938763199,-0.364103938457435,0.523849215045027,0
3.39999961853027,-2.70800232887268,1.93907833099365,2.59966850280762,-2.43985247907395,1.91601602027924,2.65324200101997,1253.114,1253.648,3039.837,3035.706,-0.02389122,0.05034497,0.02376221,-0.826640427112579,-0.3432776927948,0.56774640083313,-0.8352499776341,-0.359384731192945,0.517059524629672,0
3.42000007629395,-2.72432017326355,1.93230867385864,2.61090087890625,-2.45644673720879,1.90887597459372,2.66351463729957,1251.476,1251.671,3035.803,3031.469,-0.02225231,0.05079966,0.02224123,-0.815895915031433,-0.338491082191467,0.561613798141479,-0.824109512459656,-0.354591300256948,0.51016304599274,0
3.44000053405762,-2.74041986465454,1.92563569545746,2.62200784683228,-2.47281649686807,1.90183252433048,2.67364829832846,1250.851,1249.783,3031.638,3026.312,-0.02061926,0.05124918,0.02071905,-0.80498069524765,-0.333644092082977,0.555343568325043,-0.81280147487493,-0.349725767594239,0.503162832051264,0
3.46000099182129,-2.75629758834839,1.91906082630157,2.63298654556274,-2.48895845674764,1.89488708994845,2.6836409404421,1249.992,1248.005,3027.323,3021.508,-0.0189958,0.05169196,0.01920042,-0.793899357318878,-0.328739613294601,0.548938572406769,-0.801330904905081,-0.344790301786839,0.496062002820904,0
3.4799976348877,-2.7719509601593,1.91258537769318,2.64383459091187,-2.50486640494811,1.88804234425441,2.69348871817885,1249.137,1246.2,3022.916,3016.883,-0.01738565,0.05212758,0.01768674,-0.782657504081726,-0.323780924081802,0.542400479316711,-0.78970518344449,-0.339788078627405,0.488865127426884,0
3.49999809265137,-2.78737592697144,1.90620994567871,2.65454959869385,-2.52054331600794,1.88129700738756,2.70319347291972,1247.366,1244.434,3018.926,3012.771,-0.01578935,0.05255492,0.01618045,-0.77126133441925,-0.318771809339523,0.535745561122894,-0.777925130847354,-0.334719451091428,0.481572713707531,0
3.51999855041504,-2.80257058143616,1.8999354839325,2.66512870788574,-2.53598314392723,1.87465368077274,2.71275146190277,1246.716,1242.687,3014.326,3008.151,-0.01420424,0.05297541,0.01467701,-0.75971657037735,-0.313715398311615,0.528952121734619,-0.765998315247401,-0.329587675535422,0.474189446698144,0
3.53999900817871,-2.8175311088562,1.89376306533813,2.67556977272034,-2.55118300793501,1.86811360392524,2.72216090179351,1245.983,1241.12,3010.208,3003.116,-0.01263457,0.05338772,0.01317919,-0.748028993606567,-0.308615237474442,0.522051513195038,-0.753930210209441,-0.324395107081412,0.466718714796081,0
3.55999946594238,-2.83225512504578,1.88769364356995,2.68587040901184,-2.56614013781799,1.86167796879043,2.73142007769798,1244.181,1239.562,3006.115,2999.132,-0.01108301,0.053791,0.01169293,-0.736204147338867,-0.303474992513657,0.515034019947052,-0.741726397688367,-0.319144147488645,0.459163973497326,0
3.57999992370605,-2.84673976898193,1.88172769546509,2.69602847099304,-2.58085187608849,1.85534791881102,2.74052734450471,1243.047,1237.915,3002.014,2994.64,-0.009545302,0.05418573,0.01021581,-0.724248945713043,-0.298298269510269,0.507898390293121,-0.729392568029152,-0.313837245153596,0.451528745396486,0
3.60000038146973,-2.86098337173462,1.87586605548859,2.70604157447815,-2.59531568015226,1.84912454799428,2.74948112822672,1242.134,1236.383,2997.88,2989.965,-0.008021441,0.05457182,0.008749671,-0.712169408798218,-0.293087929487228,0.500651597976685,-0.716934519966857,-0.308476895109962,0.443816620186799,0
3.6200008392334,-2.8749828338623,1.87010908126831,2.71590757369995,-2.60952912447633,1.8430088999793,2.75827992734356,1240.879,1234.866,2993.704,2985.767,-0.006514625,0.05494859,0.007297512,-0.699971795082092,-0.287846744060516,0.493295103311539,-0.704358160626623,-0.303065639028664,0.436031254660117,0
3.6399974822998,-2.88873600959778,1.86445724964142,2.72562432289124,-2.62348726424244,1.83700310238323,2.76692068077719,1239.891,1233.347,2989.622,2981.326,-0.00502432,0.05531575,0.005859282,-0.687662899494171,-0.282577604055405,0.485835403203964,-0.691671935956746,-0.297607110965304,0.428177877260776,0
3.65999794006348,-2.90224075317383,1.85891163349152,2.73518991470337,-2.6371932403809,1.83110580375149,2.77540533291308,1238.244,1231.899,2985.793,2977.319,-0.003550526,0.05567301,0.004438399,-0.675249338150024,-0.277283310890198,0.478281825780869,-0.67887712865581,-0.292101862829246,0.420257282040303,0
3.67999839782715,-2.9154953956604,1.85347270965576,2.74460220336914,-2.65064230460817,1.82531904713786,2.78373094433754,1237.637,1230.383,2981.24,2973.169,-0.002092712,0.05602105,0.003030888,-0.662738025188446,-0.271966248750687,0.470611870288849,-0.665982380593835,-0.286553612975735,0.412274818727906,0
3.69999885559082,-2.92849826812744,1.84813976287842,2.7538595199585,-2.66383252129072,1.81964366539135,2.79189631680119,1237.234,1229.053,2977.232,2968.329,-0.0006562029,0.05635986,0.0016377,-0.650135278701782,-0.266629099845886,0.462864547967911,-0.652994032435616,-0.280965089615694,0.404234412497143,0
3.71999931335449,-2.94124722480774,1.84291434288025,2.76296043395996,-2.67676208269516,1.81408043632915,2.79990033123096,1235.099,1227.807,2973.684,2964.743,0.0007547081,0.05668718,0.0002677958,-0.637447595596313,-0.261274963617325,0.455041825771332,-0.639918533236037,-0.275339067597273,0.396140055620198,0
3.73999977111816,-2.95374083518982,1.83779621124268,2.77190279960632,-2.68942931115605,1.80863008180382,2.80774194907203,1233.562,1226.334,2969.74,2961.225,0.002147548,0.05700484,-0.001082309,-0.624683141708374,-0.255907207727432,0.447119176387787,-0.626762440440059,-0.269678368405848,0.387995807467879,0
3.76000022888184,-2.96597814559937,1.83278548717499,2.78068518638611,-2.7018326612438,1.80329326677055,2.81542021362985,1233.41,1224.982,2965.875,2956.355,0.003525246,0.05731364,-0.00241602,-0.611848771572113,-0.25052797794342,0.439117878675461,-0.613532419882738,-0.263985860164019,0.379805794509619,0
3.78000068664551,-2.97795701026917,1.82788300514221,2.78930592536926,-2.71397072193249,1.79807059835436,2.82293425141216,1232.222,1223.782,2961.984,2952.576,0.004879004,0.05761181,-0.003725762,-0.598950386047363,-0.24513903260231,0.431042343378067,-0.600235245789196,-0.258264457631606,0.371574210313472,0
3.79999732971191,-2.98967695236206,1.8230881690979,2.79776382446289,-2.72583998000171,1.79296358819586,2.83028188756818,1231.313,1222.431,2958.07,2948.834,0.006208701,0.05789974,-0.005013134,-0.58599579334259,-0.239743113517761,0.422890692949295,-0.586880353750828,-0.252518220679987,0.363306895959991,0
3.81999778747559,-3.00113677978516,1.81840109825134,2.80605745315552,-2.73744382842632,1.78797077639275,2.83746522251097,1229.993,1221.206,2954.711,2944.995,0.007514343,0.05817704,-0.00627494,-0.572992086410522,-0.234342813491821,0.414686799049377,-0.573469638309223,-0.246747964477482,0.355005024260668,0
3.83999824523926,-3.01233577728271,1.8138222694397,2.81418561935425,-2.74877898265085,1.78309357619748,2.84448222294423,1228.969,1219.936,2950.842,2941.527,0.008796482,0.05844443,-0.00751331,-0.559946954250336,-0.228940635919571,0.406406581401825,-0.560012740982885,-0.240957837500146,0.346674563774748,0
3.85999870300293,-3.02327299118042,1.8093513250351,2.82214713096619,-2.75984459091511,1.77833235409867,2.85133236158783,1228.685,1218.713,2947.204,2937.289,0.01005441,0.05870207,-0.008728244,-0.546867370605469,-0.223538905382156,0.398072868585587,-0.546516869536602,-0.235150941047811,0.338319976451988,0
3.8799991607666,-3.03394842147827,1.80498862266541,2.82994103431702,-2.77063994670143,1.77368741409115,2.85801520107368,1227.507,1217.616,2943.745,2933.817,0.01128198,0.0589487,-0.009914416,-0.533760130405426,-0.218139976263046,0.389692485332489,-0.532989340125247,-0.229330423057526,0.32994579134077,0
3.89999961853027,-3.04436111450195,1.80073392391205,2.83756613731384,-2.78116449090252,1.76915899674315,2.86453039528771,1226.237,1216.403,2940.318,2930.661,0.01248062,0.05918466,-0.01107236,-0.520633339881897,-0.212746828794479,0.381261050701141,-0.519437577293778,-0.223499478103569,0.321556604588101,0
3.92000007629395,-3.05451059341431,1.79658651351929,2.84502196311951,-2.79141781398929,1.76474727826359,2.87087769071194,1225.664,1215.229,2936.967,2926.899,0.01365257,0.05941077,-0.01220367,-0.507494688034058,-0.207361996173859,0.372786939144135,-0.50586911397723,-0.21766134739744,0.313157079439616,0
