t,x_s1,x_s2,x_s3,x_s_d1,x_s_d2,x_s_d3,propellers_rpms1,propellers_rpms2,propellers_rpms3,propellers_rpms4,rollRad,pitchRad,yawRad,v_s1,v_s2,v_s3,v_s_d1,v_s_d2,v_s_d3,insideCount
0,-0.0599999986588955,2.94000005722046,1.17999994754791,-0.0599999986588955,2.94000005722046,1.17999994754791,0,0,0,0,0,45.0048027038574,0,0,0,0,-1.06581410364015E-15,4.44089209850063E-16,-7.105427357601E-16,0
0.0200004577636719,-0.0599999986588955,2.94000005722046,1.1790189743042,-0.0600018691155303,2.93999925241522,1.18000109018068,0,0,0,0,0.00112506025470793,44.8630180358887,0.909283995628357,-3.60929135467813E-08,2.95208444356376E-08,-0.0490499772131443,-0.000279999361409376,-0.000120475902936966,0.000171047240579747,5
0.0400009155273438,-0.0599999986588955,2.94000005722046,1.17411398887634,-0.0600148724204753,2.93999365745638,1.18000903369676,0,0,0,0,0.00304076820611954,44.7212371826172,1.81856417655945,-3.62307304158094E-08,2.93641413406931E-08,-0.245249927043915,-0.00111101934050116,-0.00047804058392963,0.000678704377995865,6
0.05999755859375,-0.0600350871682167,2.94003486633301,1.16684293746948,-0.0600498857373401,2.93997859220429,1.18003042278566,2307.06,2000.226,2127.687,3382.348,-0.00213774247094989,44.8046226501465,1.28310775756836,-0.00175438949372619,0.00174321210943162,-0.363554894924164,-0.00247936261166862,-0.00106680046642749,0.00151460392977639,6
0.0799980163574219,-0.0601342283189297,2.9401330947876,1.15967178344727,-0.0601175407449857,2.93994948214456,1.1800717521741,2848.214,2759.965,2606.632,2299.082,359.914245605469,44.8777198791504,0.619943559169769,-0.00495704775676131,0.0049134474247694,-0.358559846878052,-0.00437227586895222,-0.00188126815916228,0.00267095510032206,6
0.0999984741210938,-0.0602752901613712,2.94026303291321,1.1533819437027,-0.0602281887669101,2.93990187339187,1.18013934532406,2872.028,2897.541,2627.943,2213.429,359.724700927734,44.9188041687012,0.190224543213844,-0.00705305254086852,0.0064930347725749,-0.314492136240005,-0.00677637982016689,-0.00291568692648091,0.00413958468881675,5
0.119998931884766,-0.0604444555938244,2.94038772583008,1.14806056022644,-0.0603919230601972,2.93983142309968,1.18023936804881,2725.793,2926.58,2634.734,2219.36,359.427734375,44.9351234436035,0.0502855591475964,-0.0084582082927227,0.00623416760936379,-0.266067951917648,-0.00967861374975049,-0.00416443710735115,0.005912514107932,5
0.139999389648438,-0.0606513507664204,2.94048070907593,1.1437304019928,-0.0606185767455666,2.93973390035084,1.18037782724834,2551.831,2770.004,2667.495,2379.448,359.090698242188,44.947868347168,0.144063279032707,-0.0103446869179606,0.00464876741170883,-0.216507166624069,-0.0130660253322238,-0.00562194567796536,0.00798183098414958,5
0.159999847412109,-0.0609212145209312,2.94052791595459,1.14032292366028,-0.0609177249752248,2.93960518522485,1.18056057223372,2443.385,2553.613,2687.129,2529.335,358.804504394531,44.9652938842773,0.340537250041962,-0.0134932175278664,0.00235702539794147,-0.170372948050499,-0.0169257706321904,-0.00728268625174051,0.0103396891577615,5
0.180000305175781,-0.0612808503210545,2.94052505493164,1.13772797584534,-0.0612986871007165,2.9394412678651,1.18079329605139,2417.331,2395.046,2654.723,2596.436,358.625610351563,44.9838829040527,0.518684029579163,-0.0179817676544189,-0.000144753139466047,-0.12974938750267,-0.0212451141043368,-0.00914117907931815,0.0129783086828701,5
0.200000762939453,-0.0617486350238323,2.94047331809998,1.13583755493164,-0.0617705288407759,2.93923824754608,1.18108153680744,2450.725,2337.892,2561.851,2580.207,358.551239013672,44.9966087341309,0.617885053157806,-0.0233892425894737,-0.00259062577970326,-0.09452074021101,-0.0260114285934326,-0.0111919910485645,0.0158899758273878,5
0.219997406005859,-0.0623323731124401,2.94037485122681,1.13456833362579,-0.0623419453860714,2.93899238297017,1.18143060625819,2496.964,2359.976,2442.849,2516.205,358.52587890625,44.9992332458496,0.641179621219635,-0.0291868597269058,-0.00492157367989421,-0.0634639859199524,-0.0312111627562649,-0.0134292913950757,0.0190664122872106,5
0.239997863769531,-0.0630333423614502,2.94023036956787,1.13386464118958,-0.0630217183703222,2.93869989564571,1.18184586896662,2511.705,2408.147,2348.461,2446.516,358.476837158203,44.9927215576172,0.627747774124146,-0.0350485667586327,-0.00722948368638754,-0.0351831167936325,-0.0368338920540454,-0.0158485947310391,0.0225012498742643,5
0.259998321533203,-0.0638525262475014,2.94003653526306,1.13368916511536,-0.063818066443955,2.93835724931701,1.18233234557803,2475.441,2437.183,2311.633,2397,358.35595703125,44.9817581176758,0.619206070899963,-0.0409591943025589,-0.00969060324132442,-0.00877211056649685,-0.04286636357961,-0.0184441987007453,0.0261863925943699,4
0.279998779296875,-0.0647952035069466,2.93978667259216,1.13401007652283,-0.0647390625194898,2.93796097043536,1.18289496770872,2398.708,2429.046,2331.171,2372.522,358.162963867188,44.9715042114258,0.638278663158417,-0.0471337549388409,-0.0124884964898229,0.0160478465259075,-0.0492963837173861,-0.0212108567320638,0.0301143915580518,4
0.299999237060547,-0.0658718794584274,2.93947196006775,1.13479292392731,-0.065792536715479,2.93750768991949,1.18353851865591,2313.79,2391.293,2375.445,2363.95,357.940216064453,44.9650001525879,0.68504810333252,-0.0538339577615261,-0.0157369002699852,0.039142582565546,-0.0561118672418845,-0.0241433688900884,0.0342778640896448,4
0.319999694824219,-0.0670958310365677,2.93908333778381,1.13599860668182,-0.0669860785243584,2.93699414222283,1.1842676347221,2254.72,2343.459,2404.449,2358.773,357.744567871094,44.9626884460449,0.74556428194046,-0.0611976683139801,-0.0194299574941397,0.0602819323539734,-0.0633008373176985,-0.0272365818771378,0.0386694937272938,4
0.340000152587891,-0.0684792846441269,2.93861436843872,1.1375857591629,-0.0683270389802989,2.93641716440073,1.18508680653936,2239.458,2303.399,2392.606,2348.371,357.614776611328,44.9632148742676,0.803873121738434,-0.0691728070378304,-0.0234480816870928,0.0793576166033745,-0.0708514254995047,-0.0304853890327553,0.0432820302229541,4
0.360000610351563,-0.0700306966900826,2.93806195259094,1.1395149230957,-0.0698225328270578,2.93577369517774,1.18600038039362,2261.888,2279.322,2340.977,2330.733,357.552368164063,44.9647483825684,0.850467383861542,-0.0775707960128784,-0.0276179704815149,0.0964584797620773,-0.0787518717320621,-0.0338847303337087,0.0481082895423912,4
0.379997253417969,-0.0717544034123421,2.93742609024048,1.14175117015839,-0.0714791088463715,2.935060916796,1.18701235683346,2297.152,2269.408,2273.593,2308.707,357.524810791016,44.9657707214355,0.88453221321106,-0.0861851871013641,-0.0317949578166008,0.111813686788082,-0.0869889214763108,-0.0374289027221294,0.0531401746945263,4
0.399997711181641,-0.0736523941159248,2.93670749664307,1.14426505565643,-0.0733040467096699,2.93427569701629,1.18812718289655,2316.718,2266.062,2221.414,2286.904,357.486907958984,44.965648651123,0.911173939704895,-0.0948996767401695,-0.0359259322285652,0.125693336129189,-0.0955541759940907,-0.0411142924556206,0.058372555021277,4
0.419998168945313,-0.0757269635796547,2.93590617179871,1.14703130722046,-0.0753034649285836,2.93341540321397,1.18934859628618,2304.897,2262.117,2203.474,2268.314,357.407043457031,44.9645919799805,0.936896324157715,-0.103728465735912,-0.0400612764060497,0.138309851288795,-0.104434660908044,-0.0449353170220673,0.0637975046779765,4
0.439998626708984,-0.0779825896024704,2.93501996994019,1.15002763271332,-0.0774835548069347,2.93247737144397,1.19068037917324,2264.438,2253.253,2219.268,2254.361,357.282531738281,44.9632873535156,0.965944468975067,-0.112781383097172,-0.0443138368427753,0.149815008044243,-0.113619049702587,-0.0488871029382406,0.0694081044730023,4
0.459999084472656,-0.0804262235760689,2.93404412269592,1.15323340892792,-0.0798502821969742,2.93145903476675,1.19212617600376,2214.595,2240,2249.676,2243.941,357.138122558594,44.9624557495117,0.998951017856598,-0.122181594371796,-0.0487895123660564,0.160286098718643,-0.123096124252221,-0.0529648233581361,0.075197501428542,4
0.479999542236328,-0.083066001534462,2.93297362327576,1.15662896633148,-0.0824093896672336,2.93035792231548,1.19368949482325,2177.875,2225.496,2270.626,2235.35,357.009155273438,44.962574005127,1.03390061855316,-0.131988778710365,-0.0535276979207993,0.169780001044273,-0.13285477482153,-0.0571636980729742,0.0811589087805935,4
0.5,-0.085909366607666,2.93180394172668,1.16019630432129,-0.085166398670376,2.92917165836334,1.195373708601,2167.909,2212.973,2266.404,2227.406,356.921020507813,44.9636459350586,1.06798624992371,-0.142168238759041,-0.05848328769207,0.178368732333183,-0.142884000065179,-0.0614789935111996,0.0872856059789651,5
0.520000457763672,-0.0889616832137108,2.93053293228149,1.16391909122467,-0.0881266117110474,2.92789796139072,1.19718205655433,2182.743,2204.354,2237.628,2219.447,356.876190185547,44.9653739929199,1.09927296638489,-0.1526158452034,-0.063555471599102,0.186140954494476,-0.153172907027918,-0.0659060227384819,0.0935709386872751,5
0.540000915527344,-0.0922260582447052,2.92916011810303,1.16778314113617,-0.0912951145137283,2.92653464315245,1.19911764547298,2207.735,2199.386,2198.819,2211.695,356.855560302734,44.9672393798828,1.12741661071777,-0.163218781352043,-0.0686438828706741,0.193205147981644,-0.163710711144578,-0.0704401454577151,0.100008318782952,5
0.55999755859375,-0.0957043170928955,2.92768621444702,1.17177641391754,-0.094676112580471,2.92507989413848,1.20118304443252,2224.766,2196.529,2168.999,2204.507,356.830993652344,44.9688453674316,1.15338695049286,-0.173912793397903,-0.0736981183290482,0.199665978550911,-0.17448465888317,-0.0750758741803766,0.106589955332319,5
0.579998016357422,-0.0993984490633011,2.92611145973206,1.17588877677917,-0.0982755538235842,2.92353115512831,1.20338188691976,2222.387,2193.747,2160.791,2198.427,356.781860351563,44.9700317382813,1.17857050895691,-0.184706673026085,-0.0787360221147537,0.205620437860489,-0.185488294752812,-0.0798104312890852,0.113311904776732,5
0.599998474121094,-0.103311702609062,2.92443490028381,1.18011152744293,-0.102097262171133,2.92188678079254,1.2057165089127,2202.389,2190.404,2172.983,2193.222,356.705657958984,44.970874786377,1.20399701595306,-0.195662826299667,-0.0838225483894348,0.21113620698452,-0.196709126405959,-0.0846384416756885,0.120166535736014,5
0.619998931884766,-0.107448756694794,2.92265439033508,1.18443727493286,-0.106145477944935,2.92014494663912,1.20818950075775,2175.014,2185.946,2195.19,2189.354,356.616485595703,44.9717025756836,1.22987365722656,-0.206852868199348,-0.0890263691544533,0.216289445757866,-0.208136802817102,-0.0895554515830839,0.127147524930208,5
0.639999389648438,-0.111814990639687,2.92076683044434,1.1888599395752,-0.110424235525481,2.91830391678686,1.21080332699501,2154.764,2181.454,2212,2186.352,356.536193847656,44.972827911377,1.25556170940399,-0.218312248587608,-0.0943795740604401,0.221132129430771,-0.219761081350814,-0.0945570538913933,0.134248615293163,5
0.659999847412109,-0.116415411233902,2.9187695980072,1.19337427616119,-0.114937365519793,2.91636204303257,1.21356032768253,2150.551,2178.064,2213.435,2183.96,356.481079101563,44.9743766784668,1.28015375137329,-0.230020791292191,-0.0998614728450775,0.225718587636948,-0.231571827761751,-0.0996388881179631,0.141463615972542,5
0.680000305175781,-0.121253728866577,2.91666126251221,1.1979763507843,-0.119688496929273,2.91431776391831,1.21646271972064,2161.896,2176.37,2199.289,2182.081,356.453643798828,44.9762763977051,1.30300974845886,-0.241916000843048,-0.105413399636745,0.230106353759766,-0.243559016194652,-0.104796640417365,0.148786402329814,5
0.700000762939453,-0.126332268118858,2.91444182395935,1.20266330242157,-0.124681059317553,2.91216960379868,1.21951259817624,2180.135,2176.253,2178.24,2180.628,356.442687988281,44.9782600402832,1.32404124736786,-0.253927707672119,-0.110972344875336,0.234349653124809,-0.255712729184339,-0.110026043581393,0.156210915940263,5
0.719997406005859,-0.131652534008026,2.91211175918579,1.20743322372437,-0.129917262555645,2.90991661182791,1.22271131302505,2194.065,2176.978,2162.027,2179.601,356.430877685547,44.9800567626953,1.3436553478241,-0.266013294458389,-0.116503238677979,0.238497942686081,-0.26802079535749,-0.115321860608138,0.163729721501856,5
0.739997863769531,-0.137216001749039,2.90967154502869,1.21228504180908,-0.135402141159277,2.90755662179454,1.22606193977416,2196.004,2177.562,2159.039,2179.062,356.404998779297,44.9815101623535,1.36239957809448,-0.278173834085464,-0.12201301753521,0.242593869566917,-0.280478211503383,-0.120681938755799,0.171339762631236,5
0.759998321533203,-0.143024876713753,2.90712070465088,1.21721827983856,-0.141137563960274,2.90508882959244,1.22956562006379,2187.136,2178.052,2168.306,2178.596,356.362823486328,44.9826431274414,1.38072311878204,-0.290443569421768,-0.127539366483688,0.246661126613617,-0.293073051970232,-0.126101146749576,0.179033754133825,5
0.779998779296875,-0.149082168936729,2.90445828437805,1.22223317623138,-0.147126184485884,2.90251209348295,1.2332239748923,2172.816,2177.76,2184.431,2178.785,356.312377929688,44.9836502075195,1.39874160289764,-0.3028644323349,-0.13312503695488,0.250742316246033,-0.305795832832518,-0.131575403921268,0.186805902427515,5
0.799999237060547,-0.155391320586205,2.90168237686157,1.227330327034,-0.153370467664426,2.8998253528763,1.23703851004595,2162.239,2177.392,2197.596,2179.311,356.267059326172,44.9847564697266,1.41609156131744,-0.315457552671432,-0.138791888952255,0.25485759973526,-0.318637178554805,-0.1371006762399,0.194650480144012,5
0.819999694824219,-0.161955520510674,2.89879179000854,1.23251092433929,-0.159872691993147,2.89702762739878,1.24101061742316,2161.138,2177.595,2201.398,2180.069,356.237274169922,44.9860801696777,1.43228435516357,-0.328210145235062,-0.144529536366463,0.259029656648636,-0.331587821991737,-0.142672976311719,0.202561826128828,5
0.840000152587891,-0.16877718269825,2.89578580856323,1.23777663707733,-0.166634951706069,2.89411801595997,1.2451415763588,2169.677,2178.641,2195.212,2181.119,356.225219726563,44.9875793457031,1.44696021080017,-0.3410824239254,-0.150302961468697,0.26328432559967,-0.344638604388044,-0.148288363380199,0.210534345441289,5
0.860000610351563,-0.175857737660408,2.89266443252563,1.24312949180603,-0.173659158941841,2.89109569582005,1.24943255494854,2182.73,2180.51,2184.184,2182.317,356.224395751953,44.9891090393066,1.46006488800049,-0.35402774810791,-0.156072497367859,0.267640590667725,-0.357780475378537,-0.153942943326036,0.218562509354528,5
0.879997253417969,-0.183198049664497,2.88942813873291,1.24857175350189,-0.180945630646592,2.88796053060595,1.25388374680983,2193.381,2182.795,2175.577,2183.614,356.224243164063,44.9904594421387,1.47185456752777,-0.367015480995178,-0.16181455552578,0.272114753723145,-0.371001963495383,-0.159631780297098,0.226639310127856,5
0.899997711181641,-0.190798863768578,2.88607740402222,1.25410616397858,-0.188498701076517,2.88471065540831,1.25849779967213,2196.492,2184.744,2175.007,2185.153,356.216217041016,44.9915542602539,1.48265469074249,-0.380041718482971,-0.167531251907349,0.276722759008408,-0.384299280991351,-0.165353244531568,0.234762433885595,5
0.919998168945313,-0.198661342263222,2.88261246681213,1.25973534584045,-0.196318384305134,2.8813460641717,1.26327472213274,2193.157,2186.739,2181.458,2186.39,356.198760986328,44.992359161377,1.49276983737946,-0.393123239278793,-0.173244416713715,0.28145956993103,-0.397661187980262,-0.171102499820431,0.242925014356675,5
0.939998626708984,-0.20678699016571,2.8790328502655,1.26546227931976,-0.204405885800988,2.87786623821667,1.26821525059358,2185.775,2187.878,2192.618,2188.088,356.176177978516,44.9930458068848,1.50231730937958,-0.406283438205719,-0.178979933261871,0.286347895860672,-0.411079067636589,-0.176875838584386,0.251121787656841,5
0.959999084472656,-0.215177685022354,2.87533783912659,1.27128994464874,-0.212762239776093,2.87427073255068,1.27332001683864,2180.21,2188.855,2202.234,2189.763,356.156585693359,44.993766784668,1.51105737686157,-0.419533461332321,-0.184751987457275,0.291381537914276,-0.424544411524882,-0.18266959988136,0.259347556115652,5
0.979999542236328,-0.223834931850433,2.87152671813965,1.27722120285034,-0.221388311353785,2.87055917493534,1.27858954935826,2180.156,2190.01,2206.165,2191.485,356.146697998047,44.9945907592773,1.51866626739502,-0.432864218950272,-0.190555214881897,0.296564877033234,-0.438048819599778,-0.188480169406503,0.267597188276474,5
1,-0.232759922742844,2.86759924888611,1.28325915336609,-0.230284798736574,2.86673126495361,1.28402427467346,2185.974,2191.638,2203.757,2193.177,356.148254394531,44.9955215454102,1.5249160528183,-0.446248829364777,-0.196368262171745,0.301899641752243,-0.451584000205995,-0.194303979492187,0.275865618896484,5
1.02000045776367,-0.241953030228615,2.86355590820313,1.28940689563751,-0.239452235373992,2.86278677307706,1.28962451866023,2194.717,2193.657,2197.943,2194.875,356.157623291016,44.9964294433594,1.52978420257568,-0.459655523300171,-0.202166080474854,0.307388991117477,-0.465141770078335,-0.200137509108014,0.28414784894667,5
1.03999710083008,-0.251414269208908,2.85939717292786,1.29566752910614,-0.248889165986195,2.85872632547195,1.29538939231083,2202.207,2195.82,2193.121,2196.544,356.168426513672,44.9972267150879,1.53342688083649,-0.473061144351959,-0.207932516932487,0.313032209873199,-0.478711464817306,-0.205976169660809,0.292437363711796,5
1.05999755859375,-0.261143445968628,2.85512375831604,1.3020441532135,-0.258599401509697,2.85454828239877,1.3013212236669,2204.897,2197.6,2193.198,2198.275,356.175231933594,44.9978294372559,1.5360335111618,-0.486459016799927,-0.213667005300522,0.318828403949738,-0.492290296490434,-0.211818761581115,0.30073246008742,5
1.07999801635742,-0.271140515804291,2.85073614120483,1.30853939056396,-0.268581219802083,2.85025338484727,1.30741896069852,2203.968,2199.561,2196.955,2199.535,356.176910400391,44.9982261657715,1.53782725334167,-0.49985533952713,-0.219381675124168,0.32475945353508,-0.50586781946303,-0.217660790404144,0.309026756998312,5
1.09999847412109,-0.281405746936798,2.84623432159424,1.31515610218048,-0.278834517009062,2.84584167750307,1.31368253996271,2199.915,2200.697,2204.1,2201.128,356.175506591797,44.99853515625,1.53895831108093,-0.513261735439301,-0.225091680884361,0.330837428569794,-0.519436284009554,-0.223498921639497,0.317315520258069,5
1.11999893188477,-0.291939407587051,2.84161829948425,1.32189702987671,-0.289359035362208,2.84131327127672,1.32011180399278,2196.575,2201.594,2210.542,2202.594,356.175933837891,44.9988327026367,1.53927826881409,-0.526683211326599,-0.230806067585945,0.337045758962631,-0.532988048794549,-0.229329867434001,0.325594081894103,5
1.13999938964844,-0.302741646766663,2.8368878364563,1.32876455783844,-0.300154365346813,2.83666834237095,1.32670650262257,2196.374,2202.494,2213.585,2203.976,356.182495117188,44.999195098877,1.53857743740082,-0.540112674236298,-0.236521989107132,0.343377858400345,-0.546515580872639,-0.235150386571708,0.333857840147634,5
1.15999984741211,-0.31381231546402,2.83204340934753,1.33576107025146,-0.311219947869739,2.83190713134792,1.33346629431082,2199.729,2203.613,2212.62,2205.224,356.196624755859,44.9996185302734,1.53670692443848,-0.553531527519226,-0.242226406931877,0.34982630610466,-0.560011455688534,-0.240957284473894,0.34210225947369,6
1.18000030517578,-0.325150668621063,2.82708525657654,1.34288883209229,-0.322555076427271,2.82702994219644,1.34039074746542,2205.073,2204.883,2209.187,2206.42,356.216461181641,45.0000343322754,1.53363764286041,-0.566917538642883,-0.247903034090996,0.356386333703995,-0.573468357077025,-0.246747413199059,0.350322870541114,6
1.19999694824219,-0.336755692958832,2.82201433181763,1.35014975070953,-0.334156660511822,2.8220381046756,1.34747797414352,2209.784,2206.251,2206.064,2207.433,356.238098144531,45.0003700256348,1.5294851064682,-0.580252587795258,-0.253540366888046,0.363047659397125,-0.58687652428584,-0.252516572968185,0.358513710658656,6
1.21999740600586,-0.348626315593719,2.81683158874512,1.35754597187042,-0.346028131869748,2.8169301422008,1.35473007074542,2211.432,2207.167,2205.906,2208.561,356.258117675781,45.0005798339844,1.52435302734375,-0.593529284000397,-0.259136468172073,0.369808346033096,-0.600233974716476,-0.258263910724523,0.366673568687828,6
1.23999786376953,-0.360761225223541,2.81153774261475,1.36507880687714,-0.358166167196084,2.81170748469733,1.36214500711597,2211.299,2208.411,2207.353,2209.117,356.275695800781,45.000659942627,1.51839733123779,-0.606747388839722,-0.264697134494781,0.376642227172852,-0.613531154887641,-0.263985315871967,0.374796608555988,6
1.2599983215332,-0.373159497976303,2.80613303184509,1.37274992465973,-0.370569492049568,2.80637068052165,1.3697220047189,2208.689,2208.91,2211.361,2209.961,356.291534423828,45.0006828308105,1.51178455352783,-0.619911670684814,-0.270230859518051,0.3835588991642,-0.626761182173783,-0.269677827009021,0.382878625774588,6
1.27999877929688,-0.385819911956787,2.80061817169189,1.38056075572968,-0.383236695417198,2.80092033679326,1.37746020158837,2206.14,2209.192,2215.228,2210.629,356.308532714844,45.0006866455078,1.50443768501282,-0.63302344083786,-0.275743156671524,0.390538811683655,-0.639917282339435,-0.275338529371412,0.39091548206889,6
1.29999923706055,-0.398741483688354,2.79499363899231,1.38851225376129,-0.396166231882091,2.79535711846185,1.38535865365334,2205.351,2209.383,2217.079,2211.211,356.329559326172,45.0007476806641,1.49622595310211,-0.646077334880829,-0.281232625246048,0.397573471069336,-0.652992789539212,-0.280964554832093,0.398903105377968,6
1.31999969482422,-0.411922723054886,2.7892599105835,1.39660537242889,-0.409356423791328,2.7896817473746,1.39341633606181,2206.727,2209.608,2216.413,2211.678,356.355743408203,45.0008316040039,1.4870308637619,-0.659060478210449,-0.286691129207611,0.404653310775757,-0.665981146317813,-0.286553081901244,0.406837489854705,6
1.34000015258789,-0.425361841917038,2.78341770172119,1.40484070777893,-0.422805463423808,2.78389500134342,1.40163214450516,2209.451,2209.97,2214.013,2211.964,356.386169433594,45.000919342041,1.47682976722717,-0.671956598758698,-0.292107790708542,0.411767899990082,-0.678875903610019,-0.292101335726266,0.414714695865794,6
1.36000061035156,-0.439056873321533,2.77746820449829,1.41321885585785,-0.436511415158101,2.77799771321212,1.41000489654248,2211.99,2210.356,2211.479,2212.132,356.418640136719,45.0009651184082,1.46570801734924,-0.68475204706192,-0.297474294900894,0.418909966945648,-0.691670720740693,-0.297606588091785,0.422530849991739,6
1.37999725341797,-0.453005641698837,2.77141237258911,1.42174029350281,-0.450469530727146,2.77199192602736,1.41853169153152,2213.041,2210.569,2210.242,2212.252,356.450866699219,45.0009422302246,1.4537810087204,-0.697438836097717,-0.302787661552429,0.426072031259537,-0.704356955827446,-0.303065120637236,0.430280673041441,6
1.39999771118164,-0.467205941677094,2.76525139808655,1.43040525913239,-0.464682951063699,2.76587628833354,1.42721444821907,2211.644,2210.306,2211.431,2212.419,356.481842041016,45.0008583068848,1.4410674571991,-0.710014998912811,-0.30805030465126,0.433246731758118,-0.716933326165324,-0.308476381450513,0.437963381430462,6
1.41999816894531,-0.481655538082123,2.75898599624634,1.43921339511871,-0.47914673136562,2.75965292774086,1.43605014590267,2210.365,2210.528,2212.25,2211.966,356.512756347656,45.0007171630859,1.4276487827301,-0.722480177879333,-0.313266634941101,0.440408140420914,-0.729391385793766,-0.313836736470737,0.445573815653291,6
1.43999862670898,-0.496352195739746,2.7526171207428,1.44816482067108,-0.4938584461112,2.75332288788357,1.44503730286896,2208.164,2210.086,2213.971,2211.874,356.544494628906,45.000560760498,1.41365528106689,-0.734833657741547,-0.318439036607742,0.447569936513901,-0.741725227577294,-0.31914364402254,0.453108367133042,6
1.45999908447266,-0.511293590068817,2.74614572525024,1.45725905895233,-0.508815552717244,2.74688726276417,1.45417436589355,2206.855,2209.534,2214.622,2211.639,356.578796386719,45.0004463195801,1.3989964723587,-0.747070729732513,-0.323566377162933,0.454713135957718,-0.753929052770513,-0.324394609067776,0.460563493506643,6
1.47999954223633,-0.5264772772789,2.73957276344299,1.46649563312531,-0.524015393706918,2.74034719582071,1.4634597115653,2206.739,2208.955,2213.848,2211.299,356.616516113281,45.0003547668457,1.38358211517334,-0.759182751178741,-0.328643649816513,0.461829274892807,-0.76599717101811,-0.329587183205524,0.467935718624829,6
1.5,-0.541900396347046,2.73289942741394,1.47587382793427,-0.539455198877605,2.73370387899399,1.47289164761066,2207.484,2208.422,2211.946,2210.826,356.657348632813,45.0002708435059,1.36736834049225,-0.771158874034882,-0.333664000034332,0.468910068273544,-0.777924000354858,-0.334718964672088,0.475221632552146,6
1.52000045776367,-0.55756014585495,2.72612690925598,1.48539280891418,-0.555132087468752,2.72695855179478,1.48246841421797,2208.295,2207.918,2209.731,2210.234,356.700164794922,45.0001831054688,1.35038089752197,-0.782988727092743,-0.338621467351913,0.475948244333267,-0.789704067205609,-0.339787598340998,0.482417891566952,6
1.53999710083008,-0.573453426361084,2.71925663948059,1.49505150318146,-0.571040013494911,2.72011381564173,1.49218631798906,2208.335,2207.349,2208.117,2209.552,356.743591308594,45.0000457763672,1.33269834518433,-0.794665157794952,-0.343512892723083,0.482937127351761,-0.801329803423436,-0.344789827850059,0.489519872406387,6
1.55999755859375,-0.58957713842392,2.71228981018066,1.50484895706177,-0.587181951496087,2.71316839067337,1.50204717602401,2206.713,2206.337,2208.111,2209.016,356.786956787109,44.9998931884766,1.3143048286438,-0.806184768676758,-0.348338425159454,0.489874660968781,-0.812800388649436,-0.349725300221754,0.496527073925997,6
1.57999801635742,-0.605928063392639,2.70522785186768,1.51478362083435,-0.603551689586986,2.70612494969039,1.51204719357901,2205.736,2205.99,2207.212,2207.769,356.830902099609,44.9996948242188,1.29530298709869,-0.81754457950592,-0.353099435567856,0.496733009815216,-0.824108441976122,-0.354590839657789,0.503434987244577,6
1.59999847412109,-0.622502863407135,2.69807195663452,1.52485430240631,-0.620145926473056,2.69898491314762,1.52218435394475,2203.697,2204.928,2207.358,2207.04,356.875518798828,44.9994964599609,1.2758526802063,-0.828742861747742,-0.357796519994736,0.503533661365509,-0.835248923368005,-0.359384277571697,0.510240533483095,5
1.61999893188477,-0.639298439025879,2.6908233165741,1.53505945205688,-0.636961261140657,2.69174974440622,1.53245657949507,2201.989,2203.803,2207.085,2206.118,356.921752929688,44.9993286132813,1.25589323043823,-0.839775741100311,-0.362428694963455,0.510255396366119,-0.846216901179681,-0.364103492014234,0.516940699976329,5
1.63999938964844,-0.656311213970184,2.68348336219788,1.54539728164673,-0.653994195024907,2.68442094880091,1.54286173301126,2200.811,2202.612,2206.144,2205.144,356.97021484375,44.9991645812988,1.23536133766174,-0.850637793540955,-0.36699315905571,0.516893744468689,-0.857007552155828,-0.368746407673381,0.523532540272869,5
1.65999984741211,-0.67353767156601,2.67605376243591,1.55586612224579,-0.671241134177535,2.67700007270724,1.55339761900642,2200.227,2201.458,2204.433,2204.057,357.021026611328,44.9990272521973,1.21421086788177,-0.861321806907654,-0.371485531330109,0.52344161272049,-0.867616161431205,-0.373310995874343,0.530013174135115,5
1.68000030517578,-0.690974056720734,2.6685357093811,1.56646406650543,-0.688698391434734,2.66948870260877,1.56406198504972,2199.859,2200.284,2202.335,2202.929,357.073699951172,44.9989013671875,1.1924329996109,-0.871820271015167,-0.375901609659195,0.5298952460289,-0.878038122530658,-0.377795274579551,0.536379787539275,5
1.69999694824219,-0.708616495132446,2.6609308719635,1.57718896865845,-0.706358800111611,2.66188992212981,1.57485045312518,2199.18,2199.17,2200.428,2201.631,357.12744140625,44.9987335205078,1.17007982730865,-0.882126748561859,-0.380238145589828,0.536246538162231,-0.888267004546665,-0.382196476749158,0.542628451944297,5
1.71999740600586,-0.726461350917816,2.65324091911316,1.5880389213562,-0.724225231782013,2.65420249571236,1.58576477743246,2197.32,2197.646,2199.644,2200.566,357.181762695313,44.9985847473145,1.14713144302368,-0.892237365245819,-0.384494036436081,0.542499423027039,-0.898302321135456,-0.386514393123025,0.548758870250362,5
1.73999786376953,-0.744504272937775,2.64546751976013,1.59901142120361,-0.742290383213093,2.64642956573347,1.59680049654058,2196.516,2196.818,2197.589,2198.818,357.237091064453,44.9983940124512,1.12368416786194,-0.902148306369781,-0.388668894767761,0.548627376556396,-0.908137821269591,-0.39074633405868,0.554767223802352,5
1.7599983215332,-0.762741386890411,2.63761234283447,1.61010444164276,-0.760550216073323,2.63857286977439,1.60795514349582,2194.557,2195.357,2196.695,2197.584,357.292907714844,44.9982070922852,1.09991037845612,-0.911857068538666,-0.392762005329132,0.554653227329254,-0.917769332013572,-0.394890504058555,0.560650963419089,4
1.77999877929688,-0.781168639659882,2.62967681884766,1.62131559848785,-0.779000609654483,2.63063418086074,1.61922620102184,2192.571,2193.785,2195.796,2196.251,357.349639892578,44.9980392456055,1.07575368881226,-0.921361088752747,-0.396772742271423,0.560560166835785,-0.927192788821983,-0.398945154262308,0.566407606133204,4
1.79999923706055,-0.799781680107117,2.62166285514832,1.63264238834381,-0.79763736303951,2.62261530652977,1.63061110284395,2190.731,2192.203,2194.693,2194.817,357.407806396484,44.9978904724121,1.05115580558777,-0.930657088756561,-0.400699645280838,0.566342532634735,-0.936404235539493,-0.402908582446823,0.572034735191139,4
1.81999969482422,-0.818576514720917,2.6135721206665,1.64408230781555,-0.816456197270346,2.61451808789761,1.64210723501345,2189.301,2190.632,2193.069,2193.332,357.467712402344,44.9977531433105,1.02607643604279,-0.939740538597107,-0.404540479183197,0.57199764251709,-0.945399824400851,-0.406779133026206,0.577530000053147,3
1.84000015258789,-0.837548613548279,2.60540628433228,1.65563273429871,-0.835452757515797,2.60634439872645,1.65371193723192,2188.099,2189.076,2191.113,2191.788,357.529266357422,44.9976196289063,1.00050377845764,-0.948606014251709,-0.408292025327682,0.577521800994873,-0.954175816030892,-0.41055519705179,0.58289111639329,3
1.8599967956543,-0.8566934466362,2.59716725349426,1.66729092597961,-0.854618942724365,2.59809772467243,1.66542026069341,2186.96,2187.573,2188.995,2190.153,357.592163085938,44.9974899291992,0.9744713306427,-0.957248210906982,-0.411951392889023,0.582910895347595,-0.962726969681477,-0.41423451957606,0.588114882720311,0
1.87999725341797,-0.876006782054901,2.5888569355011,1.67905426025391,-0.873957566090845,2.58977685529642,1.67723392393473,2184.962,2185.706,2187.705,2188.753,357.655975341797,44.9973602294922,0.947935283184052,-0.965663254261017,-0.41551661491394,0.588169157505035,-0.971053025860989,-0.417816988947023,0.593201140514831,0
1.89999771118164,-0.895483791828156,2.58047723770142,1.69091963768005,-0.893460418296025,2.58138532283915,1.68914791201086,2184.308,2184.591,2184.906,2186.652,357.720977783203,44.9972076416016,0.920997321605682,-0.973846912384033,-0.418986469507217,0.593271255493164,-0.979148917665041,-0.421300425017273,0.598146794484026,0
1.91999816894531,-0.915119588375092,2.57203006744385,1.70288455486298,-0.913122862707269,2.57292512231409,1.7011593924753,2182.383,2182.855,2183.39,2185.128,357.786224365234,44.9970626831055,0.893829107284546,-0.981796562671661,-0.422359466552734,0.598243892192841,-0.987011339258123,-0.424683405378145,0.60294982514457,0
1.93999862670898,-0.93490993976593,2.56351733207703,1.71494591236115,-0.932940197657643,2.56439827671719,1.71326549315307,2180.27,2181.081,2182.069,2183.465,357.851928710938,44.9969253540039,0.866399884223938,-0.989510715007782,-0.425635427236557,0.603069484233856,-0.99463709319481,-0.4279645542582,0.607608279226948,0
1.95999908447266,-0.954849600791931,2.55494093894958,1.72710084915161,-0.952907658613767,2.55580683609405,1.72546330346508,2177.998,2179.189,2180.893,2181.843,357.918426513672,44.9967994689941,0.838645756244659,-0.99698793888092,-0.428814053535461,0.6077481508255,-1.00202309041976,-0.431142542523221,0.612120269675456,0
1.97999954223633,-0.974934160709381,2.54630303382874,1.73934626579285,-0.973020420343666,2.54715287660719,1.73774987575242,2176.025,2177.429,2179.366,2180.045,357.986206054688,44.996696472168,0.810526311397552,-1.00422561168671,-0.431894272565842,0.612272560596466,-1.00916635026771,-0.434216087676217,0.616483975648197,0
2,-0.995158493518829,2.53760552406311,1.75167918205261,-0.993273599084619,2.53843849960327,1.75012222660065,2174.347,2175.61,2177.466,2178.32,358.055450439453,44.9965972900391,0.782025754451752,-1.01122009754181,-0.434873908758163,0.61664605140686,-1.01606400046349,-0.437183953857422,0.620697642517089,0
2.01999664306641,-1.0155177116394,2.52885055541992,1.76409637928009,-1.01365835337184,2.52966750931758,1.76257495489689,2172.958,2173.891,2175.224,2176.463,358.126068115234,44.9965019226074,0.753160834312439,-1.01796698570251,-0.437750339508057,0.620862245559692,-1.02271203275434,-0.440044416427654,0.624758821703072,0
2.03999710083008,-1.03600704669952,2.5200400352478,1.77659499645233,-1.03417746715556,2.52083870789413,1.77510976131291,2170.875,2171.808,2173.656,2174.897,358.197692871094,44.9964141845703,0.723865747451782,-1.02446258068085,-0.440521329641342,0.624928772449493,-1.02911032850577,-0.442797424341804,0.628667440734183,0
2.05999755859375,-1.05662095546722,2.51117634773254,1.78917133808136,-1.05482201812353,2.5119559343546,1.78772119534738,2170.325,2170.572,2170.442,2172.536,358.2705078125,44.9962921142578,0.694261193275452,-1.03070294857025,-0.443185359239578,0.628818273544312,-1.03525504859546,-0.445441325732794,0.632421154350513,0
2.07999801635742,-1.07735478878021,2.50226163864136,1.80182254314423,-1.07558691007788,2.50302138145056,1.80040614381254,2168.493,2168.7,2168.503,2170.857,358.343414306641,44.9961814880371,0.664535582065582,-1.03668570518494,-0.445740789175034,0.63256311416626,-1.04114375428791,-0.447975071280863,0.63601847276659,0
2.09999847412109,-1.09820294380188,2.49329781532288,1.8145455121994,-1.09646699912883,2.4940372624541,1.8131614643864,2166.24,2166.697,2167.038,2169.129,358.416320800781,44.9960899353027,0.634625911712646,-1.04241049289703,-0.448187530040741,0.636146903038025,-1.04677411523768,-0.450397658303471,0.63945797241075,0
2.11999893188477,-1.11916053295135,2.48428726196289,1.82733678817749,-1.11745709586255,2.485005810225,1.82598398693703,2163.798,2164.779,2165.778,2167.251,358.489562988281,44.9960060119629,0.604479610919952,-1.04787695407867,-0.450526297092438,0.639564037322998,-1.0521439094894,-0.452708130755304,0.642738295925142,0
2.13999938964844,-1.1402223110199,2.47523212432861,1.84019315242767,-1.138551967509,2.47592927627801,1.83887051484687,2161.482,2162.824,2164.35,2165.427,358.563690185547,44.9959259033203,0.574055910110474,-1.05308413505554,-0.452757030725479,0.642817735671997,-1.05725102347782,-0.454905579228273,0.645858152165725,0
2.15999984741211,-1.16138291358948,2.46613454818726,1.85311126708984,-1.15974634010981,2.46680992985011,1.85181782633704,2159.558,2160.948,2162.501,2163.514,358.639068603516,44.9958648681641,0.543337881565094,-1.05802965164185,-0.454878360033035,0.645903885364532,-1.06209345202774,-0.456989140951513,0.648816316202266,0
2.18000030517578,-1.18263709545135,2.45699667930603,1.8660876750946,-1.18103490068612,2.45765005696766,1.86482267579167,2158.014,2159.12,2160.231,2161.57,358.715728759766,44.9957962036133,0.512354254722595,-1.06271016597748,-0.456888139247894,0.648822546005249,-1.06666929835407,-0.458957999791384,0.651611629318345,0
2.19999694824219,-1.2039794921875,2.44782066345215,1.87911915779114,-1.20240821395574,2.44845371736898,1.8778792993441,2156.603,2157.288,2157.802,2159.635,358.793395996094,44.9957313537598,0.48115074634552,-1.06712210178375,-0.458783894777298,0.651573777198792,-1.07097597819164,-0.460811043810786,0.654242512826705,0
2.21999740600586,-1.22540462017059,2.43860960006714,1.89220237731934,-1.22386905090202,2.43921971877738,1.89098938974483,2154.352,2155.12,2156.219,2157.969,358.87158203125,44.9956817626953,0.449657171964645,-1.07126331329346,-0.460564166307449,0.6541628241539,-1.07501345493598,-0.46254825725983,0.656708944366236,0
2.23999786376953,-1.24690735340118,2.42936491966248,1.90533363819122,-1.24540792547886,2.42995214277345,1.90414715211632,2153.752,2153.686,2152.944,2155.598,358.950561523438,44.99560546875,0.417959570884705,-1.07513177394867,-0.462228298187256,0.656565427780151,-1.07877930973132,-0.464168599372462,0.659009446295705,0
2.2599983215332,-1.26848185062408,2.42008948326111,1.91850984096527,-1.26701939030951,2.42065333321126,1.9173492587411,2151.547,2151.73,2151.271,2153.823,359.029205322266,44.995532989502,0.386203706264496,-1.07872593402863,-0.463775187730789,0.658810794353485,-1.08227207933222,-0.465671440555045,0.661143124741302,0
2.27999877929688,-1.29012274742126,2.41078543663025,1.93172752857208,-1.28869796983554,2.41132564607061,1.93059236468599,2149.221,2149.725,2149.765,2151.976,359.107757568359,44.995475769043,0.354342997074127,-1.08204674720764,-0.465206027030945,0.660884857177734,-1.08549040888332,-0.467056197851165,0.663109152043028,0
2.29999923706055,-1.31182467937469,2.40145492553711,1.94498324394226,-1.31043816248474,2.40197144852433,1.94387310912637,2146.731,2147.738,2148.446,2150.082,359.1865234375,44.995433807373,0.322329729795456,-1.08509469032288,-0.466521501541138,0.662785947322845,-1.08843305191934,-0.468322334941636,0.664906766754694,0
2.31999969482422,-1.33358204364777,2.39210057258606,1.95827353000641,-1.33223444283894,2.39259311800549,1.9571881166705,2144.465,2145.8,2146.893,2148.154,359.266021728516,44.9953994750977,0.290138423442841,-1.08786928653717,-0.467721581459045,0.664513766765594,-1.09109887036509,-0.469469362144493,0.666535273643923,0
2.34000015258789,-1.35538935661316,2.38272428512573,1.97159492969513,-1.35408126380187,2.38319304127467,1.97053399868384,2142.678,2143.88,2144.84,2146.233,359.346618652344,44.9953727722168,0.257762312889099,-1.09036874771118,-0.468805015087128,0.666068971157074,-1.09348683453544,-0.470496836415,0.667994043692144,0
2.3599967956543,-1.37724113464355,2.37332916259766,1.98494386672974,-1.37596887940059,2.37377541175173,1.98390480150359,2141.163,2142.05,2142.509,2144.233,359.428161621094,44.9953384399414,0.22523558139801,-1.09259057044983,-0.469769924879074,0.667449295520782,-1.09559564748259,-0.471404199712748,0.669282284614185,0
2.37999725341797,-1.39913189411163,2.36391687393188,1.9983172416687,-1.39790005743958,2.36433903852774,1.99730221593832,2139.078,2139.782,2140.734,2142.667,359.510314941406,44.9953308105469,0.192444682121277,-1.09453248977661,-0.470614582300186,0.668666243553162,-1.09742530100382,-0.472191448508328,0.67039999139912,0
2.39999771118164,-1.42105567455292,2.35449004173279,2.01171088218689,-1.41986502747765,2.35488812555058,2.01072027337798,2138.578,2138.497,2137.411,2140.073,359.593170166016,44.9952774047852,0.159529641270638,-1.09619271755219,-0.471338242292404,0.669685244560242,-1.09897466165884,-0.47285809511406,0.671346471645978,0
2.41999816894531,-1.44300711154938,2.34505128860474,2.02512192726135,-1.44185817738692,2.34542508756209,2.02415554546122,2136.687,2136.571,2135.399,2138.339,359.675506591797,44.9952239990234,0.126682087779045,-1.09757006168365,-0.471939831972122,0.670549213886261,-1.10024313330221,-0.473403883025206,0.672121361178802,0
2.43999862670898,-1.46498036384583,2.33560299873352,2.0385468006134,-1.46387388420027,2.33595234396796,2.03760459720517,2134.403,2134.525,2133.875,2136.555,359.757293701172,44.9952049255371,0.0938418507575989,-1.09866631031036,-0.47242060303688,0.671239912509918,-1.10123022817855,-0.473828602374257,0.672724362035447,0
2.45999908447266,-1.48697006702423,2.32614731788635,2.05198192596436,-1.48590651627916,2.32647231790489,2.05106398832971,2131.895,2132.539,2132.622,2134.677,359.8388671875,44.995189666748,0.0609366670250893,-1.09948325157166,-0.472782045602798,0.671754002571106,-1.10193556692257,-0.474132089930926,0.673155242467576,0
2.47999954223633,-1.50897073745728,2.3166868686676,2.06542372703552,-1.50795043548148,2.31698743530794,2.06453027458184,2129.477,2130.614,2131.276,2132.776,359.920745849609,44.9951858520508,0.0279300753027201,-1.10002183914185,-0.473025143146515,0.672093033790588,-1.10235887855907,-0.474314229102152,0.673413836940663,0
2.5,-1.5309761762619,2.30722379684448,2.0788688659668,-1.52999999932945,2.30750012397766,2.0780000090599,2127.515,2128.709,2129.467,2130.893,0.00341300596483052,44.995174407959,-0.00519565073773265,-1.10028159618378,-0.473149597644806,0.672258257865906,-1.10250000050292,-0.474374949932098,0.673500046133994,0
2.51999664306641,-1.55298137664795,2.29776072502136,2.09231376647949,-1.55204535801192,2.29801462201262,2.09146717466799,2126.049,2126.979,2127.166,2128.857,0.0869448557496071,44.9951629638672,359.961608886719,-1.10026073455811,-0.47315388917923,0.672245979309082,-1.10235893238473,-0.47431425226183,0.67341386982192,0
2.53999710083008,-1.57498049736023,2.28830003738403,2.1057550907135,-1.57408927882895,2.2885297387209,2.10493346190651,2124.003,2124.788,2125.421,2127.32,0.17096896469593,44.9951667785645,359.928283691406,-1.09995758533478,-0.473036408424377,0.67207133769989,-1.10193567455836,-0.474132136243598,0.673155308220598,0
2.55999755859375,-1.59696793556213,2.27884411811829,2.11918902397156,-1.59612191359838,2.27904971150017,2.11839285467467,2123.756,2123.47,2121.981,2124.818,0.25561797618866,44.9951362609863,359.894927978516,-1.09937107563019,-0.472796469926834,0.671700477600098,-1.10123038958312,-0.473828671822132,0.672724460634977,0
2.57999801635742,-1.61893796920776,2.26939535140991,2.13261246681213,-1.6181376241771,2.2695769662859,2.13184190871882,2122.021,2121.554,2119.934,2123.159,0.339487433433533,44.9951210021973,359.861724853516,-1.09850013256073,-0.472432881593704,0.671174824237823,-1.10024334841354,-0.473403975581601,0.672121492586955,0
2.59999847412109,-1.64088487625122,2.25995635986328,2.14602184295654,-1.64013077892511,2.26011392621545,2.14527718375796,2119.834,2119.637,2118.443,2121.344,0.422438949346542,44.9951095581055,359.828582763672,-1.09734737873077,-0.471947401762009,0.670474350452423,-1.09897493039424,-0.472858210743393,0.671346635812239,0
2.61999893188477,-1.66280341148376,2.25052952766418,2.15941381454468,-1.66209575487342,2.25066301069528,2.1586952448081,2117.355,2117.718,2117.276,2119.55,0.504778981208801,44.9951171875,359.795501708984,-1.09591579437256,-0.471342176198959,0.669601440429688,-1.09742562325992,-0.472191587166126,0.670400188260345,0
2.63999938964844,-1.68468737602234,2.24111723899841,2.17278504371643,-1.68402693989188,2.24122663446822,2.17209266350648,2114.927,2115.814,2116.072,2117.767,0.587084710597992,44.9951362609863,359.762390136719,-1.0942075252533,-0.470618903636932,0.66855663061142,-1.09559602313537,-0.471404361345641,0.669282514094601,0
2.65999984741211,-1.70653188228607,2.2317214012146,2.18613171577454,-1.70591873485703,2.23180720668066,2.18546601943597,2113.02,2114.092,2114.362,2115.83,0.669895768165588,44.9951400756836,359.729248046875,-1.09222304821014,-0.469777822494507,0.667336463928223,-1.09348683453544,-0.470496836414999,0.667994043692144,0
2.67999649047852,-1.72833108901978,2.22234535217285,2.19945073127747,-1.72776139360717,2.22240892083372,2.19880935881846,2111.441,2112.346,2112.323,2113.989,0.7532998919487,44.9951438903809,359.696166992188,-1.08996152877808,-0.468817979097366,0.665947318077087,-1.09109935234628,-0.469469569527535,0.666535568078712,0
2.69999694824219,-1.75007951259613,2.21299052238464,2.21273875236511,-1.74955768413056,2.21303058593937,2.21212437257479,2109.639,2110.233,2110.51,2112.518,0.837092220783234,44.995174407959,359.663024902344,-1.08742201328278,-0.467738002538681,0.664396643638611,-1.08843358680109,-0.468322565086308,0.664907093505606,0
2.71999740600586,-1.77177143096924,2.20365977287292,2.22599172592163,-1.77129788800495,2.2036763835632,2.22540512387247,2109.466,2109.052,2107.216,2110.007,0.921267449855804,44.9951553344727,359.629974365234,-1.08460426330566,-0.466537535190582,0.662651538848877,-1.08549099645889,-0.467056450668518,0.663109510983775,0
2.73999786376953,-1.79340183734894,2.19435548782349,2.23920679092407,-1.79297647980783,2.19434869114016,2.23864823731709,2107.948,2107.229,2105.132,2108.455,1.00445449352264,44.9951438903809,359.59716796875,-1.081507563591,-0.465215355157852,0.660758554935455,-1.08227271937422,-0.465671715947234,0.661143515732969,0
2.7599983215332,-1.81496441364288,2.18508005142212,2.25238084793091,-1.81458795796224,2.18504987584512,2.25185035208115,2105.863,2105.308,2103.736,2106.836,1.08640456199646,44.9951515197754,359.564544677734,-1.07813549041748,-0.46377357840538,0.658697783946991,-1.07878000199166,-0.464168897232749,0.659009869186748,0
2.77999877929688,-1.83645415306091,2.17583560943604,2.26551008224487,-1.83612684690458,2.17578229366013,2.2650081232283,2103.536,2103.579,2102.64,2105.019,1.16741895675659,44.9951820373535,359.532012939453,-1.07449209690094,-0.462214946746826,0.656464815139771,-1.07501419914593,-0.462548577472581,0.656709398992482,0
2.79999923706055,-1.85786592960358,2.16662502288818,2.27859139442444,-1.85758769925251,2.16654828844162,2.27811822303765,2101.151,2101.844,2101.589,2103.311,1.24803984165192,44.9952163696289,359.499633789063,-1.07058012485504,-0.460541635751724,0.654067575931549,-1.07097677406178,-0.460811386251471,0.65424299901135,0
2.81999969482422,-1.8791937828064,2.15744972229004,2.2916214466095,-1.87896509797278,2.15735019098767,2.29117734232814,2099.25,2100.067,2100.089,2101.663,1.32885527610779,44.995246887207,359.467315673828,-1.06640124320984,-0.458754420280457,0.651506543159485,-1.06666929835407,-0.458957999791384,0.651611629318345,0
2.83999633789063,-1.90043306350708,2.14831280708313,2.30459690093994,-1.90024960698239,2.14819206138118,2.30417971674389,2097.843,2098.584,2098.138,2099.739,1.41004061698914,44.9952697753906,359.435119628906,-1.06195569038391,-0.456852942705154,0.648774802684784,-1.06209435025759,-0.456989527434725,0.648816864916866,0
2.8599967956543,-1.92157781124115,2.13921618461609,2.31751489639282,-1.9214439980555,2.13907270700516,2.31712703951851,2096.099,2096.572,2096.483,2098.456,1.49135780334473,44.995304107666,359.402984619141,-1.05724287033081,-0.4548359811306,0.645894408226013,-1.05725197237562,-0.454905987512489,0.645858731832587,0
2.87999725341797,-1.94262313842773,2.13016200065613,2.33037137985229,-1.94253888918396,2.12999616467562,2.3300135793296,2096.159,2095.464,2093.252,2096.066,1.57284557819366,44.9952926635742,359.371063232422,-1.05226409435272,-0.45270362496376,0.642826318740845,-1.05214490868305,-0.452708560680416,0.642738906316949,0
2.89999771118164,-1.9635636806488,2.12115263938904,2.34316372871399,-1.96352900640172,2.1209647036328,2.34283611439361,2094.724,2093.755,2091.348,2094.65,1.65305590629578,44.9953002929688,359.339508056641,-1.04701864719391,-0.45045468211174,0.639618575572968,-1.04677516433438,-0.450398109700476,0.639458613287558,0
2.91999816894531,-1.98439371585846,2.11219120025635,2.3558886051178,-1.98440911693069,2.11198057539494,2.35559144808806,2092.851,2092.041,2090.017,2093.074,1.73178243637085,44.9953384399414,359.308227539063,-1.04151129722595,-0.448091804981232,0.636249482631683,-1.04114485287423,-0.447975543971863,0.636019143875825,0
2.93999862670898,-2.00510883331299,2.10327839851379,2.36854314804077,-2.00517403134858,2.10304601282548,2.36827641027585,2090.767,2090.323,2088.955,2091.532,1.80926144123077,44.9953918457031,359.277160644531,-1.03574657440186,-0.445617944002151,0.632722556591034,-1.03525619623725,-0.445441819530995,0.632421855426973,0
2.95999908447266,-2.02570343017578,2.09441781044006,2.38112378120422,-2.02581860575671,2.0941632292003,2.38088785862954,2088.352,2088.828,2088.22,2089.844,1.88594508171082,44.9954376220703,359.246307373047,-1.02972853183746,-0.443035751581192,0.629035353660583,-1.02911152474823,-0.442797939051516,0.628668171500036,0
2.97999954223633,-2.04617261886597,2.08561062812805,2.39362764358521,-2.04633774394789,2.08533441727499,2.3934226799557,2086.669,2087.225,2086.789,2088.331,1.9625723361969,44.9954872131348,359.215667724609,-1.02345955371857,-0.440346747636795,0.625196754932404,-1.022713277122,-0.440044951844293,0.624759581867857,0
3,-2.06651139259338,2.07685995101929,2.40605163574219,-2.06672639957428,2.07656174835205,2.40587779151916,2085.339,2085.825,2085.054,2086.63,2.03925490379333,44.9955062866211,359.185272216797,-1.01694095134735,-0.437550872564316,0.621200323104858,-1.01606400046349,-0.437183953857422,0.620697642517089,0
3.01999664306641,-2.08671474456787,2.06816673278809,2.41839265823364,-2.08697572864857,2.06784902775215,2.41824779066609,2084.517,2084.251,2082.86,2085.161,2.11581444740295,44.9955406188965,359.155151367188,-1.01017320156097,-0.434647291898727,0.617056906223297,-1.00916768936771,-0.434216663853534,0.616484793683489,0
3.03999710083008,-2.10677766799927,2.05953407287598,2.43064785003662,-2.10708851762775,2.05919505654068,2.43053437959959,2082.894,2082.664,2081.47,2083.74,2.19164633750916,44.9955787658691,359.125274658203,-1.00315761566162,-0.431635856628418,0.612764239311218,-1.00202447609459,-0.431143138740389,0.612121116162586,0
3.05999755859375,-2.12669563293457,2.05096387863159,2.44281411170959,-2.12705600675913,2.05060360379452,2.44273220712343,2082.797,2081.516,2078.772,2081.771,2.26685404777527,44.9955902099609,359.095764160156,-0.99589741230011,-0.428518086671829,0.608309388160706,-0.994638524886308,-0.427965170275055,0.607609153824944,0
3.07999801635742,-2.14646363258362,2.04245781898499,2.45488858222961,-2.14687337079936,2.04207674568107,2.45483832557174,2081.19,2079.936,2077.425,2080.549,2.34029150009155,44.9956359863281,359.066650390625,-0.988394021987915,-0.425294309854507,0.603724181652069,-0.987012816387451,-0.424684040945629,0.602950727499826,0
3.09999847412109,-2.16607642173767,2.03401875495911,2.46686840057373,-2.16653584520328,2.033616532251,2.46684982435823,2079.241,2078.508,2076.553,2079.055,2.41207504272461,44.9956970214844,359.037933349609,-0.980653762817383,-0.421968251466751,0.598988890647888,-0.979150439632689,-0.421301079877433,0.598147724230312,0
3.11999893188477,-2.18552994728088,2.02564811706543,2.47875070571899,-2.18603872829175,2.02522498650551,2.47876383130049,2077.344,2077.056,2075.664,2077.67,2.48267674446106,44.9957542419434,359.009552001953,-0.972681403160095,-0.418542832136154,0.59411233663559,-0.971054592046769,-0.41781766283301,0.593202097273285,0
3.13999938964844,-2.20481967926025,2.01734757423401,2.49053263664246,-2.20537738341953,2.01690410346351,2.49057751394429,2075.515,2075.679,2074.734,2076.272,2.55254054069519,44.9958152770996,358.981506347656,-0.964480876922607,-0.415020167827606,0.589094340801239,-0.962728579444533,-0.414235212212131,0.588115866099442,0
3.15999984741211,-2.2239408493042,2.00911951065063,2.50221133232117,-2.2245472411431,2.00865584922888,2.50228808088789,2074.14,2074.397,2073.406,2074.824,2.62206172943115,44.9958610534668,358.953826904297,-0.956055104732513,-0.411401361227036,0.583935976028442,-0.954175816030892,-0.41055519705179,0.582891116393291,0
3.17999649047852,-2.24288868904114,2.00096583366394,2.51378417015076,-2.2435401949712,2.00048371179835,2.51389058000227,2073.314,2073.084,2071.597,2073.448,2.69126200675964,44.9959030151367,358.926574707031,-0.947405755519867,-0.407686412334442,0.578642010688782,-0.9454015193052,-0.406779862296197,0.577531035443764,0
3.19999694824219,-2.26165962219238,1.9928879737854,2.52524852752686,-2.2623590635174,1.99238647840124,2.5253867331345,2072.121,2071.631,2070.165,2072.279,2.75970721244812,44.9959526062012,358.899627685547,-0.938534557819366,-0.403875112533569,0.573217988014221,-0.936405971974636,-0.402909329586355,0.572035795952272,0
3.21999740600586,-2.28024840354919,1.98488879203796,2.53660154342651,-2.28099585204123,1.98436758895103,2.53677165642235,2072.063,2070.669,2067.82,2070.497,2.8272922039032,44.9959907531738,358.873199462891,-0.929445266723633,-0.399968981742859,0.567646503448486,-0.927194566064376,-0.398945918960059,0.566408691822848,0
3.23999786376953,-2.29865121841431,1.97696959972382,2.54784083366394,-2.29944628156995,1.97642888457015,2.54804273590817,2071.034,2069.315,2066.332,2069.405,2.89301180839539,44.9960403442383,358.847290039063,-0.920139729976654,-0.395968377590179,0.561959862709045,-0.917771149318993,-0.394891285994308,0.560652073582612,0
3.2599983215332,-2.3168637752533,1.96913194656372,2.55896377563477,-2.31770615117141,1.96857217280235,2.55919740530806,2069.417,2068.03,2065.527,2068.181,2.95666337013245,44.9960975646973,358.821868896484,-0.910624623298645,-0.39187678694725,0.556143343448639,-0.908139677873146,-0.390747132903322,0.554768357972493,0
3.27999877929688,-2.33488178253174,1.96137809753418,2.56996774673462,-2.33577134012187,1.96079922667992,2.57023314733618,2067.541,2066.859,2065.02,2066.925,3.01860523223877,44.9961776733398,358.796905517578,-0.900906026363373,-0.387698024511337,0.55020010471344,-0.898304216251578,-0.386515208538549,0.548760027947228,0
3.29999923706055,-2.35270166397095,1.95370936393738,2.58085036277771,-2.35363781007389,1.95311178379095,2.5811474950291,2065.948,2065.69,2064.278,2065.74,3.07943773269653,44.9962501525879,358.772430419922,-0.890989124774933,-0.383435010910034,0.544135391712189,-0.888268937369113,-0.38219730838866,0.542629632675369,0
3.31999969482422,-2.37031888961792,1.94612753391266,2.59160947799683,-2.37130160722417,1.94551154534655,2.59193803307009,2064.675,2064.58,2063.264,2064.556,3.13953566551208,44.9963150024414,358.748443603516,-0.880877733230591,-0.379089325666428,0.537950396537781,-0.878038122530657,-0.377795274579551,0.536379787539275,0
3.33999633789063,-2.38773036003113,1.93863439559937,2.6022424697876,-2.38875555478454,1.93800159931817,2.60260037727124,2064.013,2063.562,2061.736,2063.299,3.19901466369629,44.9963684082031,358.724975585938,-0.870574951171875,-0.374661654233932,0.531645834445953,-0.867618167158097,-0.373311858882592,0.530014399402376,0
3.3599967956543,-2.40493202209473,1.93123126029968,2.61274719238281,-2.40600253440574,1.930580705812,2.61313628798802,2062.976,2062.228,2060.57,2062.481,3.257493019104,44.9964256286621,358.701995849609,-0.860082924365997,-0.370151877403259,0.525236070156097,-0.85700959304645,-0.368747285811601,0.523533787021104,0
3.37999725341797,-2.42192029953003,1.92391991615295,2.6231210231781,-2.42303550945299,1.9232518924954,2.62354146665005,2063.217,2061.506,2058.417,2060.85,3.31491422653198,44.9964637756348,358.679595947266,-0.849406778812408,-0.365561991930008,0.518694758415222,-0.846218976345105,-0.364104384899943,0.516941967662506,0
3.39999771118164,-2.43869113922119,1.91670215129852,2.63336229324341,-2.43985088596004,1.91601670575165,2.63381371775943,2062.338,2060.408,2057.215,2059.985,3.3702232837677,44.9965171813965,358.657836914063,-0.838548362255096,-0.360892295837402,0.512060344219208,-0.835251031898626,-0.359385184813519,0.51024182155155,0
3.41999816894531,-2.45524168014526,1.90957927703857,2.64346861839294,-2.45644516534361,1.90887665092339,2.64395090408624,2061.181,2059.379,2056.433,2058.948,3.42327857017517,44.9965858459473,358.63671875,-0.827515304088593,-0.356146603822708,0.505316615104675,-0.824110582941664,-0.354591760855451,0.503436295127018,0
3.43999862670898,-2.47156763076782,1.90255260467529,2.65343809127808,-2.47281494657125,1.90183319137989,2.6539509479928,2059.597,2058.347,2056.099,2058.034,3.4742443561554,44.9966697692871,358.616149902344,-0.816314041614532,-0.351328730583191,0.498471587896347,-0.812802561098952,-0.34972623496609,0.496528401041508,0
3.45999908447266,-2.48766660690308,1.89562392234802,2.66326856613159,-2.48895692832918,1.89488774758421,2.66381183275806,2058.241,2057.564,2055.614,2056.911,3.52367210388184,44.9967422485352,358.596221923828,-0.804951310157776,-0.346442341804504,0.491521149873734,-0.801332006385299,-0.344790775723006,0.489521218161412,0
3.47999954223633,-2.50353527069092,1.88879418373108,2.67295813560486,-2.50486791119015,1.88804169616054,2.67353160390184,2057.169,2056.584,2054.867,2056.116,3.57194447517395,44.9968185424805,358.576904296875,-0.793431341648102,-0.341489315032959,0.48448047041893,-0.789704067205609,-0.339787598340998,0.482417891566951,0
3.49999618530273,-2.5191707611084,1.88206481933594,2.68250489234924,-2.52054183223243,1.88129764581471,2.68310655767985,2056.555,2055.781,2053.782,2055.122,3.61920666694641,44.996883392334,358.558197021484,-0.781758904457092,-0.336471229791641,0.477341175079346,-0.777926261338517,-0.334719937510192,0.475223013751781,0
3.51999664306641,-2.53456950187683,1.87543678283691,2.69190716743469,-2.53598168290031,1.87465430941181,2.69253852151874,2055.795,2054.807,2052.851,2054.432,3.66524934768677,44.996955871582,358.540069580078,-0.769937098026276,-0.331388622522354,0.470117181539536,-0.765999459475408,-0.329588167864767,0.467937116607681,0
3.53999710083008,-2.54972887039185,1.86891210079193,2.70116305351257,-2.55118156992615,1.86811422266028,2.70182389531326,2056.234,2054.372,2050.997,2053.046,3.70999574661255,44.9969902038574,358.522705078125,-0.757971584796906,-0.326243609189987,0.462788879871368,-0.753931367647136,-0.324395605094516,0.460564907628649,0
3.55999755859375,-2.56464624404907,1.86249113082886,2.71027088165283,-2.56613872308604,1.86167857751006,2.71096098677687,2055.777,2053.447,2049.899,2052.508,3.75243759155273,44.9970474243164,358.506103515625,-0.745864748954773,-0.321036487817764,0.455394685268402,-0.741727567798258,-0.319144650954242,0.45310979673751,0
3.57999801635742,-2.57931852340698,1.85617578029633,2.71922922134399,-2.58085048488145,1.85534851740854,2.71994817248517,2054.796,2052.707,2049.458,2051.7,3.79229521751404,44.9971313476563,358.490264892578,-0.73362523317337,-0.315771371126175,0.44791442155838,-0.72939375026341,-0.313837753835969,0.445575260070899,0
3.59999847412109,-2.59374403953552,1.84996652603149,2.72803640365601,-2.59531431270705,1.84912513636775,2.72878389920025,2053.703,2051.951,2049.192,2051.009,3.82980275154114,44.9972229003906,358.475158691406,-0.72126030921936,-0.310452312231064,0.440358519554138,-0.716935713767317,-0.308477408768949,0.437964839979262,0
3.61999893188477,-2.60791969299316,1.843865275383,2.73669099807739,-2.6095277810186,1.84300947803163,2.73746668519498,2052.409,2051.277,2049.144,2050.354,3.86532545089722,44.9973220825195,358.460723876953,-0.708777070045471,-0.305083036422729,0.432729452848434,-0.704359365424783,-0.303066157419654,0.430282145026854,0
3.63999938964844,-2.6218433380127,1.83787178993225,2.74519157409668,-2.6234885835008,1.83700253474321,2.74599512157732,2051.76,2050.657,2048.572,2049.665,3.89941310882568,44.9974136352539,358.446990966797,-0.69618171453476,-0.299666672945023,0.425029128789902,-0.691670720740692,-0.297606588091786,0.422530849991739,0
3.65999603271484,-2.6355128288269,1.83198773860931,2.75353670120239,-2.63719194552437,1.83110636089208,2.75436629160077,2051.302,2050.28,2047.846,2048.85,3.93209934234619,44.9974784851074,358.434020996094,-0.683479189872742,-0.294204831123352,0.417258858680725,-0.678878353700696,-0.292102389931838,0.414716192587956,0
3.67999649047852,-2.64892625808716,1.82621383666992,2.76172542572021,-2.65064103434641,1.825319593696,2.76258213009327,2050.939,2049.592,2047.071,2048.453,3.96326375007629,44.9975433349609,358.421813964844,-0.670673549175262,-0.288698613643646,0.40943506360054,-0.665983614869008,-0.28655414404986,0.40683899785411,0
3.69999694824219,-2.66208171844482,1.8205509185791,2.76975631713867,-2.66383127580226,1.81964420129024,2.77063984276899,2051.461,2049.237,2045.677,2047.574,3.99272465705872,44.9976005554199,358.410491943359,-0.657771348953247,-0.283150255680084,0.40154093503952,-0.65299527533123,-0.280965624398954,0.398904623909523,0
