t,x_s1,x_s2,x_s3,x_s_d1,x_s_d2,x_s_d3,propellers_rpms1,propellers_rpms2,propellers_rpms3,propellers_rpms4,rollRad,pitchRad,yawRad,v_s1,v_s2,v_s3,v_s_d1,v_s_d2,v_s_d3,insideCount
0,-0.0599999986588955,2.94000005722046,1.17999994754791,-0.0599999986588955,2.94000005722046,1.17999994754791,0,0,0,0,0,0,0,0,0,0,-1.06581410364015E-15,4.44089209850063E-16,4.44089209850063E-16,0
0.019989013671875,-0.0599999986588955,2.94000005722046,1.17811644077301,-0.0600018659130177,2.93999925379318,1.18000110346716,0,0,0,0,-0.01635288,0.0001297794,-0.01587137,-1.10653664009419E-09,-7.76775763711157E-08,-0.0941759571433067,-0.000279680311988734,-0.000120338624884473,0.000173135436141649,5
0.040008544921875,-0.0599999986588955,2.94000005722046,1.17242503166199,-0.060014880898484,2.93999365380853,1.18000916036316,0,0,0,0,-0.03270202,0.0005238493,-0.03175127,-1.08383135799528E-09,-7.60859677484405E-08,-0.284568399190903,-0.00111143977225461,-0.000478221483967637,0.00068803416424398,5
0.05999755859375,-0.0599058866500854,2.93990302085876,1.16596496105194,-0.0600498857373401,2.93997859220429,1.18003083002592,1868.637,3252.903,3183.539,1722.181,-0.04942454,0.000330191,-0.0136961,0.00470551569014788,-0.00484904320910573,-0.32300192117691,-0.00247936261166862,-0.00106680046642749,0.00153484356504269,5
0.08001708984375,-0.0598203726112843,2.93960738182068,1.16000318527222,-0.0601176241590912,2.9399494462538,1.18007276333581,1925.04,2314.229,3252.61,2829.559,-0.07543723,-0.00213692,0.0209493,0.00427562370896339,-0.0147794876247644,-0.298089414834976,-0.00437432711648753,-0.0018821507536715,0.00270791686320324,5
0.100006103515625,-0.0599374510347843,2.93904495239258,1.15498661994934,-0.0602282404704493,2.93990185114529,1.18014124010193,980.3967,1499.072,3914.581,3896.515,-0.1032033,-0.008063519,0.0633103,-0.00585383456200361,-0.0281180813908577,-0.250829696655273,-0.00677739276378709,-0.00291612276782231,0.00419552897277328,4
0.1199951171875,-0.0604638904333115,2.93818354606628,1.15081334114075,-0.0603918861403606,2.93983143898525,1.18024254456713,345.9401,980.0927,4173.463,4613.542,-0.1214396,-0.0154229,0.1040073,-0.0263219550251961,-0.043072085827589,-0.208662584424019,-0.00967801353495435,-0.00416417885169243,0.00599115140585487,4
0.1400146484375,-0.0615637116134167,2.93704128265381,1.1472829580307,-0.0606187761383957,2.93973381455767,1.18038300028418,352.5969,746.9297,3975.605,4855.13,-0.1254029,-0.02116947,0.1351135,-0.0549910292029381,-0.0571186505258083,-0.17651703953743,-0.0130687916036232,-0.00562313592726786,0.00809020455552005,4
0.160003662109375,-0.0633409842848778,2.93568086624146,1.14427471160889,-0.0609177895434042,2.93960515744296,1.18056810382587,821.5118,815.3364,3461.66,4692.52,-0.1184606,-0.02352477,0.1522744,-0.0888637006282806,-0.0680173560976982,-0.150412932038307,-0.0169265510445065,-0.00728302204135792,0.0104783414199936,3
0.17999267578125,-0.0658471435308456,2.9341721534729,1.1418251991272,-0.0612985250199726,2.93944133760391,1.18080379722281,1348.6,1083.1,3007.193,4255.229,-0.1079816,-0.02278068,0.1557798,-0.125308126211166,-0.0754333287477493,-0.122476577758789,-0.0212433804254414,-0.00914043312572283,0.0131506644458931,3
0.20001220703125,-0.0690853521227837,2.93255376815796,1.14006161689758,-0.0617708265342762,2.93923811945689,1.181096174359,1636.082,1380.98,2918.971,3666.343,-0.0998238,-0.02030234,0.1501568,-0.161910444498062,-0.0809188783168793,-0.0881816148757935,-0.0260142813927851,-0.0111932185284278,0.0161040794142088,3
0.220001220703125,-0.0730107501149178,2.93082594871521,1.13903546333313,-0.0623420644491781,2.93899233174064,1.18144979784016,1642.089,1581.349,3147.031,3112.937,-0.09583758,-0.01735422,0.142185,-0.196269989013672,-0.0863880068063736,-0.0513078197836876,-0.03121219533433,-0.0134297356845702,0.019321835755004,3
0.239990234375,-0.0775505974888802,2.92897343635559,1.13863325119019,-0.0630214373585105,2.93870001655724,1.18187036203406,1523.957,1624.043,3418.388,2777.241,-0.09475794,-0.01467775,0.1377293,-0.226992428302765,-0.0926271602511406,-0.0201133508235216,-0.0368316683029241,-0.015847637913056,0.022800557215184,3
0.260009765625,-0.0826395899057388,2.92699217796326,1.13863587379456,-0.0638185570309634,2.93835703823113,1.18236381708338,1438.317,1500.527,3534.023,2744.343,-0.09438775,-0.0125893,0.1393018,-0.254449903964996,-0.0990620627999306,0.000129412859678268,-0.0428699302682246,-0.0184457333472145,0.0265385290140116,3
0.279998779296875,-0.0882454738020897,2.9249005317688,1.1388521194458,-0.0647390625194898,2.93796097043536,1.18293365383054,1401.409,1276.574,3475.268,2977.522,-0.0932101,-0.01110485,0.1456819,-0.280294209718704,-0.104586802423,0.0108132660388947,-0.0492963837173861,-0.0212108567320638,0.030516809833474,3
0.29998779296875,-0.0943713188171387,2.92273235321045,1.13920712471008,-0.0657918945890516,2.93750796620855,1.18358540703494,1350.456,1061.273,3345.752,3324.743,-0.09053522,-0.009935189,0.1533095,-0.306292206048965,-0.108409240841866,0.0177484788000584,-0.0561078595514081,-0.0241416444928383,0.0347334378503248,3
0.32000732421875,-0.101036712527275,2.92052531242371,1.13972544670105,-0.0669865614821475,2.93699393441958,1.18432496275165,1280.033,940.6133,3238.485,3590.915,-0.08597483,-0.008525311,0.1583634,-0.333269864320755,-0.110346347093582,0.0259149447083473,-0.0633036493784043,-0.0272377918282996,0.0391879745362408,3
0.339996337890625,-0.108252286911011,2.91831159591675,1.14046156406403,-0.068326768706371,2.93641728069206,1.18515461486636,1254.095,944.9041,3169.384,3649.739,-0.07944316,-0.006291452,0.1584763,-0.360778450965881,-0.110681630671024,0.0368079170584679,-0.0708499516420146,-0.0304847548730522,0.0438594951176439,4
0.360015869140625,-0.116003900766373,2.91611433029175,1.14145278930664,-0.0698237345322385,2.93577317811757,1.18608130802295,1319.679,1046.985,3121.297,3497.871,-0.07154848,-0.0029625,0.1534719,-0.3875812292099,-0.109859213232994,0.0495602190494537,-0.0787580297418618,-0.0338873799532906,0.0487549721754506,4
0.3800048828125,-0.124252289533615,2.91394925117493,1.14270758628845,-0.0714797725314022,2.93506063123087,1.18710647443246,1455.454,1181.881,3090.267,3231.518,-0.06362186,0.001259002,0.1450362,-0.412419587373734,-0.108257576823235,0.0627417862415314,-0.0869921272359981,-0.0374302820709642,0.0538522707687797,4
0.399993896484375,-0.132944196462631,2.91182589530945,1.14421761035919,-0.0733036822025899,2.9342758538535,1.18823556140379,1578.956,1273.368,3105.962,2981.484,-0.05702573,0.00582548,0.1357481,-0.434595465660095,-0.106168374419212,0.0755003988742828,-0.0955525119207663,-0.0411135764513579,0.0591515566763244,4
0.420013427734375,-0.142024666070938,2.90974974632263,1.14595830440521,-0.0753050585276311,2.93341471753282,1.18947450868777,1630.184,1288.082,3159.884,2845.357,-0.05243551,0.01017394,0.127864,-0.45402330160141,-0.103808015584946,0.087037518620491,-0.104441553474511,-0.0449382827008623,0.0646542968418633,4
0.44000244140625,-0.151447057723999,2.90772390365601,1.14789533615112,-0.077483988232608,2.93247718495301,1.19082336997196,1608.96,1238.879,3216.951,2842.536,-0.04965038,0.01397732,0.1224621,-0.471120089292526,-0.101293697953224,0.0968521907925606,-0.113620829717891,-0.048887868829098,0.0703367061060819,4
0.459991455078125,-0.161177843809128,2.90575122833252,1.14999687671661,-0.0798493430620752,2.93145943885026,1.19228763728888,1541.693,1158.064,3253.384,2937.815,-0.0478879,0.01718696,0.1193402,-0.486539840698242,-0.0986394062638283,0.105075277388096,-0.123092454730403,-0.0529632444654124,0.0762000931848968,4
0.480010986328125,-0.171194791793823,2.90383553504944,1.15223944187164,-0.0824109101018722,2.93035726811493,1.19387336931088,1472.103,1085.475,3249.795,3068.298,-0.04628787,0.01998459,0.117384,-0.500847697257996,-0.0957797169685364,0.11212745308876,-0.132860437136906,-0.0571661344090936,0.082246939608052,5
0.5,-0.181482270359993,2.90198278427124,1.15461564064026,-0.085166398670376,2.92917165836334,1.1955791479969,1433.269,1047.055,3214.493,3169.197,-0.04432992,0.02264554,0.1152198,-0.514373362064362,-0.0926404818892479,0.118807420134544,-0.142884000065179,-0.0614789935111996,0.0884520025491718,5
0.519989013671875,-0.192025572061539,2.90019822120667,1.15713500976563,-0.0881248588203387,2.92789871561062,1.19741057576073,1423.943,1045.05,3178.205,3209.403,-0.04191869,0.02538077,0.1118806,-0.527165234088898,-0.089227594435215,0.125966086983681,-0.153166947611899,-0.0659034585682559,0.0948176369253132,5
0.540008544921875,-0.202805921435356,2.8984854221344,1.1598105430603,-0.0912963635428427,2.92653410573011,1.19937388826368,1443.667,1072.779,3150.104,3185.742,-0.03928749,0.02828814,0.107053,-0.539018452167511,-0.0856407359242439,0.133777424693108,-0.163714777034477,-0.0704418948965508,0.101347245800684,5
0.55999755859375,-0.213799178600311,2.8968448638916,1.16265273094177,-0.094676112580471,2.92507989413848,1.20146611391775,1486.424,1114.597,3136.28,3113.545,-0.03687839,0.03133125,0.1010526,-0.54966276884079,-0.0820318311452866,0.142112404108047,-0.17448465888317,-0.0750758741803766,0.108014315705644,5
0.58001708984375,-0.224977523088455,2.89527344703674,1.16566824913025,-0.0982790918331175,2.92352963282165,1.20369652970884,1521.381,1148.739,3146.773,3033.922,-0.03512816,0.03434765,0.09464993,-0.558916628360748,-0.0785743147134781,0.150774911046028,-0.185498893714783,-0.0798149917263209,0.114832651747179,5
0.600006103515625,-0.236312180757523,2.89376521110535,1.16885161399841,-0.102098762959148,2.92188613504538,1.20606108809202,1539.986,1167.024,3162.716,2980.348,-0.03430631,0.03716083,0.08861655,-0.5667325258255,-0.0754176303744316,0.15916582942009,-0.196713446836865,-0.0846403006364086,0.121774994352997,5
0.6199951171875,-0.247777551412582,2.89231181144714,1.17219543457031,-0.106144683970236,2.92014528826426,1.20856570593183,1534.069,1167.143,3183.666,2963.489,-0.03443574,0.03963062,0.0834607,-0.573269963264465,-0.0726669281721115,0.167188853025436,-0.208134604141382,-0.0895545055543457,0.128845234789665,5
0.6400146484375,-0.259352892637253,2.89090418815613,1.17568826675415,-0.110427588881679,2.91830247393137,1.21121702809507,1504.199,1155.795,3196.022,2988.609,-0.03534707,0.0416947,0.07930953,-0.578766703605652,-0.0703858658671379,0.174641519784927,-0.21977002223474,-0.0945609009039674,0.136048112861281,5
0.660003662109375,-0.27102267742157,2.8895320892334,1.17932057380676,-0.114938248900541,2.91636166293851,1.21400934151928,1470.577,1144.904,3194.576,3029.894,-0.03676867,0.04338873,0.07590318,-0.583489298820496,-0.0685995668172836,0.181615218520164,-0.231574097577923,-0.0996398647564507,0.143355397804799,5
0.67999267578125,-0.282775789499283,2.88818550109863,1.18309009075165,-0.119686638739014,2.91431856344567,1.21694882102647,1430.249,1139.77,3191.321,3073.695,-0.0384438,0.04477889,0.07288104,-0.587653875350952,-0.0673255994915962,0.188476100564003,-0.243554411173546,-0.104794659005432,0.150771782621969,5
0.70001220703125,-0.29460284113884,2.88685393333435,1.18699336051941,-0.124683985757554,2.91216834463331,1.22004241688759,1400.067,1145.586,3178.973,3105.251,-0.04017272,0.04596283,0.06987078,-0.59135490655899,-0.0665763691067696,0.195162385702133,-0.255719729227087,-0.11002905550423,0.158302694011575,5
0.720001220703125,-0.306495159864426,2.88552665710449,1.19102883338928,-0.129918284978346,2.90991617190799,1.22328269744952,1396.445,1163.34,3161.076,3105.722,-0.04192508,0.04702335,0.06662392,-0.594616651535034,-0.0663603395223618,0.201773032546043,-0.268023157655716,-0.11532287703907,0.16591910230247,5
0.739990234375,-0.318443715572357,2.88419246673584,1.19520020484924,-0.135400001298574,2.90755754251682,1.2266761409821,1393.06,1185.335,3154.701,3092.157,-0.04382977,0.04795497,0.06321014,-0.597427785396576,-0.0667093619704247,0.208568334579468,-0.280473432677602,-0.12067988256057,0.173626415629864,5
0.760009765625,-0.330438911914825,2.88283920288086,1.19950592517853,-0.141140917956636,2.9050873864615,1.23023004187122,1388.595,1207.1,3151.109,3077.34,-0.04599972,0.04873184,0.05981791,-0.599760115146637,-0.0676631703972816,0.215284287929535,-0.293080296154222,-0.126104263719567,0.181430664670081,5
0.779998779296875,-0.342471718788147,2.88145422935486,1.20394253730774,-0.147126184485884,2.90251209348295,1.23393520697061,1391.394,1226.899,3148.179,3057.334,-0.04852705,0.0493234,0.05663846,-0.601641118526459,-0.0692540556192398,0.221833124756813,-0.305795832832518,-0.131575403921268,0.189302187598958,5
0.79998779296875,-0.35453474521637,2.88002395629883,1.20850956439972,-0.153366821193532,2.89982692185086,1.2377984583754,1374.673,1240.82,3155.243,3052.763,-0.05147304,0.04966396,0.05392598,-0.603151977062225,-0.0715179070830345,0.228351131081581,-0.318629798715703,-0.137097500901303,0.197247023847227,5
0.82000732421875,-0.366622567176819,2.87853455543518,1.21320009231567,-0.159875221826383,2.89702653888221,1.24182746840525,1347.827,1250.291,3157.91,3065.653,-0.05475193,0.04973565,0.05177131,-0.604391574859619,-0.0744681879878044,0.234529033303261,-0.331592781842754,-0.14267511039705,0.205271727915392,4
0.839996337890625,-0.378732323646545,2.87697267532349,1.21800720691681,-0.166633637018892,2.89411858163313,1.24601124935738,1330.665,1259.74,3153.137,3076.449,-0.05824227,0.04956403,0.05009367,-0.605487108230591,-0.0780948102474213,0.240357846021652,-0.344636106234817,-0.148287288494656,0.213346167053785,4
0.860015869140625,-0.390863448381424,2.87532496452332,1.22292959690094,-0.173664618315387,2.89109334680413,1.25036376171199,1301.069,1269.386,3152.917,3095.381,-0.06187215,0.04915434,0.04885488,-0.606555879116058,-0.0823894515633583,0.246117755770683,-0.357790534090669,-0.153947271308859,0.221489384528856,4
0.8800048828125,-0.403016746044159,2.8735785484314,1.22796070575714,-0.180948461186242,2.88795931270381,1.25487280742661,1276.49,1280.981,3144.262,3115.486,-0.0655324,0.04855402,0.04791935,-0.607665538787842,-0.0873213186860085,0.25155320763588,-0.371007022483504,-0.159633957038354,0.229671020432672,4
0.899993896484375,-0.415194451808929,2.87172102928162,1.23310029506683,-0.18849723509595,2.8847112861788,1.25954585807468,1258.686,1295.054,3140.633,3122.684,-0.06913726,0.04780387,0.04718297,-0.608886241912842,-0.0928718969225883,0.256978869438171,-0.384296738353309,-0.165352150505452,0.237897987633041,4
0.920013427734375,-0.427398979663849,2.86974096298218,1.23834443092346,-0.196324452211266,2.88134345332121,1.26439127833112,1242.105,1310.46,3133.817,3131.07,-0.072675,0.04692728,0.04662933,-0.610228478908539,-0.0990022122859955,0.262207597494125,-0.397671404529394,-0.171106895716105,0.246177543119742,4
0.94000244140625,-0.439633309841156,2.86762738227844,1.24368977546692,-0.204407453948074,2.87786556348678,1.26939504145298,1242.281,1326.804,3124.775,3125.753,-0.07616162,0.04595252,0.04622627,-0.611715316772461,-0.105675302445889,0.267265647649765,-0.411081631631503,-0.176876941799768,0.254479112513653,4
0.959991455078125,-0.451900899410248,2.86536979675293,1.24913847446442,-0.212759000778906,2.87427212620069,1.27456504678061,1228.445,1341.403,3126.696,3126.557,-0.07967006,0.04485505,0.04609673,-0.613379061222076,-0.112878106534481,0.272434800863266,-0.424539267042903,-0.182667386354485,0.262810029909387,3
0.980010986328125,-0.464205652475357,2.8629584312439,1.25468671321869,-0.221393324468958,2.87055701793193,1.27991010445463,1210.686,1352.919,3126.756,3135.686,-0.08316093,0.04363813,0.04629046,-0.615239202976227,-0.120573826134205,0.277412891387939,-0.438056556301695,-0.188483498293199,0.271177875878363,3
1,-0.476552546024323,2.86038398742676,1.2603303194046,-0.230284798736574,2.86673126495361,1.28541435058594,1209.18,1363.689,3122.317,3134.91,-0.08658416,0.0423288,0.04676602,-0.617344737052917,-0.12871877849102,0.282179117202759,-0.451584000205995,-0.194303979492187,0.279552008056641,3
1.01998901367188,-0.488947600126266,2.85763812065125,1.26607072353363,-0.239446912293295,2.86278906344998,1.29108613532954,1192.921,1372.752,3125.83,3143.728,-0.08996158,0.0409097,0.04759318,-0.619751155376434,-0.137288168072701,0.287022531032562,-0.46513400752272,-0.200134169097193,0.287940108062054,3
1.04000854492188,-0.501397311687469,2.85471367835999,1.2719042301178,-0.248894644448595,2.85872396824263,1.29693473159157,1174.575,1379.739,3125.146,3160.419,-0.0932149,0.03940308,0.04873433,-0.622487246990204,-0.146226465702057,0.291674494743347,-0.47871923339115,-0.205979512261105,0.296350010028666,3
1.05999755859375,-0.513909220695496,2.85160422325134,1.277827501297,-0.258599401509697,2.85454828239877,1.30294243851408,1175.163,1387.63,3119.001,3164.144,-0.09628393,0.03785543,0.05006734,-0.625595033168793,-0.155477270483971,0.29616379737854,-0.492290296490434,-0.211818761581115,0.30475114456651,3
1.08001708984375,-0.526491403579712,2.84830403327942,1.28384399414063,-0.268590868588476,2.85024923324404,1.30912763259543,1162.769,1395.174,3121.834,3173.627,-0.09920062,0.03626176,0.05161772,-0.629108607769012,-0.165012419223785,0.300827413797379,-0.505880764601332,-0.21766636033551,0.313164291730931,3
1.10000610351563,-0.539151787757874,2.84480881690979,1.28995072841644,-0.278838480013141,2.84583997233313,1.31547139222872,1155.59,1401.917,3118.6,3184.706,-0.1019272,0.03465353,0.05332875,-0.63301807641983,-0.174766659736633,0.305337429046631,-0.519441457145546,-0.223501147495394,0.321559006401169,3
1.1199951171875,-0.551898837089539,2.84111452102661,1.29615068435669,-0.289357002179081,2.84131414609862,1.32198285851614,1152.463,1407.863,3122.412,3186.874,-0.1044241,0.03305054,0.05516626,-0.637352406978607,-0.184711560606956,0.309995859861374,-0.532985466132485,-0.229328756186667,0.329943393154705,3
1.1400146484375,-0.564740598201752,2.83721876144409,1.30244243144989,-0.300162704591434,2.83666475422696,1.32867210305637,1148.267,1413.146,3122.336,3194.965,-0.1066974,0.03146252,0.05714015,-0.642088651657104,-0.194782391190529,0.314585566520691,-0.54652589017629,-0.235154822377061,0.338325560657667,3
1.16000366210938,-0.577685296535492,2.83312034606934,1.30882489681244,-0.311222084148811,2.83190621216671,1.33551838583369,1159.934,1418.244,3118.268,3192.919,-0.1087667,0.02991575,0.05919293,-0.647231996059418,-0.204922959208488,0.319124698638916,-0.560014026276883,-0.240958390526247,0.34667535943296,3
1.17999267578125,-0.590741276741028,2.82881808280945,1.31530404090881,-0.322550701230474,2.8270318247214,1.34253133946411,1154.835,1421.296,3125.56,3199.399,-0.1106986,0.02838568,0.06139764,-0.652801871299744,-0.215118363499641,0.323959857225418,-0.573463232144024,-0.246745208083563,0.355001058539242,3
1.20001220703125,-0.603916823863983,2.82431173324585,1.32187974452972,-0.334165615614823,2.82203425154496,1.34972152476313,1147.112,1422.098,3130.331,3212.335,-0.112436,0.02688777,0.06373469,-0.658776998519897,-0.225316360592842,0.328786879777908,-0.586886736182789,-0.252520966862155,0.363310846989412,3
1.22000122070313,-0.617220103740692,2.81960248947144,1.32855105400085,-0.346030421585499,2.81692915700008,1.35706640485806,1159.734,1423.764,3128.531,3211.651,-0.1139391,0.02546099,0.06610406,-0.665160357952118,-0.235462471842766,0.333563983440399,-0.600236516861372,-0.258265004538453,0.371574997167698,3
1.239990234375,-0.630659401416779,2.81469178199768,1.3353236913681,-0.358161486344149,2.81170949873715,1.36457611182642,1158.762,1424.179,3135.989,3217.683,-0.115268,0.02408534,0.06855665,-0.671965479850769,-0.245540112257004,0.338631898164749,-0.613526094901141,-0.263983138701136,0.379801879044709,2
1.260009765625,-0.644242584705353,2.8095817565918,1.34219801425934,-0.37057666480527,2.80636759428526,1.37226169871082,1156.054,1423.089,3140.098,3229.561,-0.1163887,0.0227749,0.07106405,-0.679159343242645,-0.255497187376022,0.343718022108078,-0.626768731761373,-0.26968107538565,0.387999702095469,2
1.27999877929688,-0.657977283000946,2.80427598953247,1.34917426109314,-0.383236695417198,2.80092033679326,1.3800988607405,1172.125,1423.354,3138.207,3228.331,-0.1172925,0.02156469,0.0735279,-0.686734318733215,-0.265285968780518,0.348812252283096,-0.639917282339435,-0.275338529371412,0.396139281255613,2
1.29998779296875,-0.67187112569809,2.79877781867981,1.35625958442688,-0.396158759015336,2.79536033382764,1.388098233671,1172.939,1422.093,3147.416,3233.627,-0.1180457,0.02042938,0.07600514,-0.694695711135864,-0.274903208017349,0.354266554117203,-0.652985332144132,-0.280961346123326,0.404229026602261,2
1.32000732421875,-0.685931026935577,2.79309177398682,1.36345505714417,-0.409361504843077,2.78967956113998,1.39627136227237,1172.129,1419.483,3153.549,3243.836,-0.1186092,0.01938089,0.07847679,-0.702994644641876,-0.284306973218918,0.359775304794312,-0.6659860834168,-0.286555206197011,0.41227711095171,2
1.33999633789063,-0.700163245201111,2.78722262382507,1.37076079845428,-0.422802873722428,2.78389611561957,1.40459220990988,1191.155,1418.549,3152.36,3240.645,-0.1189778,0.01845068,0.08085521,-0.71161150932312,-0.29345440864563,0.365286976099014,-0.678873453515705,-0.29210028151913,0.420255006953505,2
1.36001586914063,-0.71457427740097,2.78117561340332,1.37818419933319,-0.4365219692899,2.77799317206405,1.4130849835973,1195.074,1415.751,3162.455,3243.89,-0.1192271,0.01760634,0.08321029,-0.72055047750473,-0.302350252866745,0.371167927980423,-0.691680442442074,-0.297610771068296,0.428183143180414,2
1.3800048828125,-0.729169309139252,2.77495646476746,1.38572514057159,-0.450474904562636,2.77198961381608,1.4217225152016,1201.098,1412.74,3165.413,3251.299,-0.1193544,0.01685783,0.08552018,-0.729752540588379,-0.310953974723816,0.377047508955002,-0.704361775018035,-0.303067194200314,0.436033492140578,2
1.39999389648438,-0.743953883647919,2.76857113838196,1.3933892250061,-0.464680216184654,2.76587746507559,1.43051627978847,1207.462,1408.242,3175.768,3252.662,-0.1193261,0.01620715,0.08776429,-0.739230275154114,-0.319270372390747,0.383205860853195,-0.716930938559026,-0.308475354130225,0.443814403124744,2
1.42001342773438,-0.758932411670685,2.76202583312988,1.40117704868317,-0.479157861067077,2.75964813894125,1.43947863163655,1212.633,1404.133,3180.505,3259.635,-0.1191434,0.01565588,0.08993967,-0.748928070068359,-0.327263683080673,0.389392018318176,-0.729400843645231,-0.313840805920001,0.451533868397062,2
1.44000244140625,-0.774108946323395,2.7553277015686,1.40908908843994,-0.493861275572861,2.75332167044526,1.4485807456364,1233.337,1401.961,3178.443,3256.63,-0.1188441,0.01522331,0.09197377,-0.758824825286865,-0.334904611110687,0.395599275827408,-0.741727567798258,-0.319144650954242,0.459164697851088,2
1.45999145507813,-0.789487421512604,2.74848341941833,1.41713345050812,-0.508809800712713,2.74688973769103,1.45783459479497,1235.896,1397.284,3190.181,3260.674,-0.1184958,0.01487192,0.09393491,-0.768928408622742,-0.342219650745392,0.402215600013733,-0.753924423002454,-0.324392617007921,0.466715132239272,2
1.48001098632813,-0.80507093667984,2.74149942398071,1.4253112077713,-0.524024159888143,2.74034342397783,1.467253007885,1235.219,1391.865,3198.677,3269.937,-0.1180441,0.01460805,0.09581266,-0.779173910617828,-0.34919473528862,0.408890902996063,-0.766004036374583,-0.329590137176618,0.474192988348404,2
1.5,-0.820861458778381,2.73438334465027,1.43362152576447,-0.539455198877605,2.73370387899399,1.4768055561018,1255.72,1389.306,3197.572,3264.962,-0.1174758,0.01446287,0.09751889,-0.789529621601105,-0.355804771184921,0.415518909692764,-0.777924000354858,-0.334718964672088,0.481572013878822,1
1.51998901367188,-0.836861550807953,2.72714185714722,1.44207108020782,-0.555123050061237,2.72696244033876,1.48650470234772,1261.763,1384.635,3207.873,3265.575,-0.1168638,0.01439698,0.0991292,-0.800001382827759,-0.362072855234146,0.422475844621658,-0.789697369743256,-0.339784716610053,0.488860290373601,1
1.54000854492188,-0.853072106838226,2.71978211402893,1.45066022872925,-0.571049184024557,2.72010986981902,1.49636373793799,1263.191,1379.275,3214.612,3273.32,-0.1161884,0.01440717,0.1006507,-0.810527741909027,-0.367989152669907,0.42945858836174,-0.801336412291853,-0.344792671461508,0.496065412155667,1
1.55999755859375,-0.869493782520294,2.71231126785278,1.45938813686371,-0.587181951496087,2.71316839067337,1.50635068951315,1282.277,1376.608,3212.864,3269.275,-0.115456,0.0145177,0.1020031,-0.821083605289459,-0.373539209365845,0.436394780874252,-0.812800388649436,-0.349725300221754,0.503162159625937,1
1.58001708984375,-0.886127412319183,2.70473599433899,1.46826148033142,-0.603567408310176,2.70611818636293,1.51649406782863,1285.144,1371.431,3224.309,3270.791,-0.1147199,0.01468927,0.1032582,-0.831681489944458,-0.378758937120438,0.44366654753685,-0.824119146742882,-0.35459544561987,0.510169010073001,0
1.60000610351563,-0.902972340583801,2.69706320762634,1.47727847099304,-0.620152298932711,2.69898217125626,1.52676090517188,1290.158,1367.44,3226.8,3276.168,-0.1139662,0.01492899,0.1043994,-0.842247843742371,-0.383637577295303,0.450849324464798,-0.835253140422976,-0.35938609205264,0.51706148254665,0
1.6199951171875,-0.920028269290924,2.6892991065979,1.48644280433655,-0.636958033083316,2.69175113334911,1.53716445517924,1296.193,1362.185,3236.392,3274.457,-0.1131535,0.01523611,0.1054131,-0.852798044681549,-0.388201236724854,0.458216995000839,-0.846214826007804,-0.364102599125749,0.523847288101157,0
1.6400146484375,-0.937293708324432,2.68145036697388,1.49575293064117,-0.654007271984653,2.68441532215046,1.54771874622704,1300.919,1357.988,3239.407,3278.433,-0.1122869,0.01560555,0.1063098,-0.863271176815033,-0.392438530921936,0.46550589799881,-0.857015715678588,-0.368749920209162,0.530533553325099,0
1.66000366210938,-0.954766631126404,2.67352342605591,1.50520706176758,-0.671244443874359,2.67699864863716,1.55838937674714,1320.336,1356.595,3234.592,3273.161,-0.1114208,0.01605068,0.107028,-0.873647511005402,-0.396341413259506,0.472706437110901,-0.867618167158098,-0.373311858882592,0.53709697585572,0
1.67999267578125,-0.972445666790009,2.66552424430847,1.51481199264526,-0.688691692550512,2.66949158495151,1.56919005480539,1319.953,1351.931,3246.063,3274.494,-0.1106133,0.0165261,0.1076514,-0.883949637413025,-0.39996075630188,0.480244189500809,-0.878034183119987,-0.377793579561193,0.543544985919778,0
1.70001220703125,-0.990327775478363,2.65745806694031,1.52456629276276,-0.706372354049449,2.66188409024902,1.58013522651994,1314.914,1346.98,3253.534,3282.216,-0.1097941,0.01703498,0.1081857,-0.894109487533569,-0.403308004140854,0.487715065479279,-0.888274735793774,-0.382199803288802,0.549884375850026,0
1.72000122070313,-1.00840973854065,2.64933061599731,1.53446590900421,-0.724228658537036,2.6542010212754,1.5911891296115,1332.972,1345.841,3249.152,3274.858,-0.1089435,0.01761065,0.1085425,-0.904099225997925,-0.406372398138046,0.494978696107864,-0.898304216251578,-0.386515208538549,0.556093102023817,0
1.739990234375,-1.02668857574463,2.64114689826965,1.54451501369476,-0.74228345468553,2.64643254688532,1.60236590849663,1336.112,1342.204,3257.361,3272.713,-0.1081323,0.0182087,0.1088081,-0.913942575454712,-0.409190744161606,0.502456247806549,-0.908134108040217,-0.390744736359816,0.562178273303667,0
1.760009765625,-1.0451602935791,2.63291144371033,1.5547114610672,-0.760560719141003,2.63856835059778,1.61368040586141,1332.726,1338.208,3261.584,3279.463,-0.1073387,0.0188219,0.1090026,-0.923584043979645,-0.411771178245544,0.509824514389038,-0.91777478390713,-0.394892849856044,0.568146310914365,0
1.77999877929688,-1.06382060050964,2.6246292591095,1.56505155563354,-0.779000609654483,2.63063418086074,1.62509557650306,1347.665,1337.469,3256.514,3273.87,-0.1065616,0.01947708,0.1090434,-0.933009266853333,-0.414112120866776,0.517003297805786,-0.927192788821983,-0.398945154262308,0.57397650459845,0
1.79998779296875,-1.08266544342041,2.61630415916443,1.57553958892822,-0.797626646773287,2.62261991743975,1.63662598076079,1345.789,1333.973,3265.819,3273.436,-0.1058436,0.02013351,0.1090093,-0.942247211933136,-0.416259616613388,0.524400174617767,-0.936399026186941,-0.402906341007953,0.579675604081262,0
1.82000732421875,-1.1016902923584,2.60793972015381,1.58617222309113,-0.816463410111527,2.61451498441355,1.64828683458664,1339.858,1330.561,3269.924,3279.964,-0.1051299,0.02079405,0.108908,-0.951238870620728,-0.418222934007645,0.531629145145416,-0.94540321420156,-0.406780591562751,0.585249625391268,0
1.83999633789063,-1.120889544487,2.5995397567749,1.59694409370422,-0.835449117627072,2.60634596486888,1.66003989195343,1355.663,1330.906,3262.873,3272.349,-0.1044156,0.02148923,0.1086532,-0.959968686103821,-0.419994115829468,0.538592576980591,-0.954174163352093,-0.410554485950274,0.590679260733698,0
1.86001586914063,-1.14025902748108,2.59110736846924,1.60785889625549,-0.854637305360818,2.59808982374295,1.67191829422076,1354.62,1328.536,3270.238,3270.226,-0.1037663,0.0221744,0.1083336,-0.968470871448517,-0.421614855527878,0.545738756656647,-0.962735018414262,-0.414237982720922,0.595978837827261,0
1.8800048828125,-1.15979266166687,2.58264565467834,1.61891138553619,-0.873964974649439,2.58977366760063,1.68388304221498,1353.092,1327.467,3268.417,3274.678,-0.1031783,0.02285247,0.1079501,-0.976683855056763,-0.423088550567627,0.552625596523285,-0.971056158224177,-0.417818336715394,0.601130019760457,0
1.89999389648438,-1.1794855594635,2.57415676116943,1.63010251522064,-0.893456683142228,2.58138692997148,1.69594933829086,1352.313,1324.891,3275.184,3271.025,-0.1025898,0.02352563,0.1074922,-0.98464560508728,-0.424449920654297,0.559558391571045,-0.979147395688901,-0.421299770153459,0.606138881190213,0
1.92001342773438,-1.1993316411972,2.56564283370972,1.6414270401001,-0.913137923350175,2.5729186421402,1.70813296352707,1349.785,1323.515,3274.573,3274.068,-0.1019905,0.0241913,0.1069772,-0.992306888103485,-0.425694495439529,0.566229462623596,-0.987017247723777,-0.424685947625853,0.611010694492843,0
1.94000244140625,-1.2193249464035,2.55710649490356,1.65287959575653,-0.932943991899774,2.5643966441608,1.72039386345315,1364.566,1325.25,3265.013,3266.279,-0.1014228,0.02486817,0.1063386,-0.999664902687073,-0.426813662052155,0.57262510061264,-0.994638524886308,-0.427965170275055,0.615728628108227,0
1.95999145507813,-1.23946022987366,2.54854941368103,1.66446387767792,-0.952900013794853,2.55581012544606,1.73274759164336,1358.34,1323.709,3272.575,3265.775,-0.1009477,0.02550972,0.1056716,-1.00676274299622,-0.42785570025444,0.579215943813324,-1.00202031904361,-0.431141350077486,0.620298310335216,0
1.98001098632813,-1.25973117351532,2.53997278213501,1.67617547512054,-0.973031969359004,2.54714790738853,1.74521023115561,1346.1,1321.827,3275.85,3273.435,-0.1004907,0.02612177,0.1049863,-1.01354968547821,-0.428833812475204,0.585578382015228,-1.00917036754089,-0.434217816196637,0.624724530959079,0
2,-1.28013134002686,2.53137803077698,1.68800699710846,-0.993273599084619,2.53843849960327,1.7577407641983,1358.783,1323.671,3267.215,3264.545,-0.1000171,0.02674431,0.1041852,-1.02001690864563,-0.429736256599426,0.59157919883728,-1.01606400046349,-0.437183953857422,0.628992018127441,0
2.01998901367188,-1.30065560340881,2.52276611328125,1.69996047019958,-1.01365055070775,2.52967086658596,1.77035506794184,1355.849,1323.156,3272.146,3260.734,-0.0995921,0.02733451,0.1033617,-1.02620470523834,-0.430594652891159,0.59767484664917,-1.02270954399163,-0.440043345582587,0.633105926142498,0
2.04000854492188,-1.32129693031311,2.51413798332214,1.71203052997589,-1.03418924440916,2.52083364047092,1.78306949773667,1345.845,1322.181,3272.372,3267.31,-0.09918677,0.02788971,0.1025401,-1.03207051753998,-0.431411534547806,0.603504717350006,-1.02911391720548,-0.442798968459032,0.637070538244476,0
2.05999755859375,-1.34204936027527,2.5054943561554,1.72421050071716,-1.05482201812353,2.5119559343546,1.79584216754118,1356.997,1324.292,3262.906,3259.646,-0.09878942,0.02844278,0.101628,-1.03761756420135,-0.432177066802979,0.608998358249664,-1.03525504859546,-0.445441325732794,0.640872191117535,0
2.08001708984375,-1.3629070520401,2.49683570861816,1.73650276660919,-1.07560676837143,2.50301283698163,1.80870891805959,1349.891,1323.844,3268.783,3257.821,-0.09844854,0.02895398,0.1007146,-1.04289019107819,-0.43292835354805,0.61461341381073,-1.0411492471255,-0.447977434695423,0.644520980787238,0
2.10000610351563,-1.38386392593384,2.48816251754761,1.74889981746674,-1.09647498538954,2.49403382618922,1.82162733848484,1343.914,1324.599,3264.229,3262.353,-0.09813908,0.02943437,0.09979104,-1.04783535003662,-0.433658599853516,0.619852364063263,-1.04677621342161,-0.450398561093403,0.648004340974112,0
2.1199951171875,-1.40491390228271,2.47947478294373,1.76140081882477,-1.11745308225396,2.48500753716864,1.83461377976925,1341.135,1324.086,3267.898,3256.897,-0.09779554,0.02989184,0.0988388,-1.05250108242035,-0.43438982963562,0.625051498413086,-1.0521429102862,-0.45270770082608,0.651326581984514,0
2.1400146484375,-1.42605090141296,2.4707727432251,1.77399897575378,-1.13856809990831,2.47592233495728,1.84768498154507,1335.841,1324.644,3264.06,3259.527,-0.0974195,0.03032405,0.0978802,-1.05684816837311,-0.43510565161705,0.629910826683044,-1.05725481901126,-0.454907212340279,0.654491096999312,0
2.16000366210938,-1.44726848602295,2.46205687522888,1.78668773174286,-1.15975039167652,2.46680818657414,1.86079782920208,1348.289,1327.707,3252.213,3250.83,-0.09705091,0.03075216,0.09684559,-1.06088423728943,-0.435789346694946,0.634439289569855,-1.0620943502576,-0.456989527434725,0.657486997379635,0
2.17999267578125,-1.4685617685318,2.45332717895508,1.79947018623352,-1.18102676265167,2.45765355853653,1.8739689163698,1338.509,1327.824,3257.928,3250.057,-0.09675317,0.03113198,0.09583399,-1.06465685367584,-0.436480313539505,0.639124572277069,-1.06666760390386,-0.458957270716794,0.660318059240953,0
2.20001220703125,-1.48992419242859,2.44458365440369,1.81234049797058,-1.20242455577657,2.44844668594002,1.88721516963236,1322.706,1327.236,3259.131,3258.13,-0.09644371,0.03147341,0.09485231,-1.06812369823456,-0.437180519104004,0.643515825271606,-1.07097916161324,-0.460812413548163,0.662987118851036,0
2.22000122070313,-1.51134979724884,2.43582630157471,1.82529020309448,-1.22387315175433,2.43921795429519,1.90049287228091,1334.399,1329.841,3248.549,3247.763,-0.0960746,0.03182201,0.09379221,-1.07128465175629,-0.437867313623428,0.647486567497253,-1.07501419914593,-0.462548577472581,0.665484999299265,0
2.239990234375,-1.53283357620239,2.42705488204956,1.83832049369812,-1.24539969505118,2.42995568409656,1.91381882803312,1329.818,1330.562,3251.35,3243.169,-0.095722,0.03213557,0.09275243,-1.07418143749237,-0.438560754060745,0.65151709318161,-1.07877792518082,-0.464168003639063,0.667814925005999,0
2.260009765625,-1.5543692111969,2.41827011108398,1.85142529010773,-1.26703177594152,2.42064800401982,1.92721011658316,1317.581,1330.395,3249.6,3249.986,-0.09535927,0.03241317,0.09175607,-1.07677960395813,-0.439251899719238,0.655241072177887,-1.08227399942825,-0.465672266718726,0.669979161506271,0
2.27999877929688,-1.57595098018646,2.4094717502594,1.86459720134735,-1.28869796983554,2.41132564607061,1.9406225227075,1327.708,1332.666,3238.776,3241.572,-0.09496513,0.03269134,0.09070187,-1.0790890455246,-0.439922153949738,0.658598005771637,-1.08549040888332,-0.467056197851165,0.67197027217779,0
2.29998779296875,-1.59757387638092,2.40065979957581,1.8778383731842,-1.31042570636616,2.40197680804417,1.95407302665558,1319.157,1332.945,3243.061,3239.298,-0.09459442,0.0329328,0.0896793,-1.08115327358246,-0.440598607063293,0.662059187889099,-1.08843144721369,-0.468321644481621,0.673790915005368,0
2.32000732421875,-1.61923265457153,2.39183449745178,1.89114236831665,-1.33224276726637,2.39258953623693,1.96757882664355,1305.193,1332.537,3242.005,3246.5,-0.09418535,0.03314529,0.08869558,-1.08293354511261,-0.441271156072617,0.6651970744133,-1.09109983431736,-0.469469776906228,0.675442773735451,0
2.33999633789063,-1.64092135429382,2.38299632072449,1.904501080513,-1.35407709248145,2.38319483607731,1.98109531406483,1317.355,1334.8,3230.526,3236.025,-0.09370652,0.0333709,0.08764289,-1.08443522453308,-0.441914290189743,0.667933523654938,-1.09348640563071,-0.470496651869278,0.67692017506657,0
2.36001586914063,-1.6626353263855,2.37414503097534,1.91791617870331,-1.3759897762471,2.37376642042246,1.99466030916165,1311.299,1335.372,3233.208,3232.235,-0.09323833,0.03356776,0.08661941,-1.08569812774658,-0.442547738552094,0.670756995677948,-1.09559752564474,-0.471405007833448,0.678227058921845,0
2.3800048828125,-1.68436896800995,2.3652822971344,1.93138015270233,-1.39790843013262,2.36433543599182,2.00822900004707,1304.691,1336.141,3226.786,3236.446,-0.09277228,0.03374479,0.08562136,-1.08668029308319,-0.443153291940689,0.673197507858276,-1.09742594550583,-0.472191725819537,0.679358937915576,0
2.39999389648438,-1.7061173915863,2.35640740394592,1.94489228725433,-1.41986083522252,2.35488992936084,2.02181858453579,1300.384,1335.444,3229.405,3231.027,-0.09224125,0.03391079,0.08462582,-1.08742952346802,-0.443746030330658,0.675605356693268,-1.09897439291323,-0.472857979480329,0.680317500623536,0
2.42001342773438,-1.72787570953369,2.34752130508423,1.95844566822052,-1.44187496577138,2.34541786398928,2.035446380024,1293.589,1335.541,3224.986,3233.488,-0.09163617,0.03406757,0.08364912,-1.08791208267212,-0.444301933050156,0.677671849727631,-1.1002439936861,-0.473404253224357,0.681103443981416,0
2.44000244140625,-1.74963843822479,2.33862543106079,1.97203350067139,-1.46387808506052,2.33595053645515,2.04906735901791,1306.463,1337.499,3212.641,3223.362,-0.09098317,0.03424016,0.0826145,-1.08813440799713,-0.444795221090317,0.67938905954361,-1.10123038958312,-0.473828671822132,0.681714070030222,0
2.45999145507813,-1.77140116691589,2.32972049713135,1.9856584072113,-1.48589810917879,2.32647593524532,2.06269880290633,1297.799,1337.432,3216.177,3221.521,-0.09035786,0.03438688,0.0816189,-1.08813583850861,-0.445251554250717,0.681244432926178,-1.10193535162022,-0.474131997292339,0.68215047511319,0
2.48001098632813,-1.79315853118896,2.32080721855164,1.99931466579437,-1.5079630509786,2.31698200721197,2.07635805297935,1282.753,1336.203,3215.662,3229.143,-0.08969101,0.03451695,0.08066514,-1.08788216114044,-0.445662975311279,0.682811439037323,-1.10235904000526,-0.474314298567936,0.682412758406602,0
2.5,-1.81490612030029,2.31188702583313,2.01299452781677,-1.52999999932945,2.30750012397766,2.08999997377396,1294.933,1337.213,3205.182,3217.812,-0.08893041,0.03467442,0.07964143,-1.08737659454346,-0.446004718542099,0.683989226818085,-1.10250000050292,-0.474374949932098,0.682500019669533,0
2.51998901367188,-1.83663928508759,2.30296111106873,2.02669930458069,-1.5520369476803,2.29801824074336,2.10364189456856,1290.199,1337.121,3207.217,3212.983,-0.08815543,0.03482004,0.0786454,-1.08664989471436,-0.446290254592896,0.685238480567932,-1.10235904000526,-0.474314298567936,0.682412758406603,0
2.54000854492188,-1.85835266113281,2.29403114318848,2.04042291641235,-1.57410188948011,2.28852431271001,2.11730114464159,1278.977,1335.823,3204.534,3218.972,-0.08733677,0.03495579,0.07769118,-1.0856705904007,-0.446503937244415,0.686183452606201,-1.10193535162022,-0.474131997292339,0.682150475113189,0
2.55999755859375,-1.88004148006439,2.28509855270386,2.05415844917297,-1.59612191359838,2.27904971150017,2.13093258853001,1291.237,1336.284,3193.661,3208.564,-0.08645047,0.03511743,0.07667525,-1.08444786071777,-0.446624279022217,0.686781823635101,-1.10123038958312,-0.473828671822132,0.681714070030222,0
2.58001708984375,-1.90170192718506,2.2761652469635,2.06790828704834,-1.6181586096433,2.26956793682606,2.14457435313522,1284.091,1335.595,3196.738,3205.46,-0.08556683,0.03526666,0.07569074,-1.08301365375519,-0.446671307086945,0.687497496604919,-1.10024227275454,-0.473403512755585,0.681102378642802,0
2.60000610351563,-1.9233283996582,2.26723265647888,2.0816650390625,-1.64013916343638,2.26011031859448,2.15818136301212,1277.779,1334.774,3190.434,3209.467,-0.08466136,0.03541647,0.07472136,-1.0813285112381,-0.446625798940659,0.687832415103912,-1.09897439291323,-0.472857979480329,0.680317500623536,0
2.6199951171875,-1.94491720199585,2.25830268859863,2.09542775154114,-1.66209156852628,2.2506648119635,2.17177094750084,1276.269,1332.932,3192.369,3201.878,-0.08366427,0.03557798,0.07373656,-1.07943284511566,-0.446498811244965,0.688140988349915,-1.09742594550583,-0.472191725819537,0.679358937915576,0
2.6400146484375,-1.96646285057068,2.24937748908997,2.1091902256012,-1.68404365734903,2.24121944141343,2.18536033620513,1271.355,1331.885,3187.026,3203.499,-0.08258676,0.03574863,0.07275895,-1.0772922039032,-0.446264773607254,0.688121199607849,-1.09559452046326,-0.471403714787811,0.678225198571351,0
2.66000366210938,-1.98796105384827,2.24045968055725,2.12294602394104,-1.70592290617745,2.23180541187802,2.19890463348308,1285.956,1332.103,3174.968,3192.097,-0.08145598,0.03595145,0.07171155,-1.07491254806519,-0.445901691913605,0.687788486480713,-1.09348640563071,-0.470496651869278,0.67692017506657,0
2.67999267578125,-2.00940752029419,2.23155069351196,2.13669848442078,-1.72775723139253,2.2224107117184,2.21242112090437,1278.048,1330.971,3178.186,3189.829,-0.08035716,0.03614389,0.07069364,-1.07232332229614,-0.445434182882309,0.68761819601059,-1.09109983431736,-0.469469776906228,0.675442773735451,0
2.70001220703125,-2.03079771995544,2.22265362739563,2.15044212341309,-1.74957429229274,2.21302343991116,2.22592692089233,1263.768,1328.386,3177.811,3196.8,-0.07921786,0.03633538,0.06970559,-1.06949460506439,-0.444857835769653,0.687183678150177,-1.08843144721369,-0.468321644481621,0.673790915005369,0
2.72000122070313,-2.05212616920471,2.21377038955688,2.16416954994202,-1.77130202882336,2.20367460188472,2.23937742484041,1277.02,1327.555,3167.789,3184.626,-0.07797736,0.03656784,0.06863441,-1.06642758846283,-0.444151818752289,0.686374723911285,-1.08549040888332,-0.467056197851165,0.671970272177789,0
2.739990234375,-2.07338905334473,2.20490407943726,2.17788243293762,-1.79296822271738,2.1943522439355,2.25278983096475,1274.636,1326.446,3169.031,3178.169,-0.07672247,0.03680366,0.06757432,-1.06314408779144,-0.443327516317368,0.685644924640656,-1.08227399942825,-0.465672266718727,0.669979161506271,0
2.760009765625,-2.09458112716675,2.19605660438538,2.191575050354,-1.81460030360772,2.18504456385877,2.26618111951479,1264.722,1323.953,3165.86,3183.525,-0.07543617,0.03704125,0.06654359,-1.05961644649506,-0.442373365163803,0.684632062911987,-1.07877792518082,-0.464168003639063,0.667814925005998,0
2.77999877929688,-2.11569833755493,2.18723106384277,2.20524120330811,-1.83612684690458,2.17578229366013,2.27950707526701,1277.682,1322.647,3155.936,3172.153,-0.07408861,0.03731329,0.06544022,-1.05585396289825,-0.441275626420975,0.683311820030212,-1.07501419914593,-0.462548577472581,0.665484999299265,0
2.79998779296875,-2.1367359161377,2.17843008041382,2.2188835144043,-1.85757544288233,2.1665535620153,2.29278477791556,1271.199,1320.98,3158.478,3168.711,-0.07275277,0.03758277,0.06435631,-1.05187797546387,-0.440052777528763,0.682110071182251,-1.07097916161324,-0.460812413548163,0.662987118851036,0
2.82000732421875,-2.15768909454346,2.16965579986572,2.2324960231781,-1.87897323600723,2.1573466894188,2.30603103117811,1259.896,1318.005,3156.33,3174.269,-0.07137378,0.03785757,0.06328982,-1.04766190052032,-0.438697516918182,0.680621802806854,-1.06666760390385,-0.458957270716794,0.660318059240952,0
2.83999633789063,-2.17855310440063,2.16091227531433,2.2460720539093,-1.90024960698239,2.14819206138118,2.31920211834584,1274.324,1316.528,3146.142,3161.318,-0.06991117,0.03817322,0.06213488,-1.04321026802063,-0.43719407916069,0.678798317909241,-1.06209435025759,-0.456989527434725,0.657486997379635,0
2.86001586914063,-2.19932413101196,2.1522011756897,2.25961351394653,-1.9214641634913,2.13906403038149,2.33233493941432,1270.64,1315.057,3147.171,3156.149,-0.06845762,0.03849049,0.06098837,-1.03853952884674,-0.435555934906006,0.67707097530365,-1.05724722779031,-0.454903946049977,0.654486397671922,0
2.8800048828125,-2.21999645233154,2.14352560043335,2.27311372756958,-1.94254691640495,2.12999271078668,2.34538616777867,1266.57,1312.822,3140.688,3158.291,-0.06700673,0.03881655,0.0598421,-1.03362214565277,-0.433773875236511,0.675009965896606,-1.0521429102862,-0.45270770082608,0.651326581984514,0
2.89999389648438,-2.24056625366211,2.13488817214966,2.28657269477844,-1.96352501326936,2.1209664217661,2.35837260906308,1265.291,1309.779,3142.406,3150.541,-0.06549885,0.03915714,0.05867254,-1.02848935127258,-0.431862980127335,0.6729496717453,-1.04677621342161,-0.450398561093403,0.648004340974112,0
2.92001342773438,-2.26102828979492,2.12629222869873,2.29998445510864,-1.98442500350686,2.11197373984504,2.37131069862469,1260.366,1307.365,3137.569,3151.548,-0.06393557,0.03951057,0.05749917,-1.02311444282532,-0.429809242486954,0.670591473579407,-1.04114045847258,-0.4479736531836,0.644515540192422,0
2.94000244140625,-2.28137826919556,2.11774015426636,2.3133430480957,-2.00517798053537,2.10304431360073,2.38415778000673,1275.071,1305.763,3126.561,3139.171,-0.06232809,0.03989782,0.05624624,-1.01750111579895,-0.427599370479584,0.667935431003571,-1.03525504859546,-0.445441325732794,0.640872191117535,0
2.95999145507813,-2.30161190032959,2.10923504829407,2.32665157318115,-2.02581075424974,2.0941666074844,2.39693044981124,1269.347,1303.977,3128.449,3135.123,-0.06076375,0.04028006,0.0550088,-1.0116673707962,-0.425253540277481,0.665423512458801,-1.02911391720548,-0.442798968459032,0.637070538244476,0
2.98001098632813,-2.32172346115112,2.10077953338623,2.33990478515625,-2.04634944795115,2.08532938136936,2.40964487960608,1256.591,1300.621,3126.827,3141.224,-0.05918875,0.04066244,0.05379013,-1.00559377670288,-0.422773838043213,0.662656664848328,-1.02270954399162,-0.440043345582586,0.633105926142498,0
3,-2.34170913696289,2.0923764705658,2.35309600830078,-2.06672639957428,2.07656174835205,2.42225918334961,1269.877,1298.323,3117.757,3128.129,-0.05753919,0.04108154,0.05248214,-0.999285936355591,-0.420151859521866,0.659563839435577,-1.01606400046349,-0.437183953857422,0.628992018127441,0
3.01998901367188,-2.36156415939331,2.08402872085571,2.3662269115448,-2.0869680292999,2.06785234056679,2.43478971639231,1267.205,1296.734,3118.266,3121.609,-0.05590188,0.04150147,0.05117851,-0.992754101753235,-0.417398601770401,0.656546056270599,-1.00917036754089,-0.434217816196637,0.624724530959079,0
3.04000854492188,-2.3812837600708,2.07573819160461,2.37929201126099,-2.10709998486405,2.05919012250926,2.44725235590455,1258.191,1293.608,3114.706,3125.606,-0.05425552,0.04192178,0.04989214,-0.985981047153473,-0.414511799812317,0.653256356716156,-1.00202031904361,-0.431141350077486,0.620298310335216,0
3.05999755859375,-2.40086317062378,2.06750822067261,2.39228558540344,-2.12705600675913,2.05060360379452,2.45960608409476,1271.086,1291.186,3105.583,3113.123,-0.05256547,0.04237067,0.04853025,-0.978976130485535,-0.411486178636551,0.649683356285095,-0.994638524886308,-0.427965170275055,0.615728628108227,0
3.08001708984375,-2.4202983379364,2.05934143066406,2.40520977973938,-2.14689219650438,2.04206864550612,2.47188563047583,1265.786,1289.433,3106.582,3108.65,-0.05091058,0.04281327,0.04718322,-0.971750438213348,-0.408336222171783,0.646205723285675,-0.987005430654711,-0.424680863071165,0.611003379164165,0
3.10000610351563,-2.43958377838135,2.05124044418335,2.41805768013,-2.16654331551667,2.03361331798384,2.48405060925705,1261.087,1286.641,3100.132,3110.691,-0.04926741,0.04325845,0.04583447,-0.964287638664246,-0.405060291290283,0.642390847206116,-0.979147395688901,-0.421299770153459,0.606138881190213,0
3.1199951171875,-2.45871639251709,2.04320669174194,2.43082880973816,-2.18603502400946,2.02522658035469,2.49611690533293,1261.326,1283.65,3100.589,3101.538,-0.04757897,0.0437145,0.04445445,-0.956612825393677,-0.401671141386032,0.638562083244324,-0.971056158224178,-0.417818336715394,0.601130019760458,0
3.1400146484375,-2.47769021987915,2.03524374961853,2.4435179233551,-2.20539207344272,2.01689778275692,2.50809984103626,1256.818,1281.345,3095.297,3101.582,-0.0458591,0.04417579,0.04307083,-0.948706865310669,-0.398160964250565,0.634459376335144,-0.962722140342815,-0.41423244164655,0.595970865687568,0
3.16000366210938,-2.49650144577026,2.02735328674316,2.45611953735352,-2.22455088103183,2.00865428308644,2.51996005559448,1270.18,1279.256,3085.022,3089.311,-0.04411367,0.04465965,0.04161644,-0.940574049949646,-0.394523084163666,0.630080044269562,-0.954174163352092,-0.410554485950274,0.590679260733698,0
3.17999267578125,-2.51514601707458,2.01953792572021,2.46863603591919,-2.24353658854737,2.00048526354177,2.53171311296128,1264.868,1277.765,3085.835,3084.619,-0.04242895,0.04513206,0.04017992,-0.93222564458847,-0.390773713588715,0.625825941562653,-0.945403214201559,-0.406780591562751,0.585249625391267,0
3.20001220703125,-2.53361940383911,2.01179933547974,2.48106265068054,-2.26237335188561,1.99238033051557,2.54337396678712,1252.484,1274.638,3083.49,3090.034,-0.04075648,0.04559655,0.03876624,-0.923653841018677,-0.386920154094696,0.621327340602875,-0.93639902618694,-0.402906341007952,0.579675604081262,0
3.22000122070313,-2.55191683769226,2.0041401386261,2.4933934211731,-2.28099938900442,1.98436606709459,2.55490437104486,1264.249,1271.988,3075.364,3077.039,-0.03902756,0.04608512,0.03727592,-0.914867997169495,-0.382960557937622,0.616535604000092,-0.927192788821982,-0.398945154262308,0.573976504598449,0
3.239990234375,-2.57003402709961,1.99656248092651,2.50562930107117,-2.2994392795179,1.97643189735754,2.5663195416865,1261.491,1270.783,3074.744,3070.463,-0.0373242,0.04656643,0.03579642,-0.905871689319611,-0.378902107477188,0.611794590950012,-0.917774783907129,-0.394892849856044,0.568146310914365,0
3.260009765625,-2.58796739578247,1.9890673160553,2.51776528358459,-2.31771654397337,1.96856770107001,2.57763403905129,1253.251,1267.958,3070.466,3073.452,-0.03563043,0.04704057,0.03433814,-0.896658837795258,-0.374746739864349,0.606793940067291,-0.908134108040216,-0.390744736359816,0.562178273303667,0
3.27999877929688,-2.60571193695068,1.9816575050354,2.52979612350464,-2.33577134012187,1.96079922667992,2.58881081793642,1264.57,1265.409,3062.194,3061.185,-0.0339095,0.04752987,0.03281977,-0.887240767478943,-0.37049412727356,0.601545989513397,-0.898304216251578,-0.386515208538549,0.556093102023818,0
3.29998779296875,-2.6232647895813,1.9743344783783,2.54172348976135,-2.35362764460945,1.95311615770631,2.59986472102797,1259.022,1264.193,3062.031,3056.893,-0.0322381,0.04800537,0.03132525,-0.877622783184052,-0.366154432296753,0.596371591091156,-0.888274735793772,-0.382199803288803,0.549884375850026,0
3.32000732421875,-2.64062070846558,1.96709978580475,2.55354237556458,-2.37130830610839,1.94550866300381,2.61080989274252,1249.072,1261.329,3058.538,3060.616,-0.03057256,0.04847122,0.02985169,-0.867803752422333,-0.361732989549637,0.590948343276978,-0.878034183119985,-0.377793579561194,0.543544985919778,0
3.33999633789063,-2.65777683258057,1.9599552154541,2.56524753570557,-2.38875555478454,1.93800159931817,2.62161057080077,1260.54,1258.863,3050.265,3047.895,-0.02886547,0.04895369,0.02831252,-0.857793271541595,-0.357228636741638,0.585262358188629,-0.867618167158097,-0.373311858882592,0.53709697585572,0
3.36001586914063,-2.67472839355469,1.95290207862854,2.5768404006958,-2.40601888046917,1.93057367255756,2.63229739176581,1256.692,1258.027,3049.347,3042.268,-0.0271994,0.04942324,0.02679279,-0.847593069076538,-0.35264778137207,0.579639792442322,-0.856999388527103,-0.368742895092007,0.53052344604056,0
3.3800048828125,-2.69147253036499,1.9459422826767,2.58831477165222,-2.42304196557559,1.92324911460621,2.64283549236868,1252.584,1255.656,3042.685,3043.156,-0.02556422,0.04988435,0.02528519,-0.837201595306396,-0.347993701696396,0.573721170425415,-0.846214826007803,-0.364102599125748,0.523847288101157,0
3.39999389648438,-2.70800495147705,1.93907678127289,2.59967064857483,-2.43984769972619,1.91601807669906,2.65323904237604,1252.202,1253.328,3042.187,3034.604,-0.02391412,0.05034292,0.02376663,-0.826637387275696,-0.34327632188797,0.567797958850861,-0.835253140422974,-0.35938609205264,0.51706148254665,0
3.42001342773438,-2.7243230342865,1.93230676651001,2.61090350151062,-2.45645774020782,1.90887124031063,2.66352144868012,1246.827,1251.514,3036.894,3034.786,-0.02226083,0.0507941,0.02226199,-0.815894424915314,-0.338493764400482,0.561639249324799,-0.824102019042908,-0.354588076049064,0.510158407210813,0
3.44000244140625,-2.74042248725891,1.92563426494598,2.62200856208801,-2.47281804716281,1.90183185728196,2.67364925803476,1257.176,1249.362,3028.524,3023.341,-0.02059209,0.05125345,0.0207125,-0.804980456829071,-0.333644807338715,0.555256247520447,-0.812800388649434,-0.349725300221754,0.503162159625937,0
3.45999145507813,-2.75630044937134,1.91905927658081,2.63298749923706,-2.48895081463434,1.8948903781363,2.68363620960993,1252.253,1248.622,3027.528,3018.953,-0.01898408,0.05169494,0.01919328,-0.793898642063141,-0.328736633062363,0.548949241638184,-0.80133641229185,-0.344792671461508,0.496065412155666,0
3.48001098632813,-2.77195358276367,1.91258382797241,2.64383625984192,-2.50487694859767,1.88803780761656,2.69349524520019,1242.227,1246.257,3024.276,3022.322,-0.0173995,0.05212188,0.01770564,-0.782655119895935,-0.323777139186859,0.54243677854538,-0.789697369743255,-0.339784716610052,0.488860290373601,0
3.5,-2.78737878799438,1.90620875358582,2.65455007553101,-2.5205447997813,1.88129636896134,2.70319439144611,1251.198,1243.851,3017.075,3011.138,-0.01578243,0.05255702,0.01617175,-0.771261215209961,-0.318767905235291,0.53569108247757,-0.777924000354857,-0.334718964672089,0.481572013878822,0
3.51998901367188,-2.80257320404053,1.8999342918396,2.66512989997864,-2.53597583877076,1.87465682397749,2.71274693966292,1248.039,1243.353,3015.573,3005.23,-0.01420264,0.05297808,0.01466307,-0.759716391563416,-0.313711673021317,0.528993606567383,-0.766004036374581,-0.329590137176618,0.474192988348404,0
3.54000854492188,-2.81753396987915,1.89376187324524,2.67557168006897,-2.55119019794619,1.86811051026429,2.72216535275294,1240.123,1241.24,3011.341,3007.507,-0.01264256,0.05338499,0.01318844,-0.748026072978973,-0.308612823486328,0.52208423614502,-0.753924423002452,-0.324392617007921,0.466715132239272,0
3.55999755859375,-2.83225798606873,1.88769257068634,2.68587112426758,-2.56613872308604,1.86167857751006,2.73141920191151,1249.187,1238.896,3004.165,2996.546,-0.0110633,0.05379644,0.01167873,-0.736202001571655,-0.303472608327866,0.514971971511841,-0.741727567798258,-0.319144650954242,0.459164697851087,0
3.57998657226563,-2.84674286842346,1.88172674179077,2.69602942466736,-2.58084213759183,1.85535210901407,2.74052131591136,1244.875,1238.465,3002.655,2992.008,-0.009535715,0.05419007,0.01020386,-0.724244177341461,-0.298294007778168,0.507920801639557,-0.72940084364523,-0.31384080592,0.451533868397061,0
3.60000610351563,-2.86098623275757,1.87586498260498,2.70604300498962,-2.59531978247425,1.84912278287974,2.74948366775945,1236.295,1236.382,2998.767,2994.805,-0.008031028,0.05456874,0.008764321,-0.712162017822266,-0.293083280324936,0.500675439834595,-0.716930938559024,-0.308475354130224,0.443814403124743,0
3.6199951171875,-2.8749852180481,1.87010812759399,2.71590781211853,-2.60952509409627,1.84301063413925,2.75827743234631,1244.653,1234.146,2992.217,2984.016,-0.006502374,0.05495162,0.007290949,-0.699966907501221,-0.287842243909836,0.493244558572769,-0.704361775018033,-0.303067194200314,0.436033492140578,0
3.6400146484375,-2.88873839378357,1.86445665359497,2.72562503814697,-2.62349913748426,1.83699799365897,2.76692803087948,1240.958,1233.903,2990.394,2979.208,-0.005018461,0.05531811,0.005851596,-0.687656819820404,-0.282571882009506,0.485863149166107,-0.691660998977508,-0.297602405088683,0.428171106749629,0
3.66000366210938,-2.90224313735962,1.85891127586365,2.73519015312195,-2.63719712493647,1.83110413233575,2.77540773763803,1237.215,1231.958,2984.43,2979.617,-0.003567038,0.05567244,0.004438501,-0.67524129152298,-0.277277261018753,0.478254795074463,-0.678873453515702,-0.29210028151913,0.420255006953505,0
3.67999267578125,-2.91549754142761,1.85347175598145,2.74460339546204,-2.65063849381582,1.82532068681534,2.78372858527554,1237.301,1230.333,2983.134,2971.761,-0.002112952,0.05601947,0.003031363,-0.662731766700745,-0.271963059902191,0.470657050609589,-0.665986083416798,-0.286555206197011,0.41227711095171,0
3.70001220703125,-2.92850017547607,1.84813952445984,2.75386118888855,-2.66384123964357,1.81963991412768,2.79190171387692,1232.359,1229.128,2978.26,2971.782,-0.0006721818,0.05635477,0.001654848,-0.650130689144135,-0.266629248857498,0.462894022464752,-0.65298533214413,-0.280961346123326,0.404229026602262,0
3.72000122070313,-2.94124937057495,1.84291386604309,2.76296067237854,-2.6767633032417,1.81407991116207,2.79990108680742,1239.903,1227.159,2971.558,2962.494,0.0007718857,0.05668992,0.0002613,-0.637446939945221,-0.261276423931122,0.454974085092545,-0.639917282339434,-0.275338529371411,0.396139281255611,0
3.739990234375,-2.95374274253845,1.83779573440552,2.77190327644348,-2.68942333385363,1.80863265367006,2.80773824883709,1236.104,1226.923,2970.024,2958.214,0.002159485,0.05700757,-0.001091363,-0.62468010187149,-0.255906313657761,0.447131812572479,-0.62676873176137,-0.26968107538565,0.387999702095468,0
3.760009765625,-2.965980052948,1.83278501033783,2.78068590164185,-2.70183851231475,1.80329074921818,2.81542383572149,1228.071,1225.17,2966.376,2960.969,0.003514138,0.05730975,-0.002401106,-0.611843407154083,-0.250525802373886,0.439135253429413,-0.613526094901139,-0.263983138701136,0.379801879044709,0
3.77999877929688,-2.97795867919922,1.82788228988647,2.78930592536926,-2.7139695770734,1.79807109095524,2.82293354268985,1235.041,1223.076,2961.062,2951.244,0.004884724,0.05761274,-0.003730023,-0.59894859790802,-0.24513766169548,0.431005120277405,-0.60023651686137,-0.258265004538452,0.371574997167698,0
3.79998779296875,-2.98967838287354,1.82308757305145,2.79776430130005,-2.72583438304408,1.79296599641037,2.83027842278479,1231.98,1222.989,2958.886,2946.997,0.006210988,0.05790067,-0.005018993,-0.585992515087128,-0.239740997552872,0.422920107841492,-0.586886736182787,-0.252520966862155,0.36331084698941,0
3.82000732421875,-3.00113844871521,1.81840085983276,2.80605816841125,-2.73744929742843,1.78796842323393,2.8374686080838,1226.331,1221.319,2954.957,2948.147,0.007508782,0.05817483,-0.006268016,-0.572987854480743,-0.234340816736221,0.414696902036667,-0.573463232144022,-0.246745208083563,0.355001058539243,0
3.83999633789063,-3.01233744621277,1.81382203102112,2.81418561935425,-2.74877791451009,1.78309403578861,2.84448156171422,1232.724,1219.403,2949.755,2939.321,0.008808206,0.05844738,-0.007524495,-0.559944808483124,-0.228939235210419,0.40636745095253,-0.560014026276881,-0.240958390526246,0.346675359432959,0
3.86001586914063,-3.02327442169189,1.80935120582581,2.82214760780334,-2.7598539723994,1.77832831750807,2.85133816917351,1229.078,1219.261,2947.854,2935.95,0.01005511,0.05870353,-0.008735169,-0.546861946582794,-0.223536238074303,0.398097723722458,-0.546505271550556,-0.235145950758426,0.338312796746137,0
3.8800048828125,-3.03394961357117,1.80498862266541,2.8299412727356,-2.77064299647982,1.77368610185671,2.85801708903178,1225.946,1217.532,2943.099,2936.047,0.01126554,0.05894719,-0.009911221,-0.533754110336304,-0.218137949705124,0.389678210020065,-0.532985466132484,-0.229328756186666,0.329943393154704,0
3.89999389648438,-3.04436230659485,1.80073380470276,2.83756709098816,-2.78116151864576,1.76916027562219,2.86452855531919,1226.233,1216.256,2941.566,2929.587,0.01246659,0.05918284,-0.01106916,-0.520628750324249,-0.212746948003769,0.381287902593613,-0.519441457145543,-0.223501147495394,0.321559006401168,0
3.92001342773438,-3.05451226234436,1.79658627510071,2.8450231552124,-2.79142456801014,1.76474437219711,2.87088187177258,1222.632,1215.329,2937.342,2929.25,0.0136424,0.05940692,-0.01219089,-0.507492005825043,-0.20736400783062,0.372799396514893,-0.505860052376089,-0.217657448443621,0.313151469876846,0
