t,x_s1,x_s2,x_s3,x_s_d1,x_s_d2,x_s_d3,propellers_rpms1,propellers_rpms2,propellers_rpms3,propellers_rpms4,rollRad,pitchRad,yawRad,v_s1,v_s2,v_s3,v_s_d1,v_s_d2,v_s_d3,insideCount
0,-0.0599999986588955,2.94000005722046,1.17999994754791,-0.0599999986588955,2.94000005722046,1.17999994754791,0,0,0,0,0,0,0,0,0,0,-1.06581410364015E-15,4.44089209850063E-16,4.44089209850063E-16,0
0.0199966430664063,-0.0599999986588955,2.94000005722046,1.17811644077301,-0.0600018680476204,2.93999925287472,1.18000110478858,0,0,0,0,-0.01635288,0.0001297794,-0.01587137,-1.10653664009419E-09,-7.76775763711157E-08,-0.0941759571433067,-0.000279892991557604,-0.000120430134961378,0.000173267094926113,5
0.0399971008300781,-0.0599999986588955,2.94000005722046,1.17242503166199,-0.0600148681826738,2.93999365927978,1.18000915249146,0,0,0,0,-0.03270202,0.0005238493,-0.03175127,-1.08383135799528E-09,-7.60859677484405E-08,-0.284568399190903,-0.00111080915396111,-0.000477950146533378,0.000687643781479785,5
0.05999755859375,-0.0599058866500854,2.93990302085876,1.16596508026123,-0.0600498857373401,2.93997859220429,1.18003083002592,1868.2,3252.808,3183.851,1722.39,-0.04942188,0.0003295515,-0.01369504,0.00470567448064685,-0.00484920619055629,-0.322996914386749,-0.00247936261166862,-0.00106680046642749,0.00153484356504269,5
0.0799980163574219,-0.0598203726112843,2.93960738182068,1.16000306606293,-0.0601175407449857,2.93994948214456,1.18007271169851,1925.474,2314.348,3252.136,2829.455,-0.07543297,-0.002136388,0.0209481,0.00427573407068849,-0.0147785991430283,-0.298097878694534,-0.00437227586895222,-0.00188126815916228,0.00270664704326441,5
0.0999984741210938,-0.059937447309494,2.93904495239258,1.15498650074005,-0.0602281887669101,2.93990187339187,1.18014120809498,980.1618,1498.864,3914.968,3896.595,-0.1031964,-0.008062987,0.06330854,-0.00585378287360072,-0.0281168855726719,-0.250826269388199,-0.00677637982016689,-0.00291568692648091,0.00419490191241918,4
0.119998931884766,-0.0604638531804085,2.93818354606628,1.15081310272217,-0.0603919230601972,2.93983142309968,1.18024256742227,346.3662,980.3549,4172.91,4613.389,-0.1214337,-0.0154213,0.1040028,-0.0263202451169491,-0.0430688858032227,-0.208669319748878,-0.00967861374975049,-0.00416443710735115,0.00599152296740588,4
0.139999389648438,-0.0615636296570301,2.93704128265381,1.14728271961212,-0.0606185767455666,2.93973390035084,1.18038287685052,352.8793,747.0805,3975.38,4854.977,-0.1254019,-0.02116734,0.135107,-0.0549888610839844,-0.0571144297719002,-0.176518857479095,-0.0130660253322238,-0.00562194567796536,0.00808849210174802,4
0.159999847412109,-0.06334088742733,2.93568086624146,1.14427483081818,-0.0609177249752248,2.93960518522485,1.18056806385509,820.9598,814.9449,3462.707,4692.415,-0.1184595,-0.02352423,0.1522707,-0.088862881064415,-0.0680154338479042,-0.150396719574928,-0.0169257706321904,-0.00728268625174051,0.0104778583075938,3
0.179996490478516,-0.0658469498157501,2.9341721534729,1.1418251991272,-0.0612986060586912,2.93944130273522,1.18080384738964,1348.73,1083.391,3006.709,4255.213,-0.1079805,-0.02278015,0.1557786,-0.125303015112877,-0.0754313841462135,-0.122479721903801,-0.0212442472567593,-0.00914080609902243,0.0131512010557717,3
0.199996948242188,-0.0690850391983986,2.93255376815796,1.140061378479,-0.0617704296168641,2.93923829023936,1.18109592864822,1636.389,1381.117,2918.563,3666.339,-0.09982646,-0.02030128,0.1501567,-0.161904662847519,-0.0809161439538002,-0.0881882309913635,-0.0260104776919234,-0.0111915819022102,0.0161017247421801,3
0.219997406005859,-0.0730103850364685,2.93082594871521,1.13903546333313,-0.0623419453860714,2.93899238297017,1.18144972413443,1641.454,1580.732,3148.1,3113.128,-0.09583758,-0.01735475,0.1421887,-0.196267291903496,-0.0863867104053497,-0.0512972213327885,-0.0312111627562649,-0.0134292913950757,0.0193211965399932,3
0.239997863769531,-0.0775501281023026,2.92897343635559,1.13863301277161,-0.0630217183703222,2.93869989564571,1.18187053599376,1524.188,1624.273,3417.673,2777.433,-0.09475527,-0.01467775,0.1377326,-0.226987197995186,-0.0926247760653496,-0.0201242193579674,-0.0368338920540454,-0.0158485947310391,0.02280193382306,3
0.259998321533203,-0.0826390385627747,2.92699217796326,1.1386353969574,-0.063818066443955,2.93835724931701,1.18236351338666,1438.967,1500.849,3533.281,2744.188,-0.09438989,-0.01258823,0.1393009,-0.254445523023605,-0.0990578904747963,0.000118782743811607,-0.04286636357961,-0.0184441987007453,0.0265363210638542,3
0.279998779296875,-0.0882449299097061,2.9249005317688,1.1388521194458,-0.0647390625194898,2.93796097043536,1.18293365383054,1400.495,1275.976,3476.718,2977.616,-0.09321117,-0.01110538,0.1456829,-0.280294507741928,-0.104584746062756,0.0108335092663765,-0.0492963837173861,-0.0212108567320638,0.030516809833474,3
0.299999237060547,-0.0943707078695297,2.92273235321045,1.13920700550079,-0.065792536715479,2.93750768991949,1.18358580454179,1350.584,1061.566,3345.177,3324.794,-0.09053309,-0.009935189,0.15331,-0.306288629770279,-0.108407445251942,0.0177432857453823,-0.0561118672418845,-0.0241433688900884,0.0347359188016424,3
0.319999694824219,-0.101036012172699,2.92052555084229,1.13972508907318,-0.0669860785243584,2.93699414222283,1.18432466377777,1280.963,941.151,3237.472,3590.524,-0.08597856,-0.008523713,0.1583601,-0.333265334367752,-0.110342934727669,0.025903157889843,-0.0633008373176985,-0.0272365818771378,0.0391862337367069,3
0.339996337890625,-0.108251586556435,2.91831183433533,1.14046168327332,-0.068326768706371,2.93641728069206,1.18515461486636,1253.136,944.1631,3171.009,3649.858,-0.07944689,-0.006291984,0.1584775,-0.360779047012329,-0.11068032681942,0.0368287265300751,-0.0708499516420146,-0.0304847548730522,0.0438594951176439,4
0.359996795654297,-0.116003155708313,2.91611456871033,1.14145278930664,-0.0698222324154443,2.93577382443646,1.1860803781411,1319.528,1047.071,3120.951,3498.17,-0.07154742,-0.002963033,0.153475,-0.387578129768372,-0.109859146177769,0.0495555736124516,-0.0787503322603694,-0.0338840679420472,0.0487502070677249,4
0.379997253417969,-0.124251514673233,2.91394948959351,1.14270770549774,-0.0714791088463715,2.935060916796,1.18710606357981,1455.367,1181.657,3090.653,3231.411,-0.06361173,0.001258838,0.1450399,-0.412418156862259,-0.108257241547108,0.0627442300319672,-0.0869889214763108,-0.0374289027221294,0.0538502862508218,4
0.399997711181641,-0.13294330239296,2.91182613372803,1.14421725273132,-0.0733040467096699,2.93427569701629,1.18823578705104,1579.781,1273.743,3104.534,2981.693,-0.05701562,0.005826848,0.1357474,-0.434589833021164,-0.106164798140526,0.0754744410514832,-0.0955541759940907,-0.0411142924556206,0.059152586816983,4
0.419998168945313,-0.142023682594299,2.90975022315979,1.14595782756805,-0.0753034649285836,2.93341540321397,1.18947352217404,1631.301,1288.614,3159.013,2844.75,-0.05243871,0.01017632,0.1278554,-0.454019069671631,-0.10380095988512,0.0870280265808105,-0.104434660908044,-0.0449353170220673,0.0646500300148815,4
0.439998626708984,-0.151446104049683,2.90772438049316,1.14789569377899,-0.0774835548069347,2.93247737144397,1.19082310166083,1606.771,1238.081,3219.498,2842.997,-0.04965783,0.01397548,0.12246,-0.471121400594711,-0.101289466023445,0.0968946516513824,-0.113619049702587,-0.0488871029382406,0.0703356041918149,4
0.459999084472656,-0.161176815629005,2.90575170516968,1.14999711513519,-0.0798502821969742,2.93145903476675,1.19228821865812,1541.444,1158.244,3252.873,2938.161,-0.04788683,0.01718646,0.1193391,-0.486535608768463,-0.098638504743576,0.105069845914841,-0.123096124252221,-0.0529648233581361,0.0762023647937057,4
0.479999542236328,-0.171193644404411,2.90383625030518,1.15223920345306,-0.0824093896672336,2.93035792231548,1.19387242808941,1474.387,1086.193,3248.24,3066.909,-0.0462884,0.01998784,0.1173765,-0.50084125995636,-0.0957777574658394,0.112105242908001,-0.13285477482153,-0.0571636980729742,0.0822434343651008,5
0.499996185302734,-0.181481048464775,2.90198349952698,1.15461587905884,-0.085165853614868,2.9291718928855,1.19557881058158,1431.846,1046.314,3216.366,3169.583,-0.04433471,0.02264442,0.1152229,-0.514371275901794,-0.0926391929388046,0.118832193315029,-0.14288206208162,-0.0614781596510152,0.0884508028450299,5
0.519996643066406,-0.192024260759354,2.9001989364624,1.15713489055634,-0.0881260274065667,2.92789821280061,1.19741129917127,1423.301,1044.912,3177.72,3210.513,-0.04191975,0.02537878,0.1118879,-0.527159750461578,-0.0892276167869568,0.125952303409576,-0.153170920546857,-0.0659051680111775,0.0948200963613094,5
0.539997100830078,-0.202804505825043,2.89848613739014,1.15980994701385,-0.0912944900108037,2.92653491185861,1.1993727284581,1445.681,1073.386,3148.617,3184.686,-0.03929121,0.0282893,0.1070512,-0.539013206958771,-0.0856389552354813,0.133754312992096,-0.163708678212627,-0.0704392707438901,0.101343470339432,5
0.55999755859375,-0.213797777891159,2.89684557914734,1.16265285015106,-0.094676112580471,2.92507989413848,1.20146611391775,1484.524,1113.965,3138.413,3114.02,-0.03688425,0.03132853,0.1010581,-0.549663603305817,-0.0820308849215508,0.142146110534668,-0.17448465888317,-0.0750758741803766,0.108014315705644,5
0.579998016357422,-0.224976047873497,2.89527416229248,1.16566801071167,-0.0982755538235842,2.92353115512831,1.2036943395124,1521.003,1148.779,3145.877,3034.962,-0.03512763,0.03434588,0.09465438,-0.55891364812851,-0.0785748809576035,0.15075546503067,-0.185488294752812,-0.0798104312890852,0.11482609048482,5
0.599998474121094,-0.236310720443726,2.89376592636108,1.16885161399841,-0.102097262171133,2.92188678079254,1.20606015903275,1540.392,1167.025,3163.404,2979.265,-0.03429246,0.0371612,0.08861588,-0.566733181476593,-0.075417585670948,0.1591776907444,-0.196709126405959,-0.0846384416756885,0.121772319800455,5
0.619998931884766,-0.247776016592979,2.89231252670288,1.17219471931458,-0.106145477944935,2.92014494663912,1.20856619743999,1534.892,1167.331,3182.159,2963.937,-0.03442083,0.03963268,0.08345591,-0.573265314102173,-0.072664275765419,0.167154803872108,-0.208136802817102,-0.0895554515830839,0.128846595874672,5
0.639999389648438,-0.259351223707199,2.89090490341187,1.17568719387054,-0.110424235525481,2.91830391678686,1.21121495220784,1506.748,1156.402,3194.917,2986.807,-0.03534654,0.04169902,0.07929445,-0.578761518001556,-0.0703796520829201,0.174626067280769,-0.219761081350814,-0.0945570538913933,0.136042578028218,5
0.659999847412109,-0.271020978689194,2.88953304290771,1.17932069301605,-0.114937365519793,2.91636204303257,1.21400879466451,1466.869,1144.324,3197.624,3031.206,-0.03678251,0.04338574,0.07590485,-0.583487629890442,-0.0685957744717598,0.181674093008041,-0.231571827761751,-0.0996388881179631,0.143353992680462,5
0.679996490478516,-0.282773971557617,2.88818645477295,1.18308985233307,-0.119687567829752,2.91431816368388,1.21694939617789,1429.409,1139.643,3190.507,3075.131,-0.03844753,0.04477674,0.07288436,-0.587647676467896,-0.0673250779509544,0.188457027077675,-0.24355671368107,-0.104795649710095,0.15077320798381,5
0.699996948242188,-0.294600933790207,2.88685488700867,1.18699264526367,-0.124680083855354,2.91217002351282,1.22004000142426,1403.849,1146.131,3177.665,3102.33,-0.04017005,0.04596658,0.06986071,-0.591349363327026,-0.0665751248598099,0.195139735937119,-0.255710395848158,-0.11002503961202,0.158296916205407,5
0.719997406005859,-0.30649322271347,2.88552761077881,1.19102883338928,-0.129917262555645,2.90991661182791,1.22328206452116,1393.602,1162.856,3163.218,3107,-0.04192987,0.04702041,0.06663161,-0.594613552093506,-0.0663603395223618,0.201808854937553,-0.26802079535749,-0.115321860608138,0.165917639927336,5
0.739997863769531,-0.31844162940979,2.88419342041016,1.19519948959351,-0.135402141159277,2.90755662179454,1.22667746565781,1392.925,1185.185,3153.293,3093.624,-0.04382764,0.04795309,0.06321752,-0.597421169281006,-0.0667090266942978,0.208531573414803,-0.280478211503383,-0.120681938755799,0.173629373950669,5
0.759998321533203,-0.330436706542969,2.88284015655518,1.19950461387634,-0.141137563960274,2.90508882959244,1.2302279655877,1392.485,1207.643,3149.689,3074.541,-0.04600025,0.04873476,0.05980916,-0.599755704402924,-0.0676605477929115,0.215258687734604,-0.293073051970232,-0.126101146749576,0.181426180175103,5
0.779998779296875,-0.34246951341629,2.88145518302917,1.20394241809845,-0.147126184485884,2.90251209348295,1.23393520697061,1387.222,1226.554,3150.991,3059.15,-0.04854304,0.04931837,0.05664816,-0.601640701293945,-0.0692543908953667,0.221889898180962,-0.305795832832518,-0.131575403921268,0.189302187598958,5
0.799999237060547,-0.354532480239868,2.88002490997314,1.20850884914398,-0.153370467664426,2.8998253528763,1.23780071571459,1373.87,1240.622,3154.184,3054.475,-0.05147731,0.04966075,0.05393349,-0.603148758411407,-0.0715193673968315,0.22832353413105,-0.318637178554805,-0.1371006762399,0.197251592319181,5
0.819999694824219,-0.366620272397995,2.8785355091095,1.21319890022278,-0.159872691993147,2.89702762739878,1.24182590231796,1352.789,1250.858,3156.37,3061.837,-0.0547498,0.04973928,0.05175836,-0.604390263557434,-0.0744685381650925,0.234500393271446,-0.331587821991737,-0.142672976311719,0.205268657531342,4
0.839996337890625,-0.378730058670044,2.8769736289978,1.21800708770752,-0.166633637018892,2.89411858163313,1.24601124935738,1326.817,1259.561,3155.701,3078.075,-0.05825612,0.04955981,0.05010224,-0.605488419532776,-0.0780985578894615,0.240411102771759,-0.344636106234817,-0.148287288494656,0.213346167053785,4
0.859996795654297,-0.390861123800278,2.87532567977905,1.2229288816452,-0.173657794122436,2.89109628306371,1.25035953721147,1299.853,1269.029,3152.045,3097.504,-0.06187588,0.04915051,0.0488658,-0.606554269790649,-0.082393154501915,0.246090397238731,-0.357777960707973,-0.153941861333544,0.221481601006014,4
0.879997253417969,-0.403014481067657,2.87357926368713,1.22796022891998,-0.180945630646592,2.88796053060595,1.25487105518773,1277.441,1280.902,3145.255,3113.609,-0.0655111,0.04855384,0.04792145,-0.607668817043304,-0.0873261243104935,0.251568049192429,-0.371001963495383,-0.159631780297098,0.229667888678032,4
0.899997711181641,-0.415192186832428,2.87172198295593,1.23309862613678,-0.188498701076517,2.88471065540831,1.25954676558649,1260.112,1295.247,3138.248,3123.397,-0.06911169,0.04780662,0.04717872,-0.608883857727051,-0.0928694903850555,0.256922096014023,-0.384299280991351,-0.165353244531568,0.237899561647111,4
0.919998168945313,-0.427396714687347,2.86974215507507,1.23834228515625,-0.196318384305134,2.8813460641717,1.26438752200817,1246.458,1310.955,3132.437,3128.017,-0.07266701,0.04693381,0.04660867,-0.610226511955261,-0.0989950969815254,0.26218119263649,-0.397661187980262,-0.171102499820431,0.246171218589148,4
0.939998626708984,-0.439631015062332,2.86762857437134,1.24368929862976,-0.204405885800988,2.87786623821667,1.26939407069523,1236.204,1326.622,3128.375,3128.568,-0.07618345,0.04594846,0.04623105,-0.611715793609619,-0.105674512684345,0.267348408699036,-0.411079067636589,-0.176875838584386,0.254477525278661,4
0.959999084472656,-0.451898485422134,2.86537098884583,1.24913763999939,-0.212762239776093,2.87427073255068,1.27456705187416,1227.073,1341.024,3126.099,3128.409,-0.07967645,0.04485299,0.04609985,-0.613374292850494,-0.112877726554871,0.272418260574341,-0.424544411524882,-0.18266959988136,0.262813214588797,3
0.979999542236328,-0.464203178882599,2.86295962333679,1.25468528270721,-0.221388311353785,2.87055917493534,1.27990700109753,1216.925,1353.376,3125.092,3130.773,-0.08315294,0.04364477,0.04627115,-0.615235149860382,-0.12057226151228,0.277379840612411,-0.438048819599778,-0.188480169406503,0.271173086491326,3
0.999996185302734,-0.476549983024597,2.86038517951965,1.26032996177673,-0.230283076085251,2.86673200616235,1.28541328418271,1205.129,1363.637,3124.756,3136.769,-0.08659535,0.04232607,0.04677501,-0.617342472076416,-0.128722429275513,0.282232165336609,-0.45158141622203,-0.194302867676075,0.279550408447474,3
1.01999664306641,-0.488944888114929,2.85763931274414,1.26606976985931,-0.239450461003889,2.86278753653895,1.29108833215045,1191.613,1372.244,3124.802,3146.233,-0.08996478,0.0409064,0.04760775,-0.619744777679443,-0.137288853526115,0.286988765001297,-0.465139182559269,-0.200136395770846,0.2879433116562,3
1.03999710083008,-0.50139456987381,2.85471487045288,1.27190244197845,-0.248889165986195,2.85872632547195,1.29693134016237,1179.928,1380.047,3123.305,3156.779,-0.0932117,0.03940665,0.04872701,-0.622484624385834,-0.146224230527878,0.291633516550064,-0.478711464817306,-0.205976169660809,0.296345200911388,3
1.05999755859375,-0.513906538486481,2.85160517692566,1.27782702445984,-0.258599401509697,2.85454828239877,1.30294243851408,1170.314,1387.584,3121.813,3166.404,-0.09629937,0.03785003,0.05008139,-0.6255983710289,-0.155481904745102,0.296226412057877,-0.492290296490434,-0.211818761581115,0.30475114456651,3
1.07999801635742,-0.526488661766052,2.84830498695374,1.28384292125702,-0.268581219802083,2.85025338484727,1.30912165953701,1161.877,1394.895,3120.656,3175.588,-0.09920275,0.03625836,0.05162748,-0.629107356071472,-0.165013700723648,0.300795584917068,-0.50586781946303,-0.217660790404144,0.31315627807366,3
1.09999847412109,-0.539149105548859,2.84480953216553,1.28995013237,-0.278834517009062,2.84584167750307,1.31546893894041,1156.589,1401.844,3119.891,3182.479,-0.1019021,0.0346545,0.05332576,-0.633022904396057,-0.174770995974541,0.305358469486237,-0.519436284009554,-0.223498921639497,0.321555803983559,3
1.11999893188477,-0.551896095275879,2.84111547470093,1.29614889621735,-0.289359035362208,2.84131327127672,1.32198411715334,1154.145,1408.251,3119.86,3187.295,-0.1043948,0.03305531,0.05515587,-0.637348771095276,-0.18470586836338,0.309939414262772,-0.532988048794549,-0.229329867434001,0.329944991945551,3
1.13999938964844,-0.564737856388092,2.83721995353699,1.30243992805481,-0.300154365346813,2.83666834237095,1.3286669406667,1153.231,1413.7,3120.667,3191.578,-0.1066889,0.03147182,0.05711336,-0.642085194587708,-0.194771468639374,0.314553588628769,-0.546515580872639,-0.235150386571708,0.338319178707607,3
1.15999603271484,-0.577682495117188,2.83312153816223,1.30882430076599,-0.311217811600473,2.8319080505249,1.33551574092274,1153.161,1417.903,3122.517,3195.972,-0.1087917,0.02991192,0.05919742,-0.647233128547668,-0.204923182725906,0.319219261407852,-0.560008885098767,-0.240956178420931,0.346672176798798,3
1.17999649047852,-0.590738296508789,2.82881927490234,1.31530332565308,-0.322552888823985,2.82703088346102,1.34253269368871,1152.633,1420.735,3125.464,3201.657,-0.1107039,0.02838271,0.06140562,-0.652794361114502,-0.215118363499641,0.323951840400696,-0.573465794611364,-0.246746310641672,0.355002644828593,3
1.19999694824219,-0.603913724422455,2.82431316375732,1.32187795639038,-0.334156660511822,2.8220381046756,1.34971598112778,1154.174,1422.599,3127.741,3207.412,-0.1124206,0.02689543,0.06371722,-0.65876841545105,-0.225311473011971,0.328732311725616,-0.58687652428584,-0.252516572968185,0.36330452533874,3
1.21999740600586,-0.617216885089874,2.81960391998291,1.32855021953583,-0.346028131869748,2.8169301422008,1.35706498741494,1156.204,1423.636,3130.886,3213.23,-0.1139439,0.02545914,0.06611189,-0.665157437324524,-0.235463425517082,0.33361080288887,-0.600233974716476,-0.258263910724523,0.371573423458908,3
1.23999786376953,-0.630655944347382,2.81469321250916,1.33532214164734,-0.358166167196084,2.81170748469733,1.36457900949675,1157.705,1423.887,3134.611,3220.129,-0.1152717,0.02408271,0.06856818,-0.67195588350296,-0.245535627007484,0.338594913482666,-0.613531154887641,-0.263985315871967,0.379805011417393,2
1.2599983215332,-0.644239068031311,2.80958342552185,1.34219586849213,-0.370569492049568,2.80637068052165,1.37225725843336,1161.01,1423.584,3138.373,3226.067,-0.116395,0.02277875,0.07105375,-0.679154276847839,-0.255490273237228,0.343685179948807,-0.626761182173783,-0.269677827009021,0.387995028541113,2
1.27999877929688,-0.657973766326904,2.80427765846252,1.34917378425598,-0.383236695417198,2.80092033679326,1.3800988607405,1166.156,1422.947,3142.1,3230.924,-0.117316,0.02155745,0.07354216,-0.68673849105835,-0.265291094779968,0.348892956972122,-0.639917282339435,-0.275338529371412,0.396139281255613,2
1.29999923706055,-0.671867549419403,2.79877948760986,1.35625851154327,-0.396166231882091,2.79535711846185,1.3881028597315,1172.406,1421.895,3146.116,3235.154,-0.1180478,0.02042587,0.076015,-0.694690763950348,-0.274905294179916,0.354233622550964,-0.652992789539212,-0.280964554832093,0.404233643085061,2
1.31999588012695,-0.685927391052246,2.79309344291687,1.36345291137695,-0.409353883279578,2.78968284048584,1.3962666441615,1179.124,1420.304,3150.787,3239.032,-0.1186044,0.01938751,0.0784598,-0.702991187572479,-0.284304082393646,0.359721213579178,-0.665978677763212,-0.286552019751163,0.412272526499359,2
1.33999633789063,-0.700159788131714,2.78722429275513,1.37076020240784,-0.422802873722428,2.78389611561957,1.40459220990988,1185.43,1418.015,3156.41,3243.12,-0.1189948,0.01844463,0.08086852,-0.711618423461914,-0.293462634086609,0.365364581346512,-0.678873453515705,-0.29210028151913,0.420255006953505,2
1.3599967956543,-0.714570701122284,2.78117728233337,1.37818276882172,-0.436508776648329,2.77799884848916,1.41307681672372,1193.873,1415.461,3161.015,3246.357,-0.1192281,0.01760222,0.0832246,-0.720546841621399,-0.302353888750076,0.371129781007767,-0.691668290305691,-0.297605542343502,0.428175620429107,2
1.37999725341797,-0.729165852069855,2.77495813369751,1.3857239484787,-0.450469530727146,2.77199192602736,1.42171918854144,1202.489,1412.474,3166.464,3249.103,-0.119324,0.0168589,0.0855208,-0.729757249355316,-0.310959488153458,0.377056568861008,-0.704356955827446,-0.303065120637236,0.436030508832034,2
1.39999771118164,-0.743950307369232,2.76857280731201,1.39338672161102,-0.464682951063699,2.76587628833354,1.43051797280888,1209.523,1408.916,3172.577,3253.121,-0.1192958,0.01621266,0.08775441,-0.739225029945374,-0.319263190031052,0.383139789104462,-0.716933326165324,-0.308476381450513,0.44381588116678,2
1.41999816894531,-0.758928894996643,2.76202774047852,1.40117394924164,-0.47914673136562,2.75965292774086,1.43947174182117,1217.224,1405.014,3178.598,3256.611,-0.1191424,0.01566553,0.08991047,-0.748925387859344,-0.327250182628632,0.389362245798111,-0.729391385793766,-0.313836736470737,0.451528013536465,2
1.43999862670898,-0.774105489253998,2.75532960891724,1.40908825397491,-0.4938584461112,2.75332288788357,1.44857899406484,1225.756,1401.034,3184.177,3259.551,-0.1188718,0.01521841,0.09197541,-0.758832573890686,-0.334906786680222,0.395715892314911,-0.741725227577294,-0.31914364402254,0.459163249142831,2
1.45999908447266,-0.789483964443207,2.74848508834839,1.41713225841522,-0.508815552717244,2.74688726276417,1.45783815555978,1234.609,1396.991,3189.564,3262.184,-0.1184973,0.01486995,0.0939388,-0.768920361995697,-0.342222392559052,0.402202218770981,-0.753929052770513,-0.324394609067776,0.466717998286247,2
1.47999954223633,-0.805067181587219,2.74150133132935,1.42530870437622,-0.524015393706918,2.74034719582071,1.46724758120123,1243.159,1392.838,3195.174,3264.679,-0.1180334,0.01461759,0.09579305,-0.779162049293518,-0.349190682172775,0.408825099468231,-0.76599717101811,-0.329587183205524,0.474188738365705,2
1.49999618530273,-0.82085770368576,2.7343852519989,1.43362021446228,-0.539452231337361,2.73370515584365,1.47680371905302,1251.446,1388.595,3200.924,3266.949,-0.1174907,0.01445874,0.09753194,-0.789529085159302,-0.355808079242706,0.415576308965683,-0.777921739365859,-0.334717991831687,0.481570614218926,1
1.51999664306641,-0.836857616901398,2.72714376449585,1.44206929206848,-0.555129074991064,2.72695984797977,1.48650843206629,1259.14,1384.152,3207.194,3268.975,-0.1168734,0.01438975,0.09915274,-0.799993634223938,-0.362074166536331,0.422452867031097,-0.789701834723693,-0.339786637766398,0.488863054409188,1
1.53999710083008,-0.853068053722382,2.71978402137756,1.4506573677063,-0.571040013494911,2.72011381564173,1.49635806094328,1268.515,1380.05,3211.773,3270.173,-0.1161932,0.01440938,0.100647,-0.8105229139328,-0.367985218763351,0.429406046867371,-0.801329803423436,-0.344789827850059,0.496061320951293,1
1.55999755859375,-0.869489967823029,2.71231317520142,1.45938670635223,-0.587181951496087,2.71316839067337,1.50635068951315,1277.617,1375.912,3216.926,3270.752,-0.1154693,0.01451105,0.1020156,-0.82109409570694,-0.373545557260513,0.436469465494156,-0.812800388649436,-0.349725300221754,0.503162159625937,1
1.57999801635742,-0.886123478412628,2.70473790168762,1.46825933456421,-0.603551689586986,2.70612494969039,1.51648433719019,1284.434,1371.538,3222.666,3272.608,-0.1147167,0.01468606,0.1032663,-0.831679999828339,-0.3787622153759,0.443631738424301,-0.824108441976122,-0.354590839657789,0.510162383312438,0
1.59999847412109,-0.902968525886536,2.69706511497498,1.4772766828537,-0.620145926473056,2.69898491314762,1.52675696031579,1291.278,1367.155,3228.177,3273.943,-0.1139322,0.0149313,0.104395,-0.842254042625427,-0.383642613887787,0.450865149497986,-0.835248923368005,-0.359384277571697,0.517058871988737,0
1.61999893188477,-0.920024335384369,2.68930125236511,1.48643958568573,-0.636961261140657,2.69174974440622,1.53716645350051,1298.562,1363,3232.889,3274.782,-0.1131199,0.01524315,0.1053988,-0.852790296077728,-0.38819345831871,0.45814710855484,-0.846216901179681,-0.364103492014234,0.523848572731403,0
1.63999938964844,-0.937289655208588,2.68145275115967,1.49574899673462,-0.653994195024907,2.68442094880091,1.54771065096602,1305.846,1359.059,3237.125,3275.32,-0.1122895,0.01561658,0.1062766,-0.863265156745911,-0.392423063516617,0.465472340583801,-0.857007552155828,-0.368746407673381,0.530528499715628,0
1.65999603271484,-0.954762816429138,2.6735258102417,1.50520575046539,-0.671237824488362,2.67700149677403,1.55838527903188,1312.314,1355.258,3241.278,3276.003,-0.1114538,0.0160447,0.1070301,-0.873655736446381,-0.396342635154724,0.472837328910828,-0.867614155697522,-0.373310132863173,0.537094492570531,0
1.67999649047852,-0.972441494464874,2.66552639007568,1.51481056213379,-0.688695041988866,2.66949014378176,1.56919212826729,1317.32,1351.404,3246.036,3276.865,-0.1106133,0.01652146,0.1076625,-0.883940756320953,-0.399966329336166,0.48024109005928,-0.878036152828799,-0.377794427071868,0.543546205263364,0
1.69999694824219,-0.990323424339294,2.65746021270752,1.52456307411194,-0.706358800111611,2.66188992212981,1.58012683598675,1323.718,1348.174,3248.888,3276.917,-0.1097734,0.01704492,0.1081683,-0.894093096256256,-0.403304070234299,0.487627178430557,-0.888267004546665,-0.382196476749158,0.549879589839776,0
1.71999740600586,-1.00840532779694,2.64933276176453,1.53446364402771,-0.724225231782013,2.65420249571236,1.5911870082869,1329.823,1345.114,3252.264,3276.075,-0.1089473,0.01760852,0.1085518,-0.904097020626068,-0.406371802091599,0.495027601718903,-0.898302321135456,-0.386514393123025,0.556091928856661,0
1.73999786376953,-1.02668392658234,2.64114904403687,1.54451215267181,-0.742290383213093,2.64642956573347,1.60237019758524,1333.687,1342.013,3256.043,3276.368,-0.1081425,0.01820269,0.1088262,-0.913931667804718,-0.409186542034149,0.502425491809845,-0.908137821269591,-0.39074633405868,0.562180571969536,0
1.7599983215332,-1.04515564441681,2.63291382789612,1.5547080039978,-0.760550216073323,2.63857286977439,1.61367390396219,1337.536,1339.065,3259.349,3276.22,-0.1073547,0.01882404,0.1089935,-0.923578143119812,-0.411764174699783,0.509790420532227,-0.917769332013572,-0.394890504058555,0.568142935932543,0
1.77999877929688,-1.06381607055664,2.62463140487671,1.56505012512207,-0.779000609654483,2.63063418086074,1.62509557650306,1341.622,1336.427,3261.869,3275.672,-0.1065845,0.01946834,0.1090565,-0.933019578456879,-0.414118945598602,0.517103612422943,-0.927192788821983,-0.398945154262308,0.57397650459845,0
1.79999923706055,-1.08266091346741,2.61630606651306,1.57553732395172,-0.79763736303951,2.62261530652977,1.63663261464007,1345.384,1334.064,3263.92,3275.061,-0.1058388,0.02012987,0.1090196,-0.942241847515106,-0.416265726089478,0.524359881877899,-0.936404235539493,-0.402908582446823,0.579678828918647,0
1.81999588012695,-1.10168552398682,2.60794162750244,1.58616840839386,-0.816452590859454,2.61451963963547,1.64828013695421,1348.18,1331.897,3265.839,3274.737,-0.1051235,0.02080265,0.1088881,-0.951232254505157,-0.41822075843811,0.531554758548737,-0.945398129488514,-0.406778403752778,0.585246477711674,0
1.83999633789063,-1.12088513374329,2.59954166412354,1.59694218635559,-0.835449117627072,2.60634596486888,1.66003989195343,1349.48,1329.743,3268.312,3274.645,-0.1044343,0.02148172,0.1086676,-0.959979891777039,-0.420001894235611,0.538688242435455,-0.954174163352093,-0.410554485950274,0.590679260733698,0
1.8599967956543,-1.14025449752808,2.59110927581787,1.60785627365112,-0.854618942724365,2.59809772467243,1.67190692687406,1352.191,1328.291,3268.722,3273.865,-0.1037711,0.02216679,0.1083545,-0.968467891216278,-0.421621441841125,0.545703053474426,-0.962726969681477,-0.41423451957606,0.595973855278252,0
1.87999725341797,-1.15978837013245,2.5826473236084,1.6189090013504,-0.873957566090845,2.58977685529642,1.6838784559643,1354.787,1327.067,3269.691,3272.021,-0.1031421,0.02285264,0.1079541,-0.97669130563736,-0.423096269369125,0.55263751745224,-0.971053025860989,-0.417816988947023,0.601128080678429,0
1.89999771118164,-1.17948126792908,2.57415843009949,1.63009858131409,-0.893460418296025,2.58138532283915,1.69595165052899,1354.936,1325.818,3271.122,3271.545,-0.1025514,0.02353143,0.1074826,-0.984639525413513,-0.424443691968918,0.55947744846344,-0.979148917665041,-0.421300425017273,0.606139823365946,0
1.91999816894531,-1.1993271112442,2.56564474105835,1.64142239093781,-0.913122862707269,2.57292512231409,1.70812364027167,1355.165,1324.727,3272.042,3270.678,-0.1019905,0.02420181,0.1069432,-0.992303669452667,-0.425678640604019,0.566192746162415,-0.987011339258123,-0.424683405378145,0.611007036871143,0
1.93999862670898,-1.21932077407837,2.5571084022522,1.65287780761719,-0.932940197657643,2.56439827671719,1.72039151463653,1355.938,1323.964,3272.178,3269.227,-0.1014552,0.02486142,0.106339,-0.999677300453186,-0.426813542842865,0.572769165039063,-0.99463709319481,-0.4279645542582,0.615727741822989,0
1.95999908447266,-1.23945581912994,2.54855108261108,1.66446185112,-0.952907658613767,2.55580683609405,1.73275232415044,1356.149,1323.409,3271.914,3268.097,-0.1009503,0.02550632,0.1056772,-1.006756067276,-0.427860260009766,0.57920503616333,-1.00202309041976,-0.431142542523221,0.620300025949072,0
1.97999572753906,-1.25972664356232,2.53997445106506,1.67617189884186,-0.973016570682103,2.54715453300902,1.74520069864106,1355.655,1323.02,3271.593,3267.094,-0.1004768,0.02613339,0.1049623,-1.01353716850281,-0.428831458091736,0.585500657558441,-1.00916501115878,-0.434215511495054,0.624721215103391,0
1.99999618530273,-1.28012704849243,2.53137969970703,1.68800508975983,-0.993269723110518,2.53844016732665,1.7577383647857,1353.626,1322.6,3271.85,3266.541,-0.1000267,0.02673964,0.1042009,-1.02001893520355,-0.429740577936172,0.591658532619476,-1.01606270846678,-0.437183397947334,0.628991218319934,0
2.01999664306641,-1.30065095424652,2.5227677822113,1.69995760917664,-1.01365835337184,2.52966750931758,1.77035989816261,1353.36,1322.808,3270.087,3265.149,-0.09959583,0.02732757,0.1033882,-1.02619385719299,-0.430594593286514,0.597625136375427,-1.02271203275434,-0.440044416427654,0.633107466805174,0
2.03999710083008,-1.32129240036011,2.5141396522522,1.71202647686005,-1.03417746715556,2.52083870789413,1.78306220705567,1353.066,1323.18,3268.966,3262.769,-0.0991905,0.0278942,0.1025302,-1.03206527233124,-0.431404531002045,0.603444337844849,-1.02911032850577,-0.442797424341804,0.637068316668402,0
2.05999755859375,-1.34204483032227,2.50549602508545,1.72420859336853,-1.05482201812353,2.5119559343546,1.79584216754118,1350.376,1323.453,3268.342,3261.919,-0.09881286,0.02843414,0.1016425,-1.0376307964325,-0.43218120932579,0.609105288982391,-1.03525504859546,-0.445441325732794,0.640872191117535,0
2.07999801635742,-1.36290264129639,2.49683737754822,1.73650026321411,-1.07558691007788,2.50302138145056,1.8086966248299,1348.044,1323.791,3267.289,3260.59,-0.09845014,0.02894871,0.1007267,-1.04288971424103,-0.43293285369873,0.61458295583725,-1.04114375428791,-0.447975071280863,0.644517580459114,0
2.09999847412109,-1.38385951519012,2.48816418647766,1.74889767169952,-1.09646699912883,2.4940372624541,1.82162239460902,1346.211,1324.324,3265.61,3258.872,-0.09809648,0.02943799,0.09978555,-1.04784274101257,-0.433664798736572,0.619868516921997,-1.04677411523768,-0.450397658303471,0.648003042098304,0
2.11999893188477,-1.40490937232971,2.47947645187378,1.76139688491821,-1.11745709586255,2.485005810225,1.83461626438416,1344.23,1324.989,3263.554,3257.284,-0.09775346,0.02990058,0.09882369,-1.05249214172363,-0.434381306171417,0.624962747097015,-1.0521439094894,-0.452708130755304,0.651327200538896,0
2.13999557495117,-1.42604613304138,2.47077465057373,1.77399432659149,-1.13854793441822,2.47593101160431,1.84767249814609,1341.682,1325.706,3261.564,3255.864,-0.09742003,0.03033584,0.09784514,-1.05684113502502,-0.435087352991104,0.629871785640717,-1.05725007457039,-0.454905170939914,0.6544881599644,0
2.15999603271484,-1.44726395606995,2.46205878257751,1.78668630123138,-1.15974228854654,2.4668116731246,1.86079281297862,1337.788,1326.296,3260.167,3254.957,-0.0970882,0.03074328,0.09685502,-1.06089341640472,-0.435788065195084,0.634600698947906,-1.06209255378819,-0.456988754464129,0.657485885279498,0
2.17999649047852,-1.46855688095093,2.45332908630371,1.79946827888489,-1.18103083166728,2.45765180775279,1.8739714352843,1335.87,1327.339,3256.871,3253.227,-0.09675211,0.03112745,0.09584653,-1.06464684009552,-0.436482399702072,0.639101088047028,-1.06666845113384,-0.45895763525619,0.660318583716675,0
2.19999694824219,-1.48991894721985,2.44458556175232,1.81233668327332,-1.20240821395574,2.44845371736898,1.88720505326679,1334.07,1328.442,3254.286,3250.565,-0.09641602,0.03148748,0.09482352,-1.06810927391052,-0.43717348575592,0.643421590328217,-1.07097597819164,-0.460811043810786,0.662985148161421,0
2.21999740600586,-1.5113445520401,2.43582820892334,1.82528781890869,-1.22386905090202,2.43921971877738,1.90049033365798,1330.032,1329.349,3252.33,3249.394,-0.09608259,0.03182034,0.09379931,-1.07128250598907,-0.437864273786545,0.647557199001312,-1.07501345493598,-0.46254825725983,0.665484538597853,0
2.23999786376953,-1.53282809257507,2.42705702781677,1.83831751346588,-1.24540792547886,2.42995214277345,1.91382392305993,1326.416,1330.158,3250.1,3247.831,-0.09573744,0.03212921,0.09277352,-1.07416915893555,-0.438555330038071,0.651485741138458,-1.07877930973132,-0.464168599372462,0.667815782108711,0
2.2599983215332,-1.554363489151,2.4182722568512,1.85142147541046,-1.26701939030951,2.42065333321126,1.92720244928693,1323.717,1331.052,3247.255,3245.703,-0.09537366,0.0324163,0.09174591,-1.07677268981934,-0.439244151115417,0.655199885368347,-1.08227207933222,-0.465671440555045,0.66997797287536,0
2.27999877929688,-1.57594537734985,2.40947365760803,1.8645955324173,-1.28869796983554,2.41132564607061,1.9406225227075,1321.17,1331.979,3244.037,3243.657,-0.09499229,0.03268243,0.09071883,-1.07909727096558,-0.439927369356155,0.658704340457916,-1.08549040888332,-0.467056197851165,0.67197027217779,0
2.29999923706055,-1.5975683927536,2.40066170692444,1.87783575057983,-1.31043816248474,2.40197144852433,1.95408073758635,1318.11,1332.825,3241.046,3241.839,-0.09459495,0.03292793,0.08969492,-1.0811482667923,-0.440602898597717,0.662012040615082,-1.08843305191934,-0.468322334941636,0.673791908394614,0
2.31999588012695,-1.61922693252563,2.39183616638184,1.89113819599152,-1.33223028062798,2.39259490888859,1.96757109681956,1314.493,1333.579,3238.161,3240.351,-0.09417789,0.03315404,0.08867507,-1.08292984962463,-0.441268295049667,0.665120601654053,-1.09109838837379,-0.469469154757102,0.675441878627497,0
2.33999633789063,-1.6409158706665,2.38299798965454,1.90449893474579,-1.35407709248145,2.38319483607731,1.98109531406483,1310.428,1334.131,3235.895,3238.661,-0.09372836,0.03336302,0.08765988,-1.08444678783417,-0.441921412944794,0.668038487434387,-1.09348640563071,-0.470496651869278,0.67692017506657,0
2.3599967956543,-1.66262996196747,2.37414693832397,1.91791319847107,-1.37596887940059,2.37377541175173,1.99464737301821,1308.562,1334.996,3231.503,3236.442,-0.09324472,0.03356038,0.08664159,-1.08569705486298,-0.442553043365479,0.670713543891907,-1.09559564748259,-0.471404199712748,0.678225896250009,0
2.37999725341797,-1.68436360359192,2.36528372764587,1.93137741088867,-1.39790005743958,2.36433903852774,2.00822381695123,1307.132,1335.794,3228.129,3232.956,-0.0927334,0.03374644,0.08562199,-1.08668994903564,-0.443160027265549,0.673210799694061,-1.09742530100382,-0.472191448508328,0.679358538938131,0
2.39999771118164,-1.70611214637756,2.3564088344574,1.94488787651062,-1.41986502747765,2.35488812555058,2.02182117974142,1302.96,1336.275,3225.459,3231.592,-0.09220183,0.03391754,0.0846147,-1.08742666244507,-0.443739354610443,0.67552387714386,-1.09897466165884,-0.47285809511406,0.680317666989874,0
2.41999816894531,-1.72787022590637,2.34752321243286,1.95844054222107,-1.44185817738692,2.34542508756209,2.03543598721428,1299.506,1336.497,3222.668,3229.619,-0.09163245,0.03407878,0.08361477,-1.08791041374207,-0.444286376237869,0.677633583545685,-1.10024313330221,-0.473403883025206,0.681102911362803,0
2.43999862670898,-1.74963319301605,2.33862733840942,1.97203123569489,-1.46387388420027,2.33595234396796,2.0490647584853,1297.218,1336.746,3219.209,3227.025,-0.09101992,0.03423357,0.08261871,-1.08814406394958,-0.444793730974197,0.679532051086426,-1.10123022817855,-0.473828602374257,0.681713970113108,0
2.45999908447266,-1.77139568328857,2.32972240447998,1.98565590381622,-1.48590651627916,2.32647231790489,2.06270400730194,1295.216,1336.931,3215.603,3224.336,-0.09036638,0.03438307,0.08162673,-1.08813107013702,-0.44525408744812,0.681231558322906,-1.10193556692257,-0.474132089930926,0.682150608395601,0
2.47999572753906,-1.79315328598022,2.32080888748169,1.99931073188782,-1.50794623031618,2.31698924467309,2.07634764018804,1292.804,1336.979,3212.053,3222.059,-0.08967556,0.03452817,0.08063944,-1.0878746509552,-0.445660799741745,0.682739019393921,-1.10235882472314,-0.474314205938057,0.682412625136718,0
2.49999618530273,-1.81490087509155,2.3118884563446,2.01299214363098,-1.52999579362571,2.30750193357449,2.089997370243,1289.329,1336.711,3209.462,3220.033,-0.08894106,0.03466995,0.07965783,-1.08737909793854,-0.446009486913681,0.684073209762573,-1.10250000049778,-0.474374949929889,0.682500019666355,0
2.51999664306641,-1.83663368225098,2.30296277999878,2.026695728302,-1.55204535801192,2.29801462201262,2.10364710096447,1287.86,1336.615,3205.056,3217.486,-0.08815862,0.03481387,0.07867204,-1.08664166927338,-0.446290045976639,0.685181856155396,-1.10235893238473,-0.47431425226183,0.68241269178437,0
2.53999710083008,-1.8583470582962,2.29403281211853,2.04041814804077,-1.57408927882895,2.2885297387209,2.11729333804778,1287.104,1336.466,3201.374,3213.675,-0.08733517,0.0349608,0.07767996,-1.08566844463348,-0.446497470140457,0.686119377613068,-1.10193567455836,-0.474132136243598,0.68215067502728,0
2.55999755859375,-1.88003635406494,2.28510022163391,2.0541558265686,-1.59612191359838,2.27904971150017,2.13093258853001,1284.076,1336.033,3198.534,3211.411,-0.08647817,0.03510856,0.07669238,-1.08445990085602,-0.446627736091614,0.68688976764679,-1.10123038958312,-0.473828671822132,0.681714070030222,0
2.57999801635742,-1.90169656276703,2.2761664390564,2.06790518760681,-1.6181376241771,2.2695769662859,2.14456136213196,1281.528,1335.3,3195.55,3208.865,-0.08557482,0.03526049,0.07570568,-1.08301639556885,-0.446675181388855,0.687469840049744,-1.10024334841354,-0.473403975581601,0.681103044526962,0
2.59999847412109,-1.92332339286804,2.26723408699036,2.08166217803955,-1.64013077892511,2.26011392621545,2.15817617260023,1280.379,1334.53,3192.035,3205.415,-0.08461981,0.0354196,0.07471544,-1.08133900165558,-0.446632444858551,0.687855303287506,-1.09897493039424,-0.472858210743393,0.680317833349887,0
2.61999893188477,-1.94491183757782,2.25830435752869,2.09542322158813,-1.66209575487342,2.25066301069528,2.17177353904914,1279.334,1333.697,3188.095,3202.339,-0.08362006,0.0355864,0.07372169,-1.07942879199982,-0.446491867303848,0.68805068731308,-1.09742562325992,-0.472191587166126,0.67935873843001,0
2.63999557495117,-1.96645760536194,2.2493793964386,2.10918474197388,-1.68402276052401,2.24122843273345,2.18534740007499,1278.069,1332.697,3184.609,3199.145,-0.08258037,0.03576095,0.07272328,-1.07728850841522,-0.44624850153923,0.688077688217163,-1.09559639877797,-0.471404522974156,0.678226361337632,0
2.65999603271484,-1.9879561662674,2.2404613494873,2.12294363975525,-1.70591456353497,2.23180900148401,2.19889946898997,1275.193,1331.411,3181.928,3196.839,-0.08149645,0.03594331,0.07172278,-1.0749192237854,-0.445898801088333,0.687944114208221,-1.09348726343002,-0.470497020956359,0.676920706085208,0
2.67999649047852,-2.00940251350403,2.2315526008606,2.13669562339783,-1.72776139360717,2.22240892083372,2.2124236975135,1274.744,1330.225,3177.597,3193.494,-0.08036301,0.0361389,0.07070746,-1.07231760025024,-0.445434778928757,0.687601447105408,-1.09109935234628,-0.469469569527535,0.67544247537239,0
2.69999694824219,-2.03079199790955,2.22265553474426,2.15043759346008,-1.74955768413056,2.21303058593937,2.22591663964878,1275.035,1329.061,3173.891,3188.881,-0.07918856,0.03634803,0.06967628,-1.06948721408844,-0.444852560758591,0.687100887298584,-1.08843358680109,-0.468322565086308,0.673792239511893,0
2.71999740600586,-2.05212044715881,2.21377229690552,2.16416645050049,-1.77129788800495,2.2036763835632,2.23937486147656,1273.076,1327.66,3170.755,3186.024,-0.07798268,0.03656711,0.06863969,-1.06642627716064,-0.444149345159531,0.686441540718079,-1.08549099645889,-0.467056450668518,0.671970635915057,0
2.73999786376953,-2.07338309288025,2.20490598678589,2.17787861824036,-1.79297647980783,2.19434869114016,2.25279494249708,1271.54,1325.96,3167.712,3182.725,-0.07673685,0.03679859,0.06759357,-1.06313514709473,-0.443322271108627,0.685610592365265,-1.08227271937422,-0.465671715947234,0.669978369091845,0
2.7599983215332,-2.09457540512085,2.19605875015259,2.191570520401,-1.81458795796224,2.18504987584512,2.26617347697213,1270.888,1324.241,3164.085,3179.035,-0.07544735,0.03704416,0.066534,-1.05961310863495,-0.4423668384552,0.684597373008728,-1.07878000199166,-0.464168897232749,0.667816210650842,0
2.77999877929688,-2.11569261550903,2.18723297119141,2.20523881912231,-1.83612684690458,2.17578229366013,2.27950707526701,1270.73,1322.485,3160.382,3174.942,-0.07411897,0.03730428,0.06545944,-1.05586063861847,-0.441279083490372,0.683414459228516,-1.07501419914593,-0.462548577472581,0.665484999299265,0
2.79999542236328,-2.1367301940918,2.17843198776245,2.21888017654419,-1.85758361379882,2.16655004629821,2.2927898361021,1270.027,1320.63,3156.82,3171.262,-0.07275649,0.03757799,0.06437175,-1.051877617836,-0.440056383609772,0.682068407535553,-1.07097756992209,-0.460811728687929,0.662986133518392,0
2.81999588012695,-2.15768361091614,2.16965794563293,2.2324914932251,-1.87896102895071,2.15735194177419,2.30602347442862,1268.33,1318.55,3153.74,3168.143,-0.07135887,0.03786461,0.06327105,-1.04766440391541,-0.43869736790657,0.680565416812897,-1.06667014556453,-0.458958364322378,0.660319632649988,0
2.83999633789063,-2.17854785919189,2.16091394424438,2.24606895446777,-1.90024960698239,2.14819206138118,2.31920211834584,1268.745,1316.585,3149.403,3163.928,-0.06992396,0.03816805,0.06214684,-1.04321849346161,-0.437198132276535,0.678872466087341,-1.06209435025759,-0.456989527434725,0.657486997379635,0
2.8599967956543,-2.19931840896606,2.15220284461975,2.25960969924927,-1.9214439980555,2.13907270700516,2.33232245604895,1269.186,1314.663,3145.731,3159.039,-0.06846242,0.03848666,0.06100099,-1.03854155540466,-0.435558289289474,0.677033066749573,-1.05725197237562,-0.454905987512489,0.654489334796247,0
2.87999725341797,-2.21999096870422,2.1435272693634,2.27311062812805,-1.94253888918396,2.12999616467562,2.34538119854648,1267.686,1312.551,3142.516,3155.629,-0.0669801,0.03881726,0.05984188,-1.03363192081451,-0.433778405189514,0.675041258335114,-1.05214490868305,-0.452708560680416,0.651327819087361,0
2.89999771118164,-2.24056100845337,2.13489007949829,2.28656840324402,-1.96352900640172,2.1209647036328,2.35837508100222,1266.776,1310.23,3139.273,3151.654,-0.06546902,0.03916145,0.05866527,-1.02848970890045,-0.431858897209167,0.672883689403534,-1.04677516433438,-0.450398109700476,0.648003691539142,0
2.91999816894531,-2.26102352142334,2.12629389762878,2.29997944831848,-1.98440911693069,2.11198057539494,2.37130086407726,1266.634,1307.94,3135.596,3147.222,-0.06392758,0.0395201,0.05746901,-1.02311456203461,-0.429798722267151,0.67055481672287,-1.04114485287423,-0.447975543971863,0.644518260536375,0
2.93999862670898,-2.2813732624054,2.11774230003357,2.31334066390991,-2.00517403134858,2.10304601282548,2.38415533527198,1266.804,1305.654,3131.711,3142.645,-0.06236058,0.03989223,0.05625337,-1.0175062417984,-0.427597105503082,0.668060302734375,-1.03525619623725,-0.445441819530995,0.640872901562472,0
2.95999526977539,-2.30160689353943,2.10923719406128,2.3266487121582,-2.0258146800055,2.09416491834137,2.39693288004107,1266.645,1303.337,3127.7,3138.479,-0.06077547,0.04027634,0.0550189,-1.01166498661041,-0.425254374742508,0.665403425693512,-1.02911272098146,-0.442798453757259,0.637069797724829,0
2.97999572753906,-2.32171893119812,2.10078144073486,2.33990097045898,-2.04633384260397,2.08533609591429,2.40963521915279,1265.2,1300.872,3124.738,3134.557,-0.05917118,0.04067119,0.05376783,-1.00559282302856,-0.422773361206055,0.66260951757431,-1.02271452148052,-0.440045487257004,0.633109007445237,0
2.99999618530273,-2.34170436859131,2.09237861633301,2.35309338569641,-2.06672252359526,2.07656341607755,2.42225678393395,1265.187,1298.494,3120.366,3130.329,-0.05754452,0.0410787,0.05249328,-0.999287068843842,-0.420153677463531,0.659626543521881,-1.01606529245116,-0.437184509763622,0.628992817929355,0
3.01999664306641,-2.36155915260315,2.08403062820435,2.36622333526611,-2.08697572864857,2.06784902775215,2.4347944826559,1266.179,1296.223,3116.298,3124.767,-0.05590241,0.04149861,0.05119293,-0.992749810218811,-0.417397230863571,0.656493127346039,-1.00916768936771,-0.434216663853534,0.624722873042298,0
3.03999710083008,-2.38127899169922,2.07574033737183,2.37928771972656,-2.10708851762775,2.05919505654068,2.44724525713902,1265.057,1293.913,3112.889,3120.578,-0.05425498,0.04192653,0.04987785,-0.985981106758118,-0.41450759768486,0.653218567371368,-1.00202447609459,-0.431143138740389,0.620300883747801,0
3.05999755859375,-2.4008584022522,2.06751084327698,2.39228343963623,-2.12705600675913,2.05060360379452,2.45960608409476,1263.797,1291.386,3109.443,3116.558,-0.05259583,0.04236253,0.04854728,-0.978981733322144,-0.411487877368927,0.649782001972198,-0.994638524886308,-0.427965170275055,0.615728628108227,0
3.07999801635742,-2.4202938079834,2.05934381484985,2.40520691871643,-2.14687337079936,2.04207674568107,2.47187397646763,1263.829,1288.909,3105.423,3111.686,-0.05092071,0.04280819,0.04719625,-0.971752882003784,-0.408339947462082,0.646174609661102,-0.987012816387451,-0.424684040945629,0.611007951284564,0
3.09999847412109,-2.43957948684692,2.05124258995056,2.41805529594421,-2.16653584520328,2.033616532251,2.4840459847772,1263.911,1286.53,3101.488,3106.59,-0.04923439,0.04326146,0.04582723,-0.964296102523804,-0.405066102743149,0.642413556575775,-0.979150439632689,-0.421301079877433,0.606140765536421,0
3.11999893188477,-2.45871186256409,2.04320955276489,2.43082523345947,-2.18603872829175,2.02522498650551,2.49611919846012,1263.361,1284.137,3097.336,3102.27,-0.04754382,0.04372047,0.04444315,-0.956612288951874,-0.401668787002563,0.638491868972778,-0.971054592046769,-0.41781766283301,0.601129050222034,0
3.13999557495117,-2.47768592834473,2.0352463722229,2.44351363182068,-2.20537371089838,2.01690568364676,2.50808847374658,1262.823,1281.719,3093.394,3097.682,-0.04584951,0.04418485,0.0430419,-0.948704183101654,-0.398151993751526,0.634419441223145,-0.962730189199339,-0.414235904844652,0.595975848313175,0
3.15999603271484,-2.49649739265442,2.02735590934753,2.45611786842346,-2.22454360124808,2.00865741537402,2.51995554906156,1261.329,1279.32,3090.096,3093.266,-0.04414882,0.04465339,0.04162695,-0.94057422876358,-0.394520103931427,0.63020783662796,-0.95417746870157,-0.410555908149813,0.590681306902481,0
3.17999649047852,-2.51514172554016,2.01954030990601,2.46863412857056,-2.2435401949712,2.00048371179835,2.53171534550942,1261.406,1276.976,3085.316,3088.59,-0.04244014,0.04512745,0.04019273,-0.932222187519073,-0.390774846076965,0.625808119773865,-0.9454015193052,-0.406779862296197,0.585248576169681,0
3.19999694824219,-2.53361463546753,2.01180219650269,2.48105955123901,-2.2623590635174,1.99238647840124,2.54336512160655,1262.296,1274.778,3081.121,3082.517,-0.04073039,0.04560604,0.03873949,-0.923651933670044,-0.386920005083084,0.62127012014389,-0.936405971974636,-0.402909329586355,0.579679903854719,0
3.21999740600586,-2.55191206932068,2.00414299964905,2.49339127540588,-2.28099585204123,1.98436758895103,2.55490218149615,1260.625,1272.596,3077.211,3078.598,-0.03903235,0.04608424,0.03727955,-0.914864957332611,-0.382960230112076,0.616589248180389,-0.927194566064376,-0.398945918960059,0.573977604796153,0
3.23999786376953,-2.57002925872803,1.99656498432159,2.50562644004822,-2.29944628156995,1.97642888457015,2.56632387629027,1259.347,1270.219,3073.596,3074.039,-0.03733592,0.04656307,0.03580947,-0.905865609645844,-0.378900945186615,0.611760199069977,-0.917771149318993,-0.394891285994308,0.568144060931169,0
3.2599983215332,-2.58796215057373,1.98907005786896,2.51776194572449,-2.31770615117141,1.96857217280235,2.57762760541179,1258.626,1267.957,3069.518,3069.209,-0.03563682,0.04704282,0.0343287,-0.896656811237335,-0.374745726585388,0.606771171092987,-0.908139677873146,-0.390747132903322,0.562181721295578,0
3.27999877929688,-2.6057071685791,1.98166012763977,2.52979445457458,-2.33577134012187,1.96079922667992,2.58881081793642,1258.438,1265.769,3065.169,3064.077,-0.03393826,0.04752248,0.03283761,-0.887241780757904,-0.370497614145279,0.601626515388489,-0.898304216251578,-0.386515208538549,0.556093102023818,0
3.29999542236328,-2.62325954437256,1.97433698177338,2.54172110557556,-2.35363442159312,1.95311324175956,2.5998689163037,1257.81,1263.639,3060.844,3059.33,-0.03224555,0.0480005,0.03133928,-0.877624094486237,-0.366160124540329,0.596335470676422,-0.888270870184445,-0.382198140025101,0.549881982853707,0
3.31999588012695,-2.64061570167542,1.96710216999054,2.55353927612305,-2.37129825777079,1.94551298652277,2.61080367234288,1256.223,1261.496,3057.012,3055.013,-0.03055924,0.04847558,0.02983636,-0.867808222770691,-0.361737728118896,0.590909719467163,-0.878040092225563,-0.377796122084242,0.54354864393762,0
3.33999633789063,-2.65777158737183,1.95995759963989,2.56524562835693,-2.38875555478454,1.93800159931817,2.62161057080077,1255.82,1259.401,3052.31,3050.286,-0.02887719,0.04894902,0.02832379,-0.85779744386673,-0.357233881950378,0.585319757461548,-0.867618167158097,-0.373311858882592,0.53709697585572,0
3.3599967956543,-2.67472338676453,1.95290446281433,2.57683753967285,-2.40600253440574,1.930580705812,2.63228727277387,1255.688,1257.48,3048.087,3044.755,-0.02720419,0.04941959,0.02680304,-0.84759658575058,-0.352652907371521,0.579600751399994,-0.85700959304645,-0.368747285811601,0.530529763124145,0
3.37999725341797,-2.69146728515625,1.9459445476532,2.58831262588501,-2.42303550945299,1.9232518924954,2.64283149572124,1253.908,1255.593,3044.157,3040.497,-0.02554611,0.04988454,0.02528332,-0.837209284305573,-0.347999453544617,0.573749423027039,-0.846218976345105,-0.364104384899943,0.523849857357654,0
3.39999771118164,-2.70800065994263,1.93907904624939,2.5996675491333,-2.43985088596004,1.91601670575165,2.65324101480657,1252.589,1253.564,3040.07,3036.011,-0.02389548,0.05034456,0.02376261,-0.826640903949738,-0.343277990818024,0.56775164604187,-0.835251031898626,-0.359385184813519,0.517060177269636,0
3.41999816894531,-2.7243185043335,1.93230891227722,2.61089992523193,-2.45644516534361,1.90887665092339,2.66351366424015,1251.865,1251.637,3035.844,3031.037,-0.02225178,0.05079998,0.02224036,-0.815896570682526,-0.338492095470428,0.561613976955414,-0.824110582941664,-0.354591760855451,0.510163708672097,0
3.43999862670898,-2.74041795730591,1.92563617229462,2.62200665473938,-2.47281494657125,1.90183319137989,2.67364733862088,1251.178,1249.799,3031.529,3026.085,-0.02061659,0.05124937,0.02071967,-0.804981052875519,-0.333644896745682,0.555340528488159,-0.812802561098952,-0.34972623496609,0.503163504475677,0
3.45999526977539,-2.75629615783691,1.91906154155731,2.63298535346985,-2.48895387148596,1.89488906285845,2.6836381019467,1250.154,1247.969,3027.055,3021.676,-0.0189958,0.05169183,0.01920264,-0.793899536132813,-0.328739821910858,0.548930883407593,-0.801334209341438,-0.344791723593488,0.49606404842442,0
3.47999572753906,-2.77194929122925,1.91258597373962,2.64383339881897,-2.50486489870395,1.88804299234919,2.69348778574196,1248.435,1246.164,3023.219,3017.338,-0.01738671,0.05212652,0.01769073,-0.782658338546753,-0.323780953884125,0.542406678199768,-0.789706299681989,-0.339788558913217,0.488865818431069,0
3.49999618530273,-2.78737449645996,1.90621018409729,2.65454816818237,-2.52054183223243,1.88129764581471,2.703192554392,1247.62,1244.398,3018.583,3012.856,-0.01578828,0.05255493,0.01618077,-0.771262526512146,-0.318771511316299,0.535737156867981,-0.777926261338517,-0.334719937510192,0.481573413535413,0
3.51999664306641,-2.8025689125061,1.89993619918823,2.66512727737427,-2.53598168290031,1.87465430941181,2.7127505574575,1247.286,1242.782,3014.458,3007.406,-0.01420264,0.05297593,0.01467424,-0.759718000888824,-0.313714981079102,0.528957068920135,-0.765999459475408,-0.329588167864767,0.474190155029786,0
3.53999710083008,-2.81752920150757,1.89376389980316,2.67556834220886,-2.55118156992615,1.86811422266028,2.72216001159753,1245.364,1241.196,3010.161,3003.705,-0.01263723,0.05338782,0.01317903,-0.748029708862305,-0.30861485004425,0.522053003311157,-0.753931367647136,-0.324395605094516,0.466719431305148,0
3.55999755859375,-2.83225345611572,1.88769435882568,2.68586897850037,-2.56613872308604,1.86167857751006,2.73141920191151,1244.421,1239.502,3006.25,2998.813,-0.01108514,0.05379141,0.01169139,-0.736205041408539,-0.303475141525269,0.515036523342133,-0.741727567798258,-0.319144650954242,0.459164697851087,0
3.57999801635742,-2.84673833847046,1.88172841072083,2.69602704048157,-2.58085048488145,1.85534851740854,2.74052648328127,1242.904,1237.947,3002.105,2994.659,-0.009547433,0.0541859,0.01021594,-0.724249660968781,-0.298298895359039,0.507901906967163,-0.72939375026341,-0.313837753835969,0.451529477255809,0
3.59999847412109,-2.86098146438599,1.87586653232574,2.70604014396667,-2.59531431270705,1.84912513636775,2.74948028171299,1242.08,1236.335,2997.866,2990.068,-0.008023039,0.05457181,0.008750973,-0.712170243263245,-0.293088853359222,0.500650703907013,-0.716935713767317,-0.308477408768949,0.443817359206151,0
3.6199951171875,-2.87498092651367,1.87010967731476,2.7159059047699,-2.60952509409627,1.84301063413925,2.75827743234631,1241.187,1234.838,2993.668,2985.534,-0.006514625,0.05494858,0.007298901,-0.699972927570343,-0.287847727537155,0.493293881416321,-0.704361775018033,-0.303067194200314,0.436033492140578,0
3.63999557495117,-2.88873434066772,1.86445832252502,2.72562265396118,-2.62348594498176,1.83700367002424,2.76691986409198,1239.347,1233.353,2989.749,2981.74,-0.00502432,0.05531508,0.005863197,-0.687664270401001,-0.282578438520432,0.485839039087296,-0.691673151171832,-0.297607633838406,0.428178629536803,0
3.65999603271484,-2.90223932266235,1.85891246795654,2.73518800735474,-2.63719194552437,1.83110636089208,2.77540453133521,1238.677,1231.814,2985.314,2977.437,-0.003548929,0.05567301,0.004438785,-0.675251245498657,-0.277283817529678,0.47826936841011,-0.678878353700696,-0.292102389931838,0.420258040401444,0
3.67999649047852,-2.9154942035675,1.85347306728363,2.74460029602051,-2.65064103434641,1.825319593696,2.783730157985,1238.171,1230.486,2981.425,2972.43,-0.002092712,0.05602165,0.003028382,-0.662739932537079,-0.271966487169266,0.470618963241577,-0.665983614869008,-0.28655414404986,0.412275582803033,0
3.69999694824219,-2.92849683761597,1.84814071655273,2.75385785102844,-2.66383127580226,1.81964420129024,2.79189554578451,1236.167,1229.161,2977.471,2969.042,-0.0006604639,0.05635907,0.001639624,-0.650136709213257,-0.266629457473755,0.462874740362167,-0.65299527533123,-0.280965624398954,0.404235181908735,0
3.71999740600586,-2.94124603271484,1.8429149389267,2.76295852661133,-2.67676086214623,1.81408096149726,2.79989957565303,1235.206,1227.676,2973.577,2964.822,0.0007538676,0.05668718,0.0002675802,-0.637449622154236,-0.261275947093964,0.455038249492645,-0.639919784131907,-0.275339605822821,0.396140829984331,0
3.73999786376953,-2.95373940467834,1.83779680728912,2.77190089225769,-2.68942811570037,1.808630596175,2.80774120902801,1234.239,1226.378,2969.818,2960.462,0.002149731,0.05700562,-0.001084972,-0.624685168266296,-0.255908310413361,0.447122752666473,-0.626763698705669,-0.269678909802388,0.38799658639423,0
3.7599983215332,-2.96597647666931,1.83278632164001,2.78068327903748,-2.70183149102237,1.80329377028414,2.81541948920704,1233.118,1225.036,2965.764,2956.72,0.003524347,0.05731364,-0.002415487,-0.611850202083588,-0.25052884221077,0.439118057489395,-0.613533684877225,-0.263986404455806,0.379806577601466,0
3.77999877929688,-2.97795557975769,1.82788348197937,2.78930401802063,-2.7139695770734,1.79807109095524,2.82293354268985,1232.389,1223.699,2961.946,2952.544,0.004877497,0.05761182,-0.00372523,-0.598951995372772,-0.245139926671982,0.431041389703751,-0.60023651686137,-0.258265004538452,0.371574997167698,0
3.79999542236328,-2.98967552185059,1.82308864593506,2.79776191711426,-2.72583886061506,1.79296406983666,2.83028119461452,1231.133,1222.46,2958.227,2948.846,0.006205971,0.05789915,-0.005011004,-0.585997581481934,-0.239744156599045,0.422897160053253,-0.586881630238189,-0.252518769916838,0.363307686166475,0
3.81999588012695,-3.00113534927368,1.81840181350708,2.80605578422546,-2.73744273461857,1.78797124702766,2.83746454539187,1229.625,1221.19,2954.708,2945.357,0.007511829,0.05817617,-0.006272277,-0.572994410991669,-0.234344094991684,0.4146888256073,-0.573470919541002,-0.246748515755721,0.355005817404173,0
3.83999633789063,-3.01233434677124,1.81382286548615,2.81418395042419,-2.74877791451009,1.78309403578861,2.84448156171422,1229.231,1219.895,2950.76,2941.38,0.008796808,0.05844425,-0.007512245,-0.559949934482574,-0.228942111134529,0.406405627727509,-0.560014026276881,-0.240958390526246,0.346675359432959,0
3.8599967956543,-3.02327179908752,1.80935192108154,2.82214546203613,-2.75984354851568,1.77833280261403,2.85133171629293,1228.859,1218.772,2947.2,2937.082,0.01005521,0.05870213,-0.008728777,-0.546870350837708,-0.223540171980858,0.398075819015503,-0.546518158200277,-0.23515149552379,0.33832077419619,0
3.87999725341797,-3.03394675254822,1.80498909950256,2.82993936538696,-2.77063893010371,1.77368785150474,2.85801457175126,1227.32,1217.643,2943.725,2934.005,0.01128163,0.0589487,-0.009914416,-0.53376293182373,-0.218141093850136,0.389694809913635,-0.532990631455729,-0.229330978680956,0.329946590735853,0
3.89999771118164,-3.04435968399048,1.8007345199585,2.83756470680237,-2.78116350015273,1.7691594230351,2.8645297819664,1226.44,1216.387,2940.353,2930.445,0.01248079,0.05918483,-0.01107289,-0.520636141300201,-0.21274796128273,0.381263792514801,-0.519438870577852,-0.223500034567577,0.321557405192552,0
3.91999816894531,-3.05450940132141,1.79658722877502,2.84502053260803,-2.79141684911929,1.7647476934202,2.87087709341145,1225.533,1215.249,2936.95,2927.031,0.01365144,0.05941078,-0.01220367,-0.507497251033783,-0.207363173365593,0.372789412736893,-0.505870408491346,-0.2176619043907,0.313157880805522,0
