t,x_s1,x_s2,x_s3,x_s_d1,x_s_d2,x_s_d3,propellers_rpms1,propellers_rpms2,propellers_rpms3,propellers_rpms4,rollRad,pitchRad,yawRad,v_s1,v_s2,v_s3,v_s_d1,v_s_d2,v_s_d3,insideCount
0,-0.0599999986588955,2.94000005722046,1.17999994754791,-0.0599999986588955,2.94000005722046,1.17999994754791,0,0,0,0,0,0,0,0,0,0,-1.06581410364015E-15,4.44089209850063E-16,4.44089209850063E-16,0
0.02001953125,-0.0599999986588955,2.94000005722046,1.17811644077301,-0.0600018744611685,2.93999925011514,1.18000110875888,0,0,0,0,-0.01635288,0.0001297794,-0.01587137,-1.10653664009419E-09,-7.76775763711157E-08,-0.0941759571433067,-0.000280531511337879,-0.000120704872184653,0.000173662369087018,5
0.03997802734375,-0.0599999986588955,2.94000005722046,1.17242503166199,-0.060014847005691,2.93999366839165,1.1800091393819,0,0,0,0,-0.03270202,0.0005238493,-0.03175127,-1.08383135799528E-09,-7.60859677484405E-08,-0.284568399190903,-0.00110975851463131,-0.000477498085781228,0.000686993385685745,5
0.05999755859375,-0.0599058791995049,2.93990302085876,1.16596531867981,-0.0600498857373401,2.93997859220429,1.18003083002592,1867.171,3252.586,3184.588,1722.885,-0.04941709,0.000328197,-0.01369238,0.00470605166628957,-0.00484959501773119,-0.322985053062439,-0.00247936261166862,-0.00106680046642749,0.00153484356504269,5
0.08001708984375,-0.0598203614354134,2.93960738182068,1.16000306606293,-0.0601176241590912,2.9399494462538,1.18007276333581,1926.338,2314.582,3251.154,2829.281,-0.07542125,-0.002135322,0.02094574,0.00427595200017095,-0.0147764608263969,-0.298115670681,-0.00437432711648753,-0.0018821507536715,0.00270791686320324,5
0.0999755859375,-0.0599374249577522,2.93904519081116,1.15498638153076,-0.0602280337026576,2.93990194011169,1.18014111210282,980.8305,1498.918,3914.575,3896.382,-0.1031874,-0.008060323,0.06330064,-0.00585309555754066,-0.0281126461923122,-0.250835418701172,-0.00677334142420609,-0.00291437958958193,0.00419302100058057,4
0.1199951171875,-0.0604638196527958,2.93818378448486,1.15081334114075,-0.0603918861403606,2.93983143898525,1.18024254456713,345.6255,979.967,4174.096,4613.36,-0.1214236,-0.0154197,0.1039954,-0.0263197217136621,-0.0430656969547272,-0.208649262785912,-0.00967801353495435,-0.00416417885169243,0.00599115140585487,4
0.1400146484375,-0.0615634694695473,2.93704152107239,1.14728283882141,-0.0606187761383957,2.93973381455767,1.18038300028418,353.4261,747.6968,3974.404,4854.705,-0.1253939,-0.02116414,0.1350981,-0.0549825355410576,-0.0571087971329689,-0.176524430513382,-0.0130687916036232,-0.00562313592726786,0.00809020455552005,4
0.1600341796875,-0.0633405670523643,2.93568134307861,1.14427483081818,-0.0609183061960198,2.93960493514178,1.18056842365845,821.4699,815.2535,3462.167,4692.214,-0.1184622,-0.02352051,0.1522613,-0.0888549536466599,-0.0680083483457565,-0.150400757789612,-0.0169327949449082,-0.00728570861726639,0.0104822066917805,3
0.17999267578125,-0.0658464953303337,2.93417286872864,1.14182543754578,-0.0612985250199726,2.93944133760391,1.18080379722281,1348.658,1083.392,3007.036,4255.055,-0.1079954,-0.02277748,0.155772,-0.12529630959034,-0.0754263401031494,-0.122468993067741,-0.0212433804254414,-0.00914043312572283,0.0131506644458931,3
0.20001220703125,-0.069084532558918,2.9325544834137,1.14006233215332,-0.0617708265342762,2.93923811945689,1.181096174359,1634.918,1379.99,2921.037,3666.395,-0.09983392,-0.02030234,0.1501618,-0.161901891231537,-0.080918051302433,-0.0881525874137878,-0.0260142813927851,-0.0111932185284278,0.0161040794142088,3
0.22003173828125,-0.0730096697807312,2.93082666397095,1.13903594017029,-0.0623430170958408,2.9389919218434,1.18145038757383,1641.922,1581.198,3146.662,3113.46,-0.09583758,-0.01735529,0.1421993,-0.1962571144104,-0.086388498544693,-0.0513167567551136,-0.0312204565115429,-0.0134332902383343,0.0193269498172333,3
0.239990234375,-0.0775492340326309,2.92897415161133,1.13863289356232,-0.0630214373585105,2.93870001655724,1.18187036203406,1525.501,1624.708,3416.036,2777.473,-0.09476166,-0.01467615,0.1377396,-0.226978421211243,-0.0926224887371063,-0.0201527997851372,-0.0368316683029241,-0.015847637913056,0.022800557215184,3
0.260009765625,-0.082638181746006,2.92699289321899,1.13863587379456,-0.0638185570309634,2.93835703823113,1.18236381708338,1437.309,1499.538,3535.772,2744.774,-0.09439202,-0.01259089,0.1393112,-0.254447400569916,-0.0990579277276993,0.000147981569170952,-0.0428699302682246,-0.0184457333472145,0.0265385290140116,3
0.280029296875,-0.0882440209388733,2.92490124702454,1.13885235786438,-0.0647405670799769,2.93796032306502,1.18293458522515,1400.673,1276.492,3475.559,2977.939,-0.09320585,-0.01110645,0.145688,-0.280292212963104,-0.1045838072896,0.0108227636665106,-0.0493064925116944,-0.0212152062638476,0.0305230676586995,3
0.29998779296875,-0.0943697467446327,2.92273306846619,1.1392068862915,-0.0657918945890516,2.93750796620855,1.18358540703494,1352.145,1062.557,3343.459,3324.087,-0.09053629,-0.009932525,0.1533031,-0.306286424398422,-0.108403369784355,0.0177275836467743,-0.0561078595514081,-0.0241416444928383,0.0347334378503248,3
0.32000732421875,-0.101035192608833,2.92052626609802,1.13972592353821,-0.0669865614821475,2.93699393441958,1.18432496275165,1279.177,939.8845,3240.68,3590.425,-0.08597802,-0.008524778,0.1583579,-0.33327242732048,-0.110343180596828,0.0259512960910797,-0.0633036493784043,-0.0272377918282996,0.0391879745362408,3
0.34002685546875,-0.108250707387924,2.91831254959106,1.14046227931976,-0.068328931055223,2.93641635029375,1.18515595346331,1253.368,944.7072,3169.748,3650.123,-0.0794389,-0.006291452,0.1584764,-0.360775530338287,-0.110681436955929,0.0368170253932476,-0.0708617428582823,-0.0304898283040037,0.0438667944422071,4
0.3599853515625,-0.116002127528191,2.91611552238464,1.14145278930664,-0.0698213312158394,2.93577421219747,1.18607982025561,1321.882,1048.374,3118.44,3497.179,-0.07155435,-0.002959304,0.1534659,-0.387571394443512,-0.109856076538563,0.0495281144976616,-0.0787457139191101,-0.0338820807988248,0.0487473480944833,4
0.3800048828125,-0.124250590801239,2.91395044326782,1.14270877838135,-0.0714797725314022,2.93506063123087,1.18710647443246,1452.92,1179.972,3094.507,3231.799,-0.06362079,0.001256224,0.1450431,-0.412423104047775,-0.108257785439491,0.0627977550029755,-0.0869921272359981,-0.0374302820709642,0.0538522707687797,4
0.4000244140625,-0.13294230401516,2.91182708740234,1.14421796798706,-0.0733065984369745,2.93427459907931,1.1882373666918,1579.264,1273.867,3103.592,2982.748,-0.05701455,0.00582437,0.135755,-0.434586137533188,-0.106168270111084,0.0754612162709236,-0.0955658248284375,-0.0411193046236092,0.0591597980003546,4
0.41998291015625,-0.142022579908371,2.90975117683411,1.14595794677734,-0.075301871434707,2.93341608884986,1.18947253572543,1634.139,1289.8,3156.479,2843.383,-0.05244403,0.01017859,0.1278519,-0.454014122486115,-0.103801243007183,0.0869963988661766,-0.104427768518458,-0.0449323514193797,0.064645763297398,4
0.44000244140625,-0.151445120573044,2.90772533416748,1.14789688587189,-0.077483988232608,2.93247718495301,1.19082336997196,1603.998,1236.606,3223.195,2843.652,-0.04966263,0.01397177,0.1224684,-0.47112712264061,-0.101291567087173,0.0969479531049728,-0.113620829717891,-0.048887868829098,0.0703367061060819,4
0.46002197265625,-0.161175787448883,2.90575242042542,1.14999771118164,-0.0798530997696509,2.93145782244394,1.19228996286983,1541.172,1158.429,3251.332,2939.492,-0.04787938,0.01718404,0.1193468,-0.486533224582672,-0.0986419022083282,0.10504250228405,-0.123107133063502,-0.0529695601420796,0.0762091797723108,4
0.47998046875,-0.171192556619644,2.90383696556091,1.15223920345306,-0.082406855753501,2.93035901258777,1.1938708594761,1478.113,1087.516,3245.589,3064.713,-0.0462884,0.01999177,0.1173659,-0.500838816165924,-0.0957765802741051,0.112072192132473,-0.132845337826091,-0.057159637597476,0.0822375924153778,5
0.5,-0.181480139493942,2.90198421478271,1.15461719036102,-0.085166398670376,2.92917165836334,1.1955791479969,1428.204,1044.871,3220.72,3170.438,-0.04433897,0.02264069,0.115227,-0.514379024505615,-0.0926398187875748,0.118901498615742,-0.142884000065179,-0.0614789935111996,0.0884520025491718,5
0.52001953125,-0.192023292183876,2.90019965171814,1.15713560581207,-0.0881295333471192,2.92789670429234,1.19741346951549,1423.001,1045.167,3175.876,3212.039,-0.04191176,0.02537712,0.1118913,-0.527156949043274,-0.0892305746674538,0.125919982790947,-0.153182839569029,-0.0659102964334391,0.0948274748038155,5
0.53997802734375,-0.202803462743759,2.89848685264587,1.15980994701385,-0.0912913676125048,2.92653625533937,1.19937079554481,1450.399,1074.806,3145.84,3181.569,-0.03929175,0.02829489,0.1070347,-0.539009928703308,-0.0856375619769096,0.133719593286514,-0.16369851368286,-0.0704348972306956,0.101337178011302,5
0.55999755859375,-0.213796883821487,2.89684629440308,1.16265451908112,-0.094676112580471,2.92507989413848,1.20146611391775,1479.958,1112.456,3143.326,3115.324,-0.03689384,0.03132417,0.1010642,-0.549669802188873,-0.0820318013429642,0.142226979136467,-0.17448465888317,-0.0750758741803766,0.108014315705644,5
0.58001708984375,-0.224975079298019,2.89527463912964,1.1656688451767,-0.0982790918331175,2.92352963282165,1.20369652970884,1520.026,1148.714,3144.17,3037.25,-0.03512124,0.03434275,0.09466337,-0.558910191059113,-0.078579343855381,0.150719240307808,-0.185498893714783,-0.0798149917263209,0.114832651747179,5
0.5999755859375,-0.23630964756012,2.89376640319824,1.16885149478912,-0.102092760004862,2.92188871794891,1.20605737197736,1546.302,1168.361,3160.324,2975.335,-0.03428607,0.03716721,0.0886009,-0.566729664802551,-0.0754175037145615,0.159132093191147,-0.196696165293826,-0.0846328648712294,0.121764296254622,5
0.6199951171875,-0.247775048017502,2.89231300354004,1.17219614982605,-0.106144683970236,2.92014528826426,1.20856570593183,1529.889,1166.096,3186.842,2965.683,-0.03442775,0.0396279,0.08346558,-0.573269903659821,-0.0726647898554802,0.167234942317009,-0.208134604141382,-0.0895545055543457,0.128845234789665,5
0.6400146484375,-0.259350210428238,2.89090538024902,1.17568778991699,-0.110427588881679,2.91830247393137,1.21121702809507,1505.611,1156.24,3192.97,2989.582,-0.03533802,0.0416958,0.07930411,-0.57875794172287,-0.0703819319605827,0.174581289291382,-0.21977002223474,-0.0945609009039674,0.136048112861281,5
0.6600341796875,-0.271019905805588,2.88953351974487,1.17932033538818,-0.114945316258235,2.91635862205193,1.21401371655035,1473.509,1145.579,3194.705,3026.504,-0.0367724,0.04339292,0.07588444,-0.583484947681427,-0.068593330681324,0.181629538536072,-0.231592256338351,-0.0996476779637659,0.143366638942526,5
0.67999267578125,-0.282772809267044,2.88818717002869,1.18308985233307,-0.119686638739014,2.91431856344567,1.21694882102647,1429.368,1139.947,3190.936,3074.901,-0.03848587,0.04477734,0.07287338,-0.587645530700684,-0.0673216953873634,0.188475027680397,-0.243554411173546,-0.104794659005432,0.150771782621969,5
0.70001220703125,-0.294599950313568,2.8868556022644,1.18699502944946,-0.124683985757554,2.91216834463331,1.22004241688759,1395.313,1144.799,3183.677,3106.006,-0.04021639,0.04595369,0.06988626,-0.591356098651886,-0.0665832161903381,0.195258542895317,-0.255719729227087,-0.11002905550423,0.158302694011575,5
0.72003173828125,-0.306492209434509,2.88552808761597,1.19103002548218,-0.129926464684368,2.909912652409,1.2232877610772,1393.906,1162.654,3160.742,3108.624,-0.04193254,0.04701456,0.06665123,-0.594615161418915,-0.0663746893405914,0.201751485466957,-0.268042056234039,-0.115331008569357,0.165930801422716,5
0.739990234375,-0.318440735340118,2.88419365882874,1.19519925117493,-0.135400001298574,2.90755754251682,1.2266761409821,1402.345,1186.362,3149.473,3087.208,-0.04381539,0.04795999,0.06320468,-0.597425520420074,-0.0667186379432678,0.208458602428436,-0.280473432677602,-0.12067988256057,0.173626415629864,5
0.760009765625,-0.330436050891876,2.88284015655518,1.19950616359711,-0.141140917956636,2.9050873864615,1.23023004187122,1385.907,1206.842,3154.325,3077.678,-0.04601569,0.0487265,0.05983338,-0.599767804145813,-0.0676712915301323,0.21534451842308,-0.293080296154222,-0.126104263719567,0.181430664670081,5
0.780029296875,-0.342469036579132,2.8814549446106,1.20394277572632,-0.147135516931739,2.90250807799222,1.23394098419916,1385.137,1226.07,3148.808,3063.402,-0.04854517,0.0493108,0.05667125,-0.601648211479187,-0.0692640617489815,0.221833229064941,-0.305815338775367,-0.131583796783543,0.189314262706778,5
0.79998779296875,-0.354532241821289,2.88002443313599,1.20850837230682,-0.153366821193532,2.89982692185086,1.2377984583754,1382.084,1241.683,3151.56,3048.175,-0.05146985,0.04966595,0.05391479,-0.603161752223969,-0.0715252980589867,0.228281572461128,-0.318629798715703,-0.137097500901303,0.197247023847227,5
0.82000732421875,-0.366620421409607,2.87853479385376,1.21320080757141,-0.159875221826383,2.89702653888221,1.24182746840525,1344.771,1250.469,3161.781,3065.057,-0.05476418,0.04973143,0.05177284,-0.604409098625183,-0.074479952454567,0.234618961811066,-0.331592781842754,-0.14267511039705,0.205271727915392,4
0.84002685546875,-0.378730416297913,2.87697267532349,1.21800780296326,-0.166644154783139,2.89411405613301,1.24601776035448,1326.002,1259.159,3153.217,3081.123,-0.0582428,0.04955676,0.05010965,-0.605498492717743,-0.0781078189611435,0.240350425243378,-0.344656091553402,-0.148295887618918,0.213358538918022,4
0.8599853515625,-0.390861719846725,2.87532472610474,1.22292840480804,-0.173653699721778,2.89109804476993,1.25035700258242,1310.946,1270.14,3148.586,3089.229,-0.06185351,0.04916251,0.04883033,-0.606565356254578,-0.0823964625597,0.246028393507004,-0.357770416714212,-0.153938615363784,0.221476930914505,4
0.8800048828125,-0.403015375137329,2.87357807159424,1.22796225547791,-0.180948461186242,2.88795931270381,1.25487280742661,1268.669,1280.583,3150.878,3117.492,-0.06553134,0.04854764,0.04793493,-0.607683300971985,-0.0873358249664307,0.251694530248642,-0.371007022483504,-0.159633957038354,0.229671020432672,4
0.9000244140625,-0.415193140506744,2.87172055244446,1.23309969902039,-0.188508963212068,2.88470623989808,1.25955311833725,1257.543,1294.442,3136.33,3127.983,-0.06911382,0.04780131,0.04719654,-0.608889579772949,-0.0928765162825584,0.256870895624161,-0.384317079523421,-0.165360902742685,0.237910579786325,4
0.91998291015625,-0.427397906780243,2.86974048614502,1.23834228515625,-0.196312316554895,2.88134867495511,1.26438376578173,1256.769,1311.716,3129.56,3120.153,-0.07265157,0.04694266,0.04658455,-0.610236644744873,-0.0989982336759567,0.262128472328186,-0.397650971463704,-0.171098103938772,0.246164894078718,4
0.94000244140625,-0.439632534980774,2.86762666702271,1.24369168281555,-0.204407453948074,2.87786556348678,1.26939504145298,1227.108,1326.387,3133.717,3132.835,-0.07619783,0.04594057,0.04625287,-0.611731112003326,-0.105685710906982,0.267470568418503,-0.411081631631503,-0.176876941799768,0.254479112513653,4
0.96002197265625,-0.451900124549866,2.86536908149719,1.24913859367371,-0.21277195700315,2.87426655149935,1.27457306730061,1225.85,1340.312,3123.406,3132.312,-0.07966314,0.04484889,0.04611625,-0.613380491733551,-0.112881921231747,0.272348582744598,-0.424559845004915,-0.182676240476657,0.262822768648136,3
0.97998046875,-0.464205086231232,2.86295771598816,1.25468492507935,-0.221379956358585,2.87056276985637,1.27990182895749,1228.268,1354.272,3121.751,3122.335,-0.08312525,0.04365636,0.04623922,-0.615245699882507,-0.12056976556778,0.277316957712173,-0.438035925118965,-0.188474621271639,0.271165104193453,3
1,-0.476552218198776,2.86038303375244,1.26033222675323,-0.230284798736574,2.86673126495361,1.28541435058594,1195.125,1363.543,3130.477,3141.507,-0.08660813,0.04231934,0.04679021,-0.617357969284058,-0.128729611635208,0.282367020845413,-0.451584000205995,-0.194303979492187,0.279552008056641,3
1.02001953125,-0.488947182893753,2.85763716697693,1.26607072353363,-0.239461107372567,2.86278295570393,1.29109492275982,1190.527,1371.569,3122.171,3149.867,-0.08995253,0.04090474,0.04761532,-0.619748055934906,-0.137287601828575,0.286924004554749,-0.465154707681581,-0.200143075797255,0.287952922446475,3
1.03997802734375,-0.501396954059601,2.85471272468567,1.27190232276917,-0.248880035413094,2.85873025410248,1.29692568790267,1191.611,1380.974,3120.221,3147.725,-0.09318773,0.03942044,0.04868756,-0.622491359710693,-0.146217465400696,0.291579127311707,-0.478698517198992,-0.205970598662363,0.296337185718871,3
1.05999755859375,-0.513909161090851,2.85160303115845,1.2778297662735,-0.258599401509697,2.85454828239877,1.30294243851408,1159.534,1387.389,3127.968,3171.547,-0.09631801,0.03784345,0.05009716,-0.625609874725342,-0.155488282442093,0.296370804309845,-0.492290296490434,-0.211818761581115,0.30475114456651,3
1.08001708984375,-0.526491284370422,2.84830284118652,1.28384447097778,-0.268590868588476,2.85024923324404,1.30912763259543,1160.335,1394.028,3118.252,3179.543,-0.0991905,0.03625599,0.05164051,-0.629105091094971,-0.165011212229729,0.300732553005219,-0.505880764601332,-0.21766636033551,0.313164291730931,3
1.0999755859375,-0.539151787757874,2.84480762481689,1.28995013237,-0.278822628233634,2.845846792911,1.31546157922208,1168.894,1402.736,3116.084,3173.51,-0.1018734,0.034669,0.05328998,-0.633024215698242,-0.17476062476635,0.305285304784775,-0.519420764586993,-0.223492244065532,0.321546196721701,3
1.1199951171875,-0.551898956298828,2.84111356735229,1.29615163803101,-0.289357002179081,2.84131414609862,1.32198285851614,1143.72,1408.013,3125.844,3192.355,-0.1044082,0.03304946,0.05517221,-0.637357890605927,-0.184708774089813,0.310076534748077,-0.532985466132485,-0.229328756186667,0.329943393154705,3
1.1400146484375,-0.564740538597107,2.83721828460693,1.30244147777557,-0.300162704591434,2.83666475422696,1.32867210305637,1151.361,1412.937,3118.303,3195.739,-0.1066745,0.03146992,0.05712507,-0.642079591751099,-0.194764241576195,0.314493209123611,-0.54652589017629,-0.235154822377061,0.338325560657667,3
1.1600341796875,-0.577685177326202,2.83312010765076,1.30882441997528,-0.311239174734401,2.83189885856519,1.33552896572031,1165.289,1418.923,3118.592,3187.149,-0.1087619,0.02992776,0.0591567,-0.647230684757233,-0.204907462000847,0.319146275520325,-0.560034590932616,-0.240967238923098,0.346688089934489,3
1.17999267578125,-0.590740978717804,2.82881808280945,1.31530380249023,-0.322550701230474,2.8270318247214,1.34253133946411,1153.38,1421.962,3124.846,3201.191,-0.1107598,0.02838834,0.0613846,-0.652792930603027,-0.215104520320892,0.323970973491669,-0.573463232144024,-0.246745208083563,0.355001058539242,3
1.20001220703125,-0.603916645050049,2.82431149482727,1.32188260555267,-0.334165615614823,2.82203425154496,1.34972152476313,1138.395,1420.743,3137.743,3214.796,-0.1125052,0.0268749,0.06376389,-0.658780574798584,-0.225329652428627,0.328942656517029,-0.586886736182789,-0.252520966862155,0.363310846989412,3
1.22003173828125,-0.617219746112823,2.81960201263428,1.32855343818665,-0.346048739660615,2.8169212752441,1.35707774461917,1156.156,1422.761,3128.256,3215.39,-0.1139471,0.0254486,0.06614854,-0.665153920650482,-0.235477760434151,0.33354252576828,-0.600256853941591,-0.258273755015919,0.371587586789143,3
1.239990234375,-0.630658805370331,2.81469130516052,1.33532249927521,-0.358161486344149,2.81170949873715,1.36457611182642,1173.676,1425.363,3127.813,3209.927,-0.1152371,0.02409462,0.06854931,-0.671956658363342,-0.245535418391228,0.338454097509384,-0.613526094901141,-0.263983138701136,0.379801879044709,2
1.260009765625,-0.644242346286774,2.80958127975464,1.34219837188721,-0.37057666480527,2.80636759428526,1.37226169871082,1151.765,1423.15,3143.723,3231.171,-0.1164126,0.02276786,0.07108662,-0.679174721240997,-0.255502045154572,0.343792200088501,-0.626768731761373,-0.26968107538565,0.387999702095469,2
1.280029296875,-0.657977283000946,2.80427551269531,1.34917521476746,-0.383256224448249,2.80091193399677,1.38011095014101,1162.247,1422.295,3140.199,3236.749,-0.1173229,0.02154706,0.07357255,-0.686748445034027,-0.265294015407562,0.348844170570374,-0.639937296597118,-0.275347140947359,0.39615167103453,2
1.29998779296875,-0.671871364116669,2.79877758026123,1.35625874996185,-0.396158759015336,2.79536033382764,1.388098233671,1182.826,1423.148,3142.551,3227.401,-0.1180398,0.02043478,0.07598515,-0.694708108901978,-0.274902313947678,0.354176133871078,-0.652985332144132,-0.280961346123326,0.404229026602261,2
1.32000732421875,-0.685931861400604,2.79309105873108,1.36345636844635,-0.409361504843077,2.78967956113998,1.39627136227237,1168.94,1419.645,3158.332,3242.604,-0.1186167,0.0193798,0.07846805,-0.703023374080658,-0.284321933984756,0.359883487224579,-0.6659860834168,-0.286555206197011,0.41227711095171,2
1.34002685546875,-0.700164258480072,2.78722167015076,1.37076222896576,-0.422823591595166,2.78388720129772,1.40460503526004,1186.01,1417.952,3152.992,3245.197,-0.1189682,0.01844573,0.08086677,-0.711624503135681,-0.293468534946442,0.365292847156525,-0.67889305416841,-0.29210871513241,0.420267140691238,2
1.3599853515625,-0.714575350284576,2.781174659729,1.3781830072403,-0.436500861174643,2.77800225429635,1.41307191666844,1207.511,1417.108,3155.748,3237.026,-0.1192042,0.01762095,0.08317723,-0.720552265644073,-0.302346885204315,0.371038228273392,-0.69166099897751,-0.297602405088682,0.428171106749628,2
1.3800048828125,-0.729170978069305,2.77495527267456,1.38572752475739,-0.450474904562636,2.77198961381608,1.4217225152016,1190.683,1411.136,3174.759,3254.504,-0.1193538,0.01684984,0.08553957,-0.729780554771423,-0.310972690582275,0.377225071191788,-0.704361775018035,-0.303067194200314,0.436033492140578,2
1.4000244140625,-0.743955552577972,2.76856994628906,1.39338946342468,-0.464702095472036,2.76586805102946,1.43052982410961,1206.124,1408.106,3170.732,3258.198,-0.1192952,0.01620453,0.08778157,-0.739226520061493,-0.319269895553589,0.383097350597382,-0.716950039288891,-0.308483572640673,0.443826227386424,2
1.41998291015625,-0.758934080600739,2.76202511787415,1.40117478370667,-0.479135601808478,2.75965771647838,1.43946485209513,1229.763,1406.491,3173.088,3248.428,-0.1191248,0.01567789,0.08988454,-0.748928844928741,-0.327244728803635,0.389266520738602,-0.729381927869995,-0.313832666990362,0.451522158631107,2
1.44000244140625,-0.774111211299896,2.75532674789429,1.40909206867218,-0.493861275572861,2.75332167044526,1.4485807456364,1215.81,1399.793,3191.682,3263.665,-0.118884,0.01520939,0.09199555,-0.758858263492584,-0.334918797016144,0.395865023136139,-0.741727567798258,-0.319144650954242,0.459164697851088,2
1.46002197265625,-0.789489686489105,2.74848222732544,1.41713500022888,-0.50883280894277,2.74687983789241,1.45784883798541,1232.502,1396.711,3186.804,3266.459,-0.1184776,0.01486542,0.09395516,-0.768923342227936,-0.342224597930908,0.402145594358444,-0.753942941956197,-0.324400585196357,0.466726596353819,2
1.47998046875,-0.805072963237762,2.74149870872498,1.42530965805054,-0.524000783579472,2.74035348215039,1.46723853683636,1255.85,1394.697,3189.449,3256.318,-0.1180068,0.0146344,0.09575126,-0.779165267944336,-0.349178612232208,0.40873110294342,-0.76598572865452,-0.329582259876133,0.474181654997567,2
1.5,-0.820864021778107,2.73438239097595,1.43362462520599,-0.539455198877605,2.73370387899399,1.4768055561018,1240.996,1387.169,3209.441,3270.772,-0.1174992,0.01445349,0.09753715,-0.789554059505463,-0.355814665555954,0.415745824575424,-0.777924000354858,-0.334718964672088,0.481572013878822,1
1.52001953125,-0.836863815784454,2.7271409034729,1.44207262992859,-0.555147149984933,2.72695207081487,1.48651962134853,1257.509,1384.03,3204.24,3272.767,-0.1168536,0.01438947,0.09915696,-0.799989402294159,-0.36207190155983,0.422397762537003,-0.789715229532175,-0.33979240117828,0.488871346433721,1
1.53997802734375,-0.853074133396149,2.71978139877319,1.45065891742706,-0.571024729446907,2.7201203919406,1.49634859938949,1281.559,1381.961,3206.104,3261.389,-0.1161735,0.01442891,0.1006001,-0.810516834259033,-0.36796972155571,0.42931604385376,-0.801318788528229,-0.344785088448372,0.496054502206448,1
1.55999755859375,-0.86949634552002,2.71231031417847,1.45939183235168,-0.587181951496087,2.71316839067337,1.50635068951315,1266.359,1374.051,3226.118,3275.11,-0.1154885,0.01450439,0.1020275,-0.821110904216766,-0.373550117015839,0.436646670103073,-0.812800388649436,-0.349725300221754,0.503162159625937,1
1.58001708984375,-0.886129677295685,2.70473504066467,1.46826338768005,-0.603567408310176,2.70611818636293,1.51649406782863,1281.615,1371.07,3220.127,3277.378,-0.1147007,0.01468189,0.1032854,-0.831668376922607,-0.378760308027267,0.443579107522964,-0.824119146742882,-0.35459544561987,0.510169010073001,0
1.5999755859375,-0.902974426746368,2.69706249237061,1.47727847099304,-0.620126809287134,2.69899313873865,1.52674512586702,1304.721,1369.131,3221.538,3265.548,-0.1139071,0.01494894,0.1043586,-0.842240393161774,-0.383624732494354,0.450751811265945,-0.835236272052476,-0.359378834064062,0.517051040221759,0
1.6199951171875,-0.920030534267426,2.68929862976074,1.48644471168518,-0.636958033083316,2.69175113334911,1.53716445517924,1288.231,1361.209,3241.61,3278.67,-0.1131295,0.0152369,0.1054115,-0.852803528308868,-0.388192117214203,0.458310127258301,-0.846214826007804,-0.364102599125749,0.523847288101157,0
1.6400146484375,-0.93729555606842,2.68145036697388,1.49575304985046,-0.654007271984653,2.68441532215046,1.54771874622704,1302.722,1358.794,3234.465,3280.374,-0.1122698,0.01561313,0.1062909,-0.863250970840454,-0.392414808273315,0.46541827917099,-0.857015715678588,-0.368749920209162,0.530533553325099,0
1.6600341796875,-0.954768359661102,2.67352390289307,1.50520765781403,-0.671270921724395,2.67698725595799,1.55840576779763,1325.565,1357.407,3234.871,3267.397,-0.1114267,0.01606438,0.1069833,-0.873639106750488,-0.396319210529327,0.472731500864029,-0.86763421272879,-0.373318762843399,0.537106908828335,0
1.67999267578125,-0.972446978092194,2.66552495956421,1.51481282711029,-0.688691692550512,2.66949158495151,1.56919005480539,1319.434,1352.853,3245.276,3275.218,-0.11069,0.01652966,0.1076261,-0.883932530879974,-0.39994353055954,0.4802605509758,-0.878034183119987,-0.377793579561193,0.543544985919778,0
1.70001220703125,-0.990329265594482,2.65745854377747,1.52457094192505,-0.706372354049449,2.66188409024902,1.58013522651994,1305.137,1344.407,3263.654,3284.18,-0.1098703,0.01701874,0.1082157,-0.894113898277283,-0.403325289487839,0.487906336784363,-0.888274735793774,-0.382199803288802,0.549884375850026,0
1.72003173828125,-1.00841081142426,2.64933061599731,1.53446984291077,-0.72425607283747,2.65418922566779,1.59120610036939,1329.122,1344.543,3248.602,3279.191,-0.1089414,0.0175952,0.1086013,-0.904082238674164,-0.406396687030792,0.494943767786026,-0.898319376918855,-0.386521731750138,0.556102487199065,0
1.739990234375,-1.02668905258179,2.64114689826965,1.54451406002045,-0.74228345468553,2.64643254688532,1.60236590849663,1353.268,1344.79,3245.204,3265.39,-0.108103,0.01821947,0.1088094,-0.913913488388062,-0.409186482429504,0.502213835716248,-0.908134108040217,-0.390744736359816,0.562178273303667,0
1.760009765625,-1.04516100883484,2.63291144371033,1.55471229553223,-0.760560719141003,2.63856835059778,1.61368040586141,1328.045,1337.371,3266.88,3280.983,-0.1073776,0.01881154,0.10903,-0.923599541187286,-0.411771357059479,0.509913086891174,-0.91777478390713,-0.394892849856044,0.568146310914365,0
1.780029296875,-1.06382155418396,2.62462902069092,1.56505370140076,-0.7790289055498,2.63062200592748,1.62511309301018,1334.691,1335.912,3260.458,3283.773,-0.1066037,0.01945144,0.1090979,-0.93302720785141,-0.414123266935349,0.517070889472961,-0.927207006545171,-0.398951271751399,0.573985306046387,0
1.79998779296875,-1.08266663551331,2.61630368232727,1.57553946971893,-0.797626646773287,2.62261991743975,1.63662598076079,1356.355,1336.111,3259.121,3267.061,-0.1058399,0.02013808,0.1089875,-0.942255079746246,-0.416263788938522,0.524290502071381,-0.936399026186941,-0.402906341007953,0.579675604081262,0
1.82000732421875,-1.10169208049774,2.60793876647949,1.58617424964905,-0.816463410111527,2.61451498441355,1.64828683458664,1338.492,1330.272,3275.663,3276.489,-0.1051267,0.02079508,0.1088903,-0.951270997524261,-0.418240398168564,0.531741857528687,-0.94540321420156,-0.406780591562751,0.585249625391268,0
1.84002685546875,-1.1208918094635,2.59953832626343,1.59694600105286,-0.835478236913388,2.60633343565348,1.6600579181788,1350.139,1330.262,3263.393,3277.475,-0.1043959,0.02148428,0.108665,-0.959979653358459,-0.420012444257736,0.538590431213379,-0.954187384555097,-0.410560174664568,0.59068744528817,0
1.8599853515625,-1.14026093482971,2.59110641479492,1.60785758495331,-0.854607925216182,2.59810246519841,1.67190010651166,1368.003,1330.738,3261.532,3263.693,-0.1037482,0.02218994,0.1082991,-0.968464136123657,-0.421613454818726,0.545579612255096,-0.962722140342816,-0.41423244164655,0.595970865687568,0
1.8800048828125,-1.15979540348053,2.58264422416687,1.61891448497772,-0.873964974649439,2.58977366760063,1.68388304221498,1341.407,1324.67,3280.692,3277.511,-0.1031804,0.02284148,0.1079736,-0.976717412471771,-0.423107206821442,0.552842795848846,-0.971056158224177,-0.417818336715394,0.601130019760457,0
1.9000244140625,-1.17948806285858,2.57415509223938,1.63010323047638,-0.893486564535158,2.58137407284289,1.69596783629653,1349.473,1325.009,3269.247,3278.477,-0.1025573,0.02351947,0.1075184,-0.98463761806488,-0.424455016851425,0.559436321258545,-0.979159571260204,-0.421305008961645,0.606146418448853,0
1.91998291015625,-1.19933414459229,2.56564164161682,1.64142465591431,-0.91310780215452,2.5729316024492,1.70811431707208,1369.897,1326.77,3265.033,3261.19,-0.1019714,0.02421582,0.1069141,-0.992300927639008,-0.425676494836807,0.566071808338165,-0.98700543065471,-0.424680863071164,0.611003379164165,0
1.94000244140625,-1.21932816505432,2.55710482597351,1.6528834104538,-0.932943991899774,2.5643966441608,1.72039386345315,1345.765,1322.163,3281.219,3272.697,-0.1014632,0.02485215,0.1063597,-0.99970406293869,-0.426825553178787,0.572936236858368,-0.994638524886308,-0.427965170275055,0.615728628108227,0
1.96002197265625,-1.23946309089661,2.54854774475098,1.66446602344513,-0.952930593197372,2.55579696798345,1.73276652175022,1353.096,1323.249,3268.348,3273.904,-0.1009274,0.02550069,0.1056992,-1.00675451755524,-0.427864670753479,0.579130411148071,-1.00203140433628,-0.431146119769234,0.620305172659443,0
1.97998046875,-1.25973391532898,2.53997135162354,1.6761736869812,-0.973001172086935,2.54716115859433,1.74519116617712,1370.27,1325.271,3264.718,3257.658,-0.1004491,0.02615226,0.1049154,-1.01353538036346,-0.42881914973259,0.585384845733643,-1.0091596546337,-0.434213206731958,0.624717899159203,0
2,-1.28013479709625,2.53137636184692,1.68801069259644,-0.993273599084619,2.53843849960327,1.7577407641983,1342.642,1320.998,3281.626,3269.961,-0.1000427,0.02673382,0.1042042,-1.02004432678223,-0.429744273424149,0.591850996017456,-1.01606400046349,-0.437183953857422,0.628992018127441,0
2.02001953125,-1.30065846443176,2.5227644443512,1.69996225833893,-1.01368176147806,2.52965743746343,1.77037438889544,1349.376,1322.482,3267.752,3270.733,-0.09958412,0.027324,0.1033992,-1.02618885040283,-0.430596172809601,0.597580194473267,-1.0227194988233,-0.440047628868552,0.633112088657522,0
2.03997802734375,-1.32129955291748,2.51413655281067,1.71202898025513,-1.03415783849082,2.52084715356021,1.78305005597715,1367.873,1325.167,3262.543,3252.806,-0.099166,0.02791455,0.1024813,-1.03205573558807,-0.43139311671257,0.603335678577423,-1.02910434715509,-0.442794850733705,0.637064613927399,0
2.05999755859375,-1.34205257892609,2.50549292564392,1.72421479225159,-1.05482201812353,2.5119559343546,1.79584216754118,1339.326,1321.624,3278.077,3265.587,-0.09882458,0.02842815,0.1016553,-1.03764605522156,-0.432185858488083,0.609291195869446,-1.03525504859546,-0.445441325732794,0.640872191117535,0
2.08001708984375,-1.36290991306305,2.49683427810669,1.7365049123764,-1.07560676837143,2.50301283698163,1.80870891805959,1344.479,1323.334,3263.755,3267.053,-0.0984315,0.02894414,0.1007499,-1.04287421703339,-0.432930916547775,0.614505171775818,-1.0411492471255,-0.447977434695423,0.644520980787238,0
2.0999755859375,-1.38386654853821,2.48816132545471,1.74889981746674,-1.09644304044274,2.49404757120739,1.82160756304102,1361.641,1326.288,3258.711,3248.886,-0.09806931,0.02945745,0.09974235,-1.04782783985138,-0.433646678924561,0.619745671749115,-1.04676782045836,-0.450394949835787,0.647999145330045,0
2.1199951171875,-1.40491664409637,2.47947382926941,1.76140308380127,-1.11745308225396,2.48500753716864,1.83461377976925,1331.823,1323.299,3273.69,3261.794,-0.0977689,0.0298926,0.09883861,-1.05250525474548,-0.434379398822784,0.625160694122314,-1.0521429102862,-0.45270770082608,0.651326581984514,0
2.1400146484375,-1.42605304718018,2.47077226638794,1.77399909496307,-1.13856809990831,2.47592233495728,1.84768498154507,1337.49,1325.29,3258.418,3262.406,-0.09740032,0.0303318,0.09786256,-1.0568243265152,-0.435080379247665,0.629803657531738,-1.05725481901126,-0.454907212340279,0.654491096999312,0
2.1600341796875,-1.44727063179016,2.46205687522888,1.7866884469986,-1.15978280433347,2.46679424031336,1.86081789418076,1355.016,1328.55,3252.646,3243.485,-0.09705411,0.0307676,0.09679565,-1.06087362766266,-0.435764640569687,0.634467422962189,-1.06210153574728,-0.456992619150195,0.65749144554004,0
2.17999267578125,-1.46856319904327,2.45332765579224,1.79947125911713,-1.18102676265167,2.45765355853653,1.8739689163698,1337.103,1328.799,3257.077,3251.712,-0.09683893,0.03113518,0.09580884,-1.06463646888733,-0.436460733413696,0.639141798019409,-1.06666760390386,-0.458957270716794,0.660318059240953,0
2.20001220703125,-1.48992574214935,2.44458365440369,1.81234586238861,-1.20242455577657,2.44844668594002,1.88721516963236,1311.886,1324.839,3269.885,3260.291,-0.09653053,0.03145646,0.09488494,-1.06812584400177,-0.437196284532547,0.643728017807007,-1.07097916161324,-0.460812413548163,0.662987118851036,0
2.22003173828125,-1.51135122776031,2.43582582473755,1.82529485225677,-1.22390595867498,2.43920383839376,1.9005131813276,1329.678,1328.444,3247.995,3252.907,-0.09607673,0.03180595,0.09385415,-1.07126796245575,-0.437892258167267,0.647449851036072,-1.0750201524698,-0.462551139021528,0.665488684690339,0
2.239990234375,-1.53283417224884,2.42705464363098,1.83832001686096,-1.24539969505118,2.42995568409656,1.91381882803312,1349.481,1332.624,3239.053,3233.981,-0.09568152,0.03214867,0.09274818,-1.07415449619293,-0.438559114933014,0.651255786418915,-1.07877792518082,-0.464168003639063,0.667814925005999,0
2.260009765625,-1.55437016487122,2.41826963424683,1.8514267206192,-1.26703177594152,2.42064800401982,1.92721011658316,1313.044,1330.086,3254.728,3251.145,-0.09539443,0.03240319,0.09178466,-1.07679200172424,-0.439252823591232,0.655335187911987,-1.08227399942825,-0.465672266718726,0.669979161506271,0
2.280029296875,-1.57595217227936,2.40947103500366,1.86459994316101,-1.28873109644562,2.41131139261574,1.94064302965718,1312.836,1331.261,3242.269,3253.644,-0.09501626,0.03266406,0.09076544,-1.07910323143005,-0.439931809902191,0.65865957736969,-1.08549510920706,-0.467058220269158,0.671973181902092,0
2.29998779296875,-1.59757542610168,2.40065908432007,1.87783885002136,-1.31042570636616,2.40197680804417,1.95407302665558,1330.804,1334.44,3236.731,3232.078,-0.09459122,0.03293676,0.08965743,-1.08116328716278,-0.440602391958237,0.661942899227142,-1.08843144721369,-0.468321644481621,0.673790915005368,0
2.32000732421875,-1.61923456192017,2.39183330535889,1.89114534854889,-1.33224276726637,2.39258953623693,1.96757882664355,1303.243,1332.732,3248.02,3242.874,-0.09418429,0.03314559,0.08867837,-1.08296585083008,-0.441288888454437,0.665326535701752,-1.09109983431736,-0.469469776906228,0.675442773735451,0
2.34002685546875,-1.64092350006104,2.38299465179443,1.90450382232666,-1.35411046309062,2.38318047763645,1.98111597206157,1310.877,1334.268,3230.735,3242.201,-0.09368894,0.03336575,0.08765583,-1.08444654941559,-0.441932260990143,0.667925894260406,-1.09348983658457,-0.470498128112872,0.676922298990446,0
2.3599853515625,-1.66263747215271,2.37414360046387,1.91791546344757,-1.37595634130987,2.37378080654189,1.99463961134278,1326.964,1336.922,3224.771,3223.806,-0.09320904,0.03358583,0.08657711,-1.08569478988647,-0.442547023296356,0.67058527469635,-1.09559452046326,-0.471403714787811,0.678225198571351,0
2.3800048828125,-1.68437170982361,2.36528015136719,1.9313839673996,-1.39790843013262,2.36433543599182,2.00822900004707,1292.16,1334.368,3238.69,3239.598,-0.09277548,0.03373465,0.08564535,-1.08670949935913,-0.443171501159668,0.67342746257782,-1.09742594550583,-0.472191725819537,0.679358937915576,0
2.4000244140625,-1.70612001419067,2.35640525817871,1.94489336013794,-1.41989437329222,2.3548754988664,2.02183934619858,1296.526,1335.068,3223.419,3239.965,-0.09221302,0.03390439,0.08465592,-1.08742237091064,-0.4437495470047,0.675470411777496,-1.09897654259203,-0.472858904427064,0.68031883137712,0
2.41998291015625,-1.72787833213806,2.34751963615417,1.9584436416626,-1.4418413890156,2.34543231112926,2.03542559441269,1316.006,1337.845,3216.378,3218.343,-0.09160635,0.03409283,0.08358255,-1.08790981769562,-0.444285273551941,0.67751157283783,-1.10024227275454,-0.473403512755585,0.681102378642803,0
2.44000244140625,-1.74964165687561,2.33862352371216,1.97203779220581,-1.46387808506052,2.33595053645515,2.04906735901791,1285.819,1335.944,3227.707,3231.299,-0.09103058,0.03422355,0.08264273,-1.08816611766815,-0.444806158542633,0.679708898067474,-1.10123038958312,-0.473828671822132,0.681714070030222,0
2.46002197265625,-1.77140426635742,2.32971811294556,1.98566067218781,-1.48593173759011,2.32646146587939,2.06271962049488,1291.695,1336.427,3211.905,3231.008,-0.09034454,0.03437728,0.08165027,-1.08812928199768,-0.445257484912872,0.681145191192627,-1.10193621258339,-0.474132367740737,0.682151008090402,0
2.47998046875,-1.79316186904907,2.32080507278442,1.9993132352829,-1.50792940965705,2.3169964821328,2.07633722739875,1309.267,1338.563,3206.08,3210.567,-0.08963614,0.03454804,0.08058745,-1.08787548542023,-0.445649772882462,0.682626008987427,-1.10235860927677,-0.474314113237503,0.682412491765153,0
2.5,-1.81490969657898,2.3118851184845,2.01299858093262,-1.52999999932945,2.30750012397766,2.08999997377396,1277.213,1336.167,3218.158,3224.649,-0.08895757,0.03466425,0.07966388,-1.08739733695984,-0.446012020111084,0.684264302253723,-1.10250000050292,-0.474374949932098,0.682500019669533,0
2.52001953125,-1.83664238452911,2.30295944213867,2.02670097351074,-1.55207058900185,2.29800376582252,2.10366272014916,1283.679,1335.966,3202.567,3223.732,-0.08814956,0.03481064,0.07868251,-1.08663535118103,-0.446288496255875,0.685125350952148,-1.10235860927677,-0.474314113237503,0.682412491765153,0
2.53997802734375,-1.85835564136505,2.294029712677,2.04042148590088,-1.57406826106879,2.28853878207593,2.11728032705303,1302.93,1337.751,3196.143,3202.224,-0.08730534,0.03498166,0.07762547,-1.08566164970398,-0.446486055850983,0.686020970344543,-1.10193621258339,-0.474132367740737,0.682151008090402,0
2.55999755859375,-1.88004517555237,2.28509712219238,2.05416297912598,-1.59612191359838,2.27904971150017,2.13093258853001,1271.8,1335.268,3207.406,3216.091,-0.08649361,0.03510268,0.07670572,-1.08446836471558,-0.446631222963333,0.687080383300781,-1.10123038958312,-0.473828671822132,0.681714070030222,0
2.58001708984375,-1.90170502662659,2.27616357803345,2.06791067123413,-1.6181586096433,2.26956793682606,2.14457435313522,1278.05,1334.46,3192.124,3215.47,-0.08555724,0.03525725,0.07572684,-1.08300018310547,-0.446671694517136,0.687384605407715,-1.10024227275454,-0.473403512755585,0.681102378642802,0
2.5999755859375,-1.92333149909973,2.26723122596741,2.08166527748108,-1.64010562536668,2.26012474908893,2.15816060134934,1297.078,1335.763,3185.991,3194.045,-0.08458306,0.03544007,0.07466788,-1.08132493495941,-0.446615487337112,0.687733173370361,-1.09897654259203,-0.472858904427064,0.680318831377119,0
2.6199951171875,-1.94492018222809,2.25830149650574,2.09543013572693,-1.66209156852628,2.2506648119635,2.17177094750084,1266.355,1333.151,3196.928,3207.628,-0.08363871,0.03557913,0.07373848,-1.07943260669708,-0.446488201618195,0.688244104385376,-1.09742594550583,-0.472191725819537,0.679358937915576,0
2.6400146484375,-1.96646571159363,2.24937653541565,2.1091902256012,-1.68404365734903,2.24121944141343,2.18536033620513,1273.283,1331.858,3181.834,3206.337,-0.08256705,0.03575643,0.07274335,-1.07727038860321,-0.446239769458771,0.688007831573486,-1.09559452046326,-0.471403714787811,0.678225198571351,0
2.6600341796875,-1.98796343803406,2.24045920372009,2.1229465007782,-1.7059562766819,2.23179105348221,2.198925291415,1292.87,1332.771,3175.731,3184.43,-0.08145598,0.03596574,0.0716648,-1.07490146160126,-0.445877730846405,0.687819957733154,-1.09348297402779,-0.470495175346408,0.676918050740891,0
2.67999267578125,-2.0094096660614,2.23155117034912,2.13669919967651,-1.72775723139253,2.2224107117184,2.21242112090437,1275.877,1331.946,3177.279,3192.247,-0.08043918,0.0361458,0.07067471,-1.07230269908905,-0.445414245128632,0.6876340508461,-1.09109983431736,-0.469469776906228,0.675442773735451,0
2.70001220703125,-2.0307993888855,2.22265386581421,2.15044689178467,-1.74957429229274,2.21302343991116,2.22592692089233,1253.097,1326.682,3187.288,3199.399,-0.07930521,0.03631954,0.06973802,-1.06949126720428,-0.444867759943008,0.687381863594055,-1.08843144721369,-0.468321644481621,0.673790915005369,0
2.72003173828125,-2.05212759971619,2.21377015113831,2.16417384147644,-1.77133515528999,2.20366034849157,2.23939793170129,1272.323,1326.271,3167.337,3189.618,-0.07798588,0.03655411,0.06868801,-1.06641411781311,-0.444170743227005,0.686342358589172,-1.08548570791771,-0.467054175156991,0.671967362056136,0
2.739990234375,-2.07338976860046,2.2049036026001,2.17788195610046,-1.79296822271738,2.1943522439355,2.25278983096475,1294.14,1327.51,3158.805,3168.018,-0.07667667,0.0368167,0.06756146,-1.0631263256073,-0.443327605724335,0.685409128665924,-1.08227399942825,-0.465672266718727,0.669979161506271,0
2.760009765625,-2.09458255767822,2.19605588912964,2.19157648086548,-1.81460030360772,2.18504456385877,2.26618111951479,1260.652,1324.411,3170.04,3184.312,-0.07546386,0.03703335,0.06656817,-1.0596227645874,-0.442374765872955,0.684722542762756,-1.07877792518082,-0.464168003639063,0.667814925005998,0
2.780029296875,-2.11569976806641,2.18723058700562,2.2052435874939,-1.83615965364354,2.17576817783687,2.27952738420123,1263.251,1321.545,3158.4,3184.577,-0.07413974,0.03728894,0.06550335,-1.05586099624634,-0.441282004117966,0.683355748653412,-1.07500824518964,-0.462546015651526,0.665481313516697,0
2.79998779296875,-2.13673734664917,2.17842960357666,2.2188835144043,-1.85757544288233,2.1665535620153,2.29278477791556,1282.738,1321.495,3153.277,3161.508,-0.07274957,0.03758601,0.0643373,-1.05188775062561,-0.440055280923843,0.681998014450073,-1.07097916161324,-0.460812413548163,0.662987118851036,0
2.82000732421875,-2.15769124031067,2.16965508460999,2.23249864578247,-1.87897323600723,2.1573466894188,2.30603103117811,1257.458,1318.822,3161.586,3171.246,-0.07137911,0.03785633,0.06327675,-1.04768705368042,-0.438710927963257,0.680750966072083,-1.06666760390385,-0.458957270716794,0.660318059240952,0
2.84002685546875,-2.178555727005,2.16091108322144,2.24607443809509,-1.90028201942005,2.14817811521475,2.31922218318877,1267.139,1316.101,3146.322,3168.101,-0.06990319,0.03816726,0.062149,-1.04322075843811,-0.437208533287048,0.678794026374817,-1.06208716414723,-0.456986435452194,0.657482548835001,0
2.8599853515625,-2.19932651519775,2.15219974517822,2.2596127986908,-1.92143189875059,2.13907791299805,2.33231496600284,1286.192,1315.657,3140.398,3147.011,-0.06842194,0.03850731,0.06094451,-1.03854143619537,-0.435558050870895,0.676915764808655,-1.05725481901126,-0.454907212340279,0.654491096999312,0
2.8800048828125,-2.21999931335449,2.1435239315033,2.27311706542969,-1.94254691640495,2.12999271078668,2.34538616777867,1255.529,1312.434,3150.265,3160.893,-0.06700673,0.03880943,0.05986017,-1.03364074230194,-0.433787256479263,0.675216913223267,-1.0521429102862,-0.45270770082608,0.651326581984514,0
2.9000244140625,-2.24056887626648,2.13488674163818,2.28657341003418,-1.96355695821617,2.12095267674793,2.3583923845069,1261.334,1308.974,3137.038,3159.55,-0.06547595,0.03915231,0.05869886,-1.02848434448242,-0.431865334510803,0.672816932201385,-1.04676782045836,-0.450394949835786,0.647999145330045,0
2.91998291015625,-2.26103115081787,2.12629079818726,2.29998254776001,-1.98439323028747,2.1119874109737,2.37129102948832,1281.841,1308.489,3131.056,3136.354,-0.06390148,0.03953272,0.05743642,-1.02311480045319,-0.429797977209091,0.670453667640686,-1.0411492471255,-0.447977434695422,0.644520980787238,0
2.94000244140625,-2.28138136863708,2.11773896217346,2.31334710121155,-2.00517798053537,2.10304431360073,2.38415778000673,1255.174,1305.875,3138.741,3147.527,-0.06237922,0.03988265,0.05627681,-1.01751756668091,-0.427604645490646,0.668227970600128,-1.03525504859546,-0.445441325732794,0.640872191117535,0
2.96002197265625,-2.30161452293396,2.10923385620117,2.32665371894836,-2.02584216016808,2.09415309439512,2.39694989157076,1262.956,1302.449,3124.832,3144.902,-0.06076162,0.04027094,0.05504052,-1.01166331768036,-0.425257831811905,0.665325999259949,-1.02910434715508,-0.442794850733705,0.637064613927399,0
2.97998046875,-2.32172656059265,2.10077857971191,2.33990359306335,-2.04631823718085,2.08534281049189,2.40962555865248,1282.037,1301.754,3119.577,3122.5,-0.05912963,0.04068942,0.05371592,-1.00559329986572,-0.422767102718353,0.66249805688858,-1.0227194988233,-0.440047628868552,0.633112088657521,0
3,-2.341712474823,2.09237551689148,2.35309982299805,-2.06672639957428,2.07656174835205,2.42225918334961,1253.516,1299.005,3127.653,3134.882,-0.05756636,0.04107325,0.05250172,-0.999294400215149,-0.420154631137848,0.65980726480484,-1.01606400046349,-0.437183953857422,0.628992018127441,0
3.02001953125,-2.36156702041626,2.08402752876282,2.36622858047485,-2.08699882657197,2.06783908936099,2.4348087813708,1260.808,1295.136,3114.483,3131.993,-0.05590295,0.04149381,0.05121105,-0.992743730545044,-0.41739758849144,0.656439781188965,-1.0091596546337,-0.434213206731958,0.624717899159203,0
3.03997802734375,-2.38128662109375,2.07573747634888,2.37929105758667,-2.10706940546153,2.05920327997188,2.4472334257977,1280.542,1294.337,3108.821,3109.043,-0.0542177,0.04194353,0.04983133,-0.985976994037628,-0.414502114057541,0.653124988079071,-1.00203140433628,-0.431146119769234,0.620305172659443,0
3.05999755859375,-2.40086650848389,2.06750774383545,2.39228987693787,-2.12705600675913,2.05060360379452,2.45960608409476,1253.333,1291.859,3115.691,3120.827,-0.05260702,0.04235835,0.04855991,-0.978981733322144,-0.411487698554993,0.649936318397522,-0.994638524886308,-0.427965170275055,0.615728628108227,0
3.08001708984375,-2.42030143737793,2.0593409538269,2.40521192550659,-2.14689219650438,2.04206864550612,2.47188563047583,1260.158,1287.834,3102.74,3118.19,-0.05090952,0.04280522,0.04721522,-0.971741259098053,-0.408336371183395,0.646096885204315,-0.987005430654711,-0.424680863071165,0.611003379164165,0
3.0999755859375,-2.43958687782288,2.05123996734619,2.41805839538574,-2.16651343412374,2.03362617511243,2.48403211125138,1278.719,1286.947,3097.459,3095.821,-0.04919711,0.04327765,0.04578405,-0.964287459850311,-0.405055105686188,0.64231938123703,-0.979159571260203,-0.421305008961644,0.606146418448853,0
3.1199951171875,-2.45871925354004,2.04320645332336,2.43083143234253,-2.18603502400946,2.02522658035469,2.49611690533293,1251.807,1284.732,3103.778,3107.286,-0.04756139,0.04371505,0.04445727,-0.956607639789581,-0.401662588119507,0.638655006885529,-0.971056158224178,-0.417818336715394,0.601130019760458,0
3.1400146484375,-2.47769284248352,2.03524374961853,2.44351840019226,-2.20539207344272,2.01689778275692,2.50809984103626,1258.755,1280.643,3091.221,3103.985,-0.04583992,0.04418208,0.04305765,-0.948690056800842,-0.398144453763962,0.634353995323181,-0.962722140342815,-0.41423244164655,0.595970865687568,0
3.1600341796875,-2.49650430679321,2.02735328674316,2.45612049102783,-2.22457999991466,2.00864175404465,2.51997808157008,1277.169,1279.777,3085.719,3081.717,-0.04410727,0.04467174,0.04157577,-0.940561354160309,-0.394505888223648,0.630104839801788,-0.954160941629351,-0.410548797012349,0.590671075857482,0
3.17999267578125,-2.51514840126038,2.01953816413879,2.46863722801208,-2.24353658854737,2.00048526354177,2.53171311296128,1261.937,1278.617,3085.026,3087.748,-0.04249713,0.04513237,0.04016919,-0.932205140590668,-0.390758991241455,0.625837743282318,-0.945403214201559,-0.406780591562751,0.585249625391267,0
3.20001220703125,-2.53362107276917,2.01179981231689,2.48106694221497,-2.26237335188561,1.99238033051557,2.54337396678712,1243.452,1273.728,3090.719,3092.488,-0.04083318,0.04558372,0.03879562,-0.923643708229065,-0.386923849582672,0.621488273143768,-0.93639902618694,-0.402906341007952,0.579675604081262,0
3.22003173828125,-2.55191850662231,2.00414037704468,2.49339699745178,-2.28102768446584,1.98435389234802,2.55492188728337,1259.864,1270.94,3074.81,3081.841,-0.03904087,0.04607428,0.03731803,-0.914858937263489,-0.382973521947861,0.616504311561584,-0.927178570605173,-0.398939036560826,0.573967702844936,0
3.239990234375,-2.57003569602966,1.99656224250793,2.50562930107117,-2.2994392795179,1.97643189735754,2.5663195416865,1278.298,1270.829,3067.78,3060.705,-0.03727999,0.04657715,0.03577819,-0.905865252017975,-0.378907948732376,0.611613869667053,-0.917774783907129,-0.394892849856044,0.568146310914365,0
3.260009765625,-2.58796882629395,1.98906719684601,2.51776671409607,-2.31771654397337,1.96856770107001,2.57763403905129,1250.03,1269.091,3073.323,3073.763,-0.03564588,0.04703561,0.03435476,-0.896657884120941,-0.374749481678009,0.60687130689621,-0.908134108040216,-0.390744736359816,0.562178273303667,0
3.280029296875,-2.60571360588074,1.98165726661682,2.52979803085327,-2.33579875395963,1.96078743127139,2.58882778840789,1252.885,1264.682,3063.22,3072.071,-0.03395158,0.04751272,0.03287044,-0.887240767478943,-0.370498567819595,0.601561486721039,-0.898289055119065,-0.386508685126782,0.556083716560567,0
3.29998779296875,-2.62326622009277,1.97433400154114,2.54172372817993,-2.35362764460945,1.95311615770631,2.59986472102797,1269.027,1263.806,3058.882,3050.218,-0.03223224,0.04800773,0.03130915,-0.877630770206451,-0.366159290075302,0.596286356449127,-0.888274735793772,-0.382199803288803,0.549884375850026,0
3.32000732421875,-2.64062261581421,1.96709930896759,2.55354499816895,-2.37130830610839,1.94550866300381,2.61080989274252,1246.083,1262.638,3062.364,3058.948,-0.03058214,0.04846865,0.02984643,-0.867815792560577,-0.361741572618484,0.591059803962708,-0.878034183119985,-0.377793579561194,0.543544985919778,0
3.34002685546875,-2.65777850151062,1.95995450019836,2.56524991989136,-2.3887820321449,1.9379902068497,2.62162696154813,1254.028,1258.49,3050.065,3054.384,-0.028866,0.04894822,0.02832744,-0.857800006866455,-0.35723888874054,0.585251152515411,-0.867602121152829,-0.373304954734798,0.537087042614081,0
3.3599853515625,-2.6747305393219,1.9529013633728,2.5768404006958,-2.40599272667425,1.93058492580486,2.63228120132087,1270.205,1257.704,3045.059,3033.517,-0.02716318,0.0494355,0.0267546,-0.847599029541016,-0.352653831243515,0.57952207326889,-0.857015715678588,-0.368749920209162,0.530533553325099,0
3.3800048828125,-2.69147443771362,1.94594144821167,2.58831787109375,-2.42304196557559,1.92324911460621,2.64283549236868,1243.887,1256.576,3048.874,3045.371,-0.02556528,0.0498803,0.02529755,-0.837207078933716,-0.348000586032867,0.573879539966583,-0.846214826007803,-0.364102599125748,0.523847288101157,0
3.4000244140625,-2.70800733566284,1.93907582759857,2.59967160224915,-2.43987318937177,1.91600710921667,2.65325482168089,1248.663,1252.172,3038.275,3042.354,-0.02390134,0.05033993,0.02378584,-0.826636433601379,-0.3432796895504,0.567687153816223,-0.835236272052476,-0.359378834064062,0.51705104022176,0
3.41998291015625,-2.72432494163513,1.93230605125427,2.6109025478363,-2.45643259034873,1.90888206159239,2.66350587971929,1264.22,1251.518,3033.514,3021.443,-0.02222568,0.05080981,0.02221207,-0.815896987915039,-0.338491529226303,0.561549842357635,-0.824119146742881,-0.354595445619869,0.510169010073001,0
3.44000244140625,-2.7404248714447,1.92563319206238,2.62201189994812,-2.47281804716281,1.90183185728196,2.67364925803476,1241.265,1250.926,3035.8,3030.961,-0.0206363,0.05124283,0.02074051,-0.804979681968689,-0.333644777536392,0.555465817451477,-0.812800388649434,-0.349725300221754,0.503162159625937,0
3.46002197265625,-2.75630259513855,1.91905832290649,2.63298916816711,-2.48897526921199,1.89487985601472,2.68365134815842,1247.289,1246.81,3025.082,3026.885,-0.0189894,0.05168839,0.01921934,-0.793898165225983,-0.328740030527115,0.54886531829834,-0.801318788528228,-0.344785088448372,0.496054502206447,0
3.47998046875,-2.77195596694946,1.91258263587952,2.64383578300476,-2.50485284867397,1.88804817714046,2.69348032619939,1261.849,1246.248,3020.49,3006.938,-0.01734783,0.05213943,0.01765028,-0.782659471035004,-0.32377764582634,0.542335450649261,-0.789715229532172,-0.33979240117828,0.488871346433721,0
3.5,-2.78738117218018,1.90620744228363,2.65455317497253,-2.5205447997813,1.88129636896134,2.70319439144611,1238.369,1245.771,3022.761,3017.038,-0.01580426,0.0525514,0.01619053,-0.771258115768433,-0.318767011165619,0.535864949226379,-0.777924000354857,-0.334718964672089,0.481572013878822,0
3.52001953125,-2.80257511138916,1.89993357658386,2.66513109207153,-2.53599921507943,1.87464676580493,2.71276141071155,1243.46,1241.563,3012.823,3013.333,-0.01420477,0.05297331,0.01468771,-0.759712696075439,-0.313711524009705,0.528899610042572,-0.765985728654519,-0.329582259876133,0.474181654997567,0
3.53997802734375,-2.8175356388092,1.89376127719879,2.67557096481323,-2.55116718971613,1.86812041006291,2.72215110956251,1257.535,1241.029,3008.318,2993.833,-0.01260527,0.0533997,0.01314127,-0.748027145862579,-0.308609992265701,0.521998703479767,-0.753942941956194,-0.324400585196356,0.466726596353819,0
3.55999755859375,-2.83225965499878,1.88769173622131,2.68587398529053,-2.56613872308604,1.86167857751006,2.73141920191151,1235.515,1240.81,3009.906,3003.108,-0.01109952,0.05378835,0.01170248,-0.736196458339691,-0.303469389677048,0.515150785446167,-0.741727567798258,-0.319144650954242,0.459164697851087,0
3.58001708984375,-2.84674501419067,1.88172578811646,2.69603085517883,-2.58086439685043,1.85534253147694,2.74053509545279,1240.355,1236.697,3000.372,2999.487,-0.009542638,0.05418456,0.01022799,-0.724241673946381,-0.298294126987457,0.507838845252991,-0.729381927869994,-0.313832666990361,0.451522158631107,0
3.5999755859375,-2.8609881401062,1.87586414813995,2.70604276657104,-2.59529790318687,1.84913219692586,2.7494701234383,1253.409,1236.178,2996.004,2981.072,-0.007988418,0.05458318,0.008717276,-0.712164223194122,-0.293082028627396,0.500594913959503,-0.716950039288888,-0.308483572640672,0.443826227386424,0
3.6199951171875,-2.87498736381531,1.87010765075684,2.71591067314148,-2.60952509409627,1.84301063413925,2.75827743234631,1232.658,1236.121,2996.879,2989.913,-0.006526875,0.05494587,0.007310342,-0.699960470199585,-0.287838786840439,0.493396610021591,-0.704361775018033,-0.303067194200314,0.436033492140578,0
3.6400146484375,-2.88874053955078,1.86445605754852,2.72562623023987,-2.62349913748426,1.83699799365897,2.76692803087948,1237.271,1232.168,2987.959,2986.151,-0.005021656,0.05531448,0.005871344,-0.687653422355652,-0.282570511102676,0.48577556014061,-0.691660998977508,-0.297602405088683,0.428171106749629,0
3.6600341796875,-2.90224504470825,1.85891056060791,2.73519086837769,-2.63721784221104,1.83109521827128,2.77542056261789,1249.15,1231.762,2984.075,2968.572,-0.003521764,0.05568364,0.004403965,-0.675241947174072,-0.277274787425995,0.478231221437454,-0.6788538526303,-0.292091847805727,0.42024287307172,0
3.67999267578125,-2.91549968719482,1.85347139835358,2.74460363388062,-2.65063849381582,1.82532068681534,2.78372858527554,1236.469,1231.728,2980.945,2973.849,-0.002129996,0.05602261,0.003020736,-0.662723362445831,-0.271955907344818,0.47063621878624,-0.665986083416798,-0.286555206197011,0.41227711095171,0
3.70001220703125,-2.92850208282471,1.8481388092041,2.75386357307434,-2.66384123964357,1.81963991412768,2.79190171387692,1225.666,1228.906,2982.379,2974.656,-0.0007217167,0.05634798,0.001673093,-0.650122463703156,-0.266625910997391,0.462992340326309,-0.65298533214413,-0.280961346123326,0.404229026602262,0
3.72003173828125,-2.94125080108643,1.84291362762451,2.76296329498291,-2.67678283166196,1.81407150862839,2.79991317582983,1234.965,1226.488,2972.158,2966.788,0.0007482102,0.05668289,0.0002866115,-0.637445509433746,-0.261279761791229,0.454980790615082,-0.639897267894093,-0.275329917714721,0.396126891360527,0
3.739990234375,-2.95374441146851,1.83779525756836,2.7719042301178,-2.68942333385363,1.80863265367006,2.80773824883709,1245.845,1226.393,2967.112,2951.804,0.002186552,0.05701374,-0.00110894,-0.624684572219849,-0.255911529064178,0.447044223546982,-0.62676873176137,-0.26968107538565,0.387999702095468,0
3.760009765625,-2.96598148345947,1.83278465270996,2.78068780899048,-2.70183851231475,1.80329074921818,2.81542383572149,1227.388,1226.369,2967.596,2959.779,0.003517243,0.05731028,-0.002401639,-0.611842632293701,-0.250527769327164,0.439181923866272,-0.613526094901139,-0.263983138701136,0.379801879044709,0
3.780029296875,-2.97796058654785,1.82788169384003,2.78930759429932,-2.71398789452788,1.79806320946631,2.82294488206675,1229.16,1222.714,2960.778,2957.526,0.004869518,0.05760722,-0.003707653,-0.598947763442993,-0.245139166712761,0.430992841720581,-0.600216179640806,-0.2582562540006,0.371562407459372,0
3.79998779296875,-2.98968005180359,1.82308685779572,2.79776501655579,-2.72583438304408,1.79296599641037,2.83027842278479,1238.598,1222.237,2957.624,2942.411,0.006219867,0.05790359,-0.005030711,-0.585996687412262,-0.239743366837502,0.422870934009552,-0.586886736182787,-0.252520966862155,0.36331084698941,0
3.82000732421875,-3.00114011764526,1.81840014457703,2.80606031417847,-2.73744929742843,1.78796842323393,2.8374686080838,1223.133,1222.452,2956.921,2948.538,0.007495384,0.05817244,-0.006263755,-0.57298868894577,-0.234342202544212,0.414766907691956,-0.573463232144022,-0.246745208083563,0.355001058539243,0
3.84002685546875,-3.01233863830566,1.81382131576538,2.81418752670288,-2.7487950044681,1.78308668245712,2.84449214121233,1228.111,1219.006,2949.669,2943.995,0.0087988,0.05844307,-0.007509049,-0.559948027133942,-0.228942513465881,0.406360238790512,-0.559993461530387,-0.240949542090342,0.346662628875244,0
3.8599853515625,-3.02327680587769,1.80935037136078,2.82214832305908,-2.75983729406747,1.77833549372837,2.85132784449154,1237.207,1218.656,2946.154,2930.147,0.01007926,0.05870922,-0.008756474,-0.546868622303009,-0.223540276288986,0.398038983345032,-0.546525890176286,-0.235154822377061,0.338325560657667,0
3.8800048828125,-3.0339515209198,1.8049875497818,2.82994365692139,-2.77064299647982,1.77368610185671,2.85801708903178,1221.172,1218.766,2945.666,2937.352,0.01126797,0.05894584,-0.009905362,-0.533753871917725,-0.218138888478279,0.389761716127396,-0.532985466132484,-0.229328756186666,0.329943393154704,0
3.9000244140625,-3.04436445236206,1.80073261260986,2.83756804466248,-2.78117737042527,1.76915345504432,2.86453836832583,1224.63,1215.331,2939.46,2933.773,0.01247764,0.05918265,-0.01106277,-0.520631194114685,-0.212747737765312,0.381219953298569,-0.51942076458699,-0.223492244065531,0.321546196721701,0
3.91998291015625,-3.05451440811157,1.79658532142639,2.8450231552124,-2.79140913007042,1.76475101471128,2.87087231495249,1232.581,1215.016,2936.278,2921.077,0.01367044,0.0594155,-0.01222125,-0.50749397277832,-0.207362905144691,0.372760593891144,-0.505880764601328,-0.217666360335509,0.313164291730931,0
