t,x_s1,x_s2,x_s3,x_s_d1,x_s_d2,x_s_d3,propellers_rpms1,propellers_rpms2,propellers_rpms3,propellers_rpms4,rollRad,pitchRad,yawRad,v_s1,v_s2,v_s3,v_s_d1,v_s_d2,v_s_d3,insideCount
0,-0.0599999986588955,2.94000005722046,1.17999994754791,-0.0599999986588955,2.94000005722046,1.17999994754791,0,0,0,0,0,0,0,0,0,0,-1.06581410364015E-15,4.44089209850063E-16,4.44089209850063E-16,0
0.0199966430664063,-0.0599999986588955,2.94000005722046,1.1771354675293,-0.0600018680476204,2.93999925287472,1.18000110478858,0,0,0,0,-0.01635394,-0.002474609,2.024222E-05,-3.71994488546079E-08,-3.93859025393795E-08,-0.143225952982903,-0.000279892991557604,-0.000120430134961378,0.000173267094926113,9
0.0399971008300781,-0.0599999986588955,2.94000005722046,1.17048275470734,-0.0600148681826738,2.93999365927978,1.18000915249146,0,0,0,0,-0.03270734,-0.004950816,5.430172E-05,-3.62924446051238E-08,-3.87405769686211E-08,-0.332637369632721,-0.00111080915396111,-0.000477950146533378,0.000687643781479785,9
0.05999755859375,-0.0599995739758015,2.93987059593201,1.16407775878906,-0.0600498857373401,2.93997859220429,1.18003083002592,1695.271,2832.001,3014.135,2752.065,-0.03300882,-0.004756405,0.01634437,2.12898576137377E-05,-0.00647863699123263,-0.320251375436783,-0.00247936261166862,-0.00106680046642749,0.00153484356504269,9
0.0799980163574219,-0.0600854456424713,2.93961358070374,1.15838325023651,-0.0601175407449857,2.93994948214456,1.18007271169851,2420.812,2187.322,2779.511,2952.934,-0.02696824,-0.003916977,0.04321666,-0.00429364899173379,-0.0128511898219585,-0.284727960824966,-0.00437227586895222,-0.00188126815916228,0.00270664704326441,9
0.0999984741210938,-0.0603754594922066,2.93927955627441,1.15355825424194,-0.0602281887669101,2.93990187339187,1.18014120809498,2685.965,1336.574,2539.85,3700.412,-0.01274908,-0.002845854,0.07089883,-0.0145007632672787,-0.0166960209608078,-0.24124763906002,-0.00677637982016689,-0.00291568692648091,0.00419490191241918,9
0.119998931884766,-0.0609662421047688,2.938960313797,1.14950525760651,-0.0603919230601972,2.93983142309968,1.18024256742227,2977.691,980.9219,2172.443,3996.821,0.009145518,-0.001266599,0.09388061,-0.0295391157269478,-0.0159569699317217,-0.202647089958191,-0.00967861374975049,-0.00416443710735115,0.00599152296740588,9
0.139999389648438,-0.0619143210351467,2.93877482414246,1.14610016345978,-0.0606185767455666,2.93973390035084,1.18038287685052,3358.926,891.7949,1703.551,4044.448,0.03462127,0.0007361691,0.1088095,-0.0474039539694786,-0.00927818939089775,-0.170254215598106,-0.0130660253322238,-0.00562194567796536,0.00808849210174802,9
0.159999847412109,-0.0632361173629761,2.9388484954834,1.14330697059631,-0.0609177249752248,2.93960518522485,1.18056806385509,3657.313,996.0743,1325.781,3906.375,0.05733475,0.002392864,0.1147769,-0.066089853644371,0.00368625950068235,-0.139660894870758,-0.0169257706321904,-0.00728268625174051,0.0104778583075938,9
0.179996490478516,-0.0649191439151764,2.93928503990173,1.14116609096527,-0.0612986060586912,2.93944130273522,1.18080384738964,3711.406,1202.417,1178.651,3680.49,0.07180464,0.002858767,0.1130931,-0.0841512382030487,0.0218263603746891,-0.107045575976372,-0.0212442472567593,-0.00914080609902243,0.0131512010557717,10
0.199996948242188,-0.066938154399395,2.94013905525208,1.13973307609558,-0.0617704296168641,2.93923829023936,1.18109592864822,3484.568,1421.445,1291.376,3452.095,0.07574927,0.001873948,0.1066343,-0.100950539112091,0.0427034124732018,-0.0716520249843597,-0.0260104776919234,-0.0111915819022102,0.0161017247421801,10
0.219997406005859,-0.0692675709724426,2.94140648841858,1.13902080059052,-0.0623419453860714,2.93899238297017,1.18144972413443,3068.861,1583.903,1582.03,3280.874,0.0706358,-0.0001304949,0.09877716,-0.116470776498318,0.063374362885952,-0.0356136932969093,-0.0312111627562649,-0.0134292913950757,0.0193211965399932,10
0.239997863769531,-0.0718857198953629,2.94303607940674,1.13897025585175,-0.0630217183703222,2.93869989564571,1.18187053599376,2627.412,1655.504,1909.341,3188.366,0.06052669,-0.002402704,0.0922782,-0.13090755045414,0.0814757943153381,-0.00252716615796089,-0.0368338920540454,-0.0158485947310391,0.02280193382306,10
0.259998321533203,-0.0747742727398872,2.94495534896851,1.13945710659027,-0.063818066443955,2.93835724931701,1.18236351338666,2317.407,1635.707,2142.612,3161.19,0.0500468,-0.004279167,0.08854802,-0.144427865743637,0.0959616899490356,0.0243434403091669,-0.04286636357961,-0.0184441987007453,0.0265363210638542,10
0.279998779296875,-0.0779179334640503,2.94709849357605,1.14033043384552,-0.0647390625194898,2.93796097043536,1.18293365383054,2221.265,1544.357,2217.949,3172.522,0.04256387,-0.00539663,0.08751881,-0.157183155417442,0.107158355414867,0.0436645895242691,-0.0492963837173861,-0.0212108567320638,0.030516809833474,9
0.299999237060547,-0.0813048779964447,2.94942307472229,1.14146077632904,-0.065792536715479,2.93750768991949,1.18358580454179,2321.721,1413.607,2147.164,3201.031,0.03931998,-0.005715676,0.08799945,-0.169347316026688,0.116234414279461,0.0565194599330425,-0.0561118672418845,-0.0241433688900884,0.0347359188016424,9
0.319999694824219,-0.0849255993962288,2.95191311836243,1.14277160167694,-0.0669860785243584,2.93699414222283,1.18432466377777,2531.291,1285.266,1992.046,3227.33,0.0395643,-0.005465872,0.08834658,-0.18103601038456,0.124498449265957,0.0655419677495956,-0.0633008373176985,-0.0272365818771378,0.0391862337367069,9
0.339996337890625,-0.0887698009610176,2.95457053184509,1.14424192905426,-0.068326768706371,2.93641728069206,1.18515461486636,2746.567,1199.498,1826.744,3231.383,0.04129796,-0.005032309,0.08719129,-0.192210078239441,0.132872521877289,0.0735170245170593,-0.0708499516420146,-0.0304847548730522,0.0438594951176439,9
0.359996795654297,-0.0928237959742546,2.95740365982056,1.14589083194733,-0.0698222324154443,2.93577382443646,1.1860803781411,2888.25,1177.442,1709.72,3203.326,0.04221355,-0.004802212,0.08392775,-0.20269986987114,0.141652390360832,0.0824429914355278,-0.0787503322603694,-0.0338840679420472,0.0487502070677249,9
0.379997253417969,-0.0970702618360519,2.96041417121887,1.14775490760803,-0.0714791088463715,2.935060916796,1.18710606357981,2918.663,1212.761,1669.368,3152.243,0.04054004,-0.005021656,0.07879855,-0.212323352694511,0.150524631142616,0.0932023227214813,-0.0869889214763108,-0.0374289027221294,0.0538502862508218,9
0.399997711181641,-0.101490005850792,2.96358966827393,1.14986789226532,-0.0733040467096699,2.93427569701629,1.18823578705104,2841.773,1279.744,1704.742,3098.01,0.03557829,-0.005736449,0.07265911,-0.220987245440483,0.158776596188545,0.105648800730705,-0.0955541759940907,-0.0411142924556206,0.059152586816983,9
0.419998168945313,-0.106064155697823,2.9669017791748,1.1522444486618,-0.0753034649285836,2.93341540321397,1.18947352217404,2696.34,1350.375,1786.72,3059.092,0.02777147,-0.006820356,0.06657205,-0.22870759665966,0.165600463747978,0.118826851248741,-0.104434660908044,-0.0449353170220673,0.0646500300148815,9
0.439998626708984,-0.110775880515575,2.9703094959259,1.15487372875214,-0.0774835548069347,2.93247737144397,1.19082310166083,2536.617,1405.188,1875.896,3042.427,0.01834204,-0.008068846,0.06144271,-0.235586434602737,0.170387119054794,0.131464630365372,-0.113619049702587,-0.0488871029382406,0.0703356041918149,9
0.459999084472656,-0.115611582994461,2.97376728057861,1.15772318840027,-0.0798502821969742,2.93145903476675,1.19228821865812,2411.825,1432.963,1938.911,3046.627,0.008748222,-0.009290171,0.05777599,-0.24178484082222,0.172893345355988,0.142474412918091,-0.123096124252221,-0.0529648233581361,0.0762023647937057,9
0.479999542236328,-0.120561577379704,2.9772322177887,1.16074967384338,-0.0824093896672336,2.93035792231548,1.19387242808941,2350.24,1431.98,1958.684,3065.188,0.0001848475,-0.01035863,0.05560556,-0.247500255703926,0.173249140381813,0.151324555277824,-0.13285477482153,-0.0571636980729742,0.0822434343651008,9
0.499996185302734,-0.125620245933533,2.98066902160645,1.16391241550446,-0.085165853614868,2.9291718928855,1.19557881058158,2354.015,1409.057,1935.698,3090.279,-0.006714362,-0.01123215,0.0545756,-0.252933531999588,0.171839445829391,0.158134832978249,-0.14288206208162,-0.0614781596510152,0.0884508028450299,8
0.519996643066406,-0.130785137414932,2.98405170440674,1.1671826839447,-0.0881260274065667,2.92789821280061,1.19741129917127,2404.371,1377.292,1883.368,3114.016,-0.01193682,-0.01194268,0.05412725,-0.258245050907135,0.169136643409729,0.163514077663422,-0.153170920546857,-0.0659051680111775,0.0948200963613094,8
0.539997100830078,-0.136055529117584,2.98736262321472,1.17054772377014,-0.0912944900108037,2.92653491185861,1.1993727284581,2473.287,1352.305,1819.443,3129.537,-0.01597471,-0.01256746,0.0537156,-0.263519555330276,0.165551319718361,0.168250903487206,-0.163708678212627,-0.0704392707438901,0.101343470339432,8
0.55999755859375,-0.141430854797363,2.99058938026428,1.17400968074799,-0.094676112580471,2.92507989413848,1.20146611391775,2531.91,1344.108,1764.068,3133.465,-0.01957317,-0.01320342,0.05299031,-0.26876625418663,0.161335036158562,0.173099458217621,-0.17448465888317,-0.0750758741803766,0.108014315705644,8
0.579998016357422,-0.14690974354744,2.99372029304504,1.17758023738861,-0.0982755538235842,2.92353115512831,1.2036943395124,2561.248,1355.481,1729.046,3128.031,-0.02344807,-0.01393259,0.05186291,-0.273944169282913,0.156550005078316,0.178525567054749,-0.185488294752812,-0.0798104312890852,0.11482609048482,8
0.599998474121094,-0.152489826083183,2.99674224853516,1.18127405643463,-0.102097262171133,2.92188678079254,1.20606015903275,2553.659,1383.748,1719.068,3117.421,-0.02807451,-0.01479759,0.05049609,-0.279004096984863,0.15110257267952,0.18468976020813,-0.196709126405959,-0.0846384416756885,0.121772319800455,8
0.619998931884766,-0.158168271183968,2.99963855743408,1.18510258197784,-0.106145477944935,2.92014494663912,1.20856619743999,2514.428,1419.793,1730.211,3108.575,-0.03356275,-0.0157984,0.0491974,-0.283922076225281,0.144815757870674,0.191428229212761,-0.208136802817102,-0.0895554515830839,0.128846595874672,8
0.639999389648438,-0.163942620158195,3.0023889541626,1.18907022476196,-0.110424235525481,2.91830391678686,1.21121495220784,2457.254,1455.76,1752.662,3105.499,-0.03968483,-0.01689669,0.04830269,-0.288717538118362,0.137519285082817,0.198381304740906,-0.219761081350814,-0.0945570538913933,0.136042578028218,8
0.659999847412109,-0.169811725616455,3.00497126579285,1.19317269325256,-0.114937365519793,2.91636204303257,1.21400879466451,2399.476,1484.232,1774.924,3110.338,-0.04599066,-0.01803652,0.0480626,-0.293455094099045,0.129121348261833,0.205121785402298,-0.231571827761751,-0.0996388881179631,0.143353992680462,8
0.679996490478516,-0.175776422023773,3.00736427307129,1.19739890098572,-0.119687567829752,2.91431816368388,1.21694939617789,2355.825,1501.789,1787.654,3122.052,-0.05197798,-0.01916091,0.04857935,-0.298234522342682,0.119645096361637,0.211312264204025,-0.24355671368107,-0.104795649710095,0.15077320798381,8
0.699996948242188,-0.181839823722839,3.00954866409302,1.20173478126526,-0.124680083855354,2.91217002351282,1.22004000142426,2334.611,1507.723,1786.356,3138.391,-0.05724092,-0.02022831,0.04979105,-0.30317097902298,0.109223008155823,0.216793194413185,-0.255710395848158,-0.11002503961202,0.158296916205407,8
0.719997406005859,-0.1880072504282,3.01150989532471,1.20616662502289,-0.129917262555645,2.90991661182791,1.22328206452116,2336.977,1506.555,1769.811,3155.513,-0.06158613,-0.02121527,0.05151029,-0.308370858430862,0.0980610623955727,0.221593424677849,-0.26802079535749,-0.115321860608138,0.165917639927336,8
0.739997863769531,-0.19428551197052,3.01323747634888,1.21068549156189,-0.135402141159277,2.90755662179454,1.22667746565781,2355.729,1502.012,1744.776,3170.334,-0.06504238,-0.02212607,0.05349763,-0.313913702964783,0.0863813906908035,0.225943475961685,-0.280478211503383,-0.120681938755799,0.173629373950669,7
0.759998321533203,-0.200682252645493,3.01472496986389,1.21528768539429,-0.141137563960274,2.90508882959244,1.2302279655877,2381.641,1499.449,1716.409,3181.142,-0.06781686,-0.02298201,0.05552705,-0.31983608007431,0.0743764266371727,0.230109989643097,-0.293073051970232,-0.126101146749576,0.181426180175103,7
0.779998779296875,-0.207204967737198,3.01596856117249,1.219975233078,-0.147126184485884,2.90251209348295,1.23393520697061,2404.108,1503.693,1691.69,3186.257,-0.07022063,-0.02381292,0.05745799,-0.326136142015457,0.062173817306757,0.234376087784767,-0.305795832832518,-0.131575403921268,0.189302187598958,7
0.799999237060547,-0.213860660791397,3.01696515083313,1.22475373744965,-0.153370467664426,2.8998253528763,1.23780071571459,2415.865,1514.531,1675.656,3187.406,-0.07255143,-0.02464809,0.05925177,-0.332784622907639,0.0498262271285057,0.23892417550087,-0.318637178554805,-0.1371006762399,0.197251592319181,7
0.819999694824219,-0.220655530691147,3.0177116394043,1.22963035106659,-0.159872691993147,2.89702762739878,1.24182590231796,2413.534,1531.369,1670.162,3186.174,-0.07501273,-0.02550722,0.0609696,-0.339744329452515,0.0373235195875168,0.243828296661377,-0.331587821991737,-0.142672976311719,0.205268657531342,7
0.839996337890625,-0.227595239877701,3.01820397377014,1.23461091518402,-0.166633637018892,2.89411858163313,1.24601124935738,2398.964,1550.503,1673.77,3185.47,-0.07766204,-0.02639299,0.06272948,-0.346985757350922,0.0246224515140057,0.249028608202934,-0.344636106234817,-0.148287288494656,0.213346167053785,7
0.859996795654297,-0.234685242176056,3.01843762397766,1.23969876766205,-0.173657794122436,2.89109628306371,1.25035953721147,2377.095,1568.584,1683.075,3187.037,-0.08041308,-0.02729527,0.06466065,-0.35449954867363,0.0116809364408255,0.254391700029373,-0.357777960707973,-0.153941861333544,0.221481601006014,7
0.879997253417969,-0.241931170225143,3.01840734481812,1.24489319324493,-0.180945630646592,2.88796053060595,1.25487105518773,2355.793,1583.563,1691.399,3191.918,-0.08309489,-0.02818956,0.06685124,-0.362296670675278,-0.0015094056725502,0.259723097085953,-0.371001963495383,-0.159631780297098,0.229667888678032,7
0.899997711181641,-0.249339371919632,3.01810908317566,1.25019156932831,-0.188498701076517,2.88471065540831,1.25954676558649,2339.769,1593,1697.555,3199.483,-0.08550771,-0.02905402,0.06933305,-0.370410263538361,-0.0149156376719475,0.264916658401489,-0.384299280991351,-0.165353244531568,0.237899561647111,7
0.919998168945313,-0.256916880607605,3.01753997802734,1.25558912754059,-0.196318384305134,2.8813460641717,1.26438752200817,2333.732,1596.579,1697.151,3209.911,-0.08748165,-0.02986895,0.07205571,-0.378877073526382,-0.0284580513834953,0.269875258207321,-0.397661187980262,-0.171102499820431,0.246171218589148,7
0.939998626708984,-0.264671504497528,3.01669931411743,1.26108181476593,-0.204405885800988,2.87786623821667,1.26939407069523,2337.391,1598.012,1690.308,3220.078,-0.08894852,-0.03062369,0.07492388,-0.387731820344925,-0.0420298203825951,0.274631708860397,-0.411079067636589,-0.176875838584386,0.254477525278661,7
0.959999084472656,-0.272611379623413,3.01558899879456,1.26666700839996,-0.212762239776093,2.87427073255068,1.27456705187416,2348.658,1597.75,1679.066,3229.598,-0.08993176,-0.03132037,0.07781368,-0.396992355585098,-0.0555192194879055,0.279262363910675,-0.424544411524882,-0.18266959988136,0.262813214588797,7
0.979999542236328,-0.28074449300766,3.01421236991882,1.27234506607056,-0.221388311353785,2.87055917493534,1.27990700109753,2362.82,1599.453,1666.416,3236.521,-0.09054855,-0.03196965,0.08061813,-0.406657040119171,-0.068833515048027,0.283903568983078,-0.438048819599778,-0.188480169406503,0.271173086491326,7
0.999996185302734,-0.289078563451767,3.01257419586182,1.27811861038208,-0.230283076085251,2.86673200616235,1.28541328418271,2375.391,1603.82,1655.765,3240.952,-0.090956,-0.03258804,0.0832688,-0.416703104972839,-0.0819143950939178,0.28867706656456,-0.45158141622203,-0.194302867676075,0.279550408447474,7
1.01999664306641,-0.297620445489883,3.01067924499512,1.28399217128754,-0.239450461003889,2.86278753653895,1.29108833215045,2382.521,1611.205,1650.119,3243.081,-0.09130062,-0.03319311,0.08575242,-0.427094846963882,-0.0947432816028595,0.293679386377335,-0.465139182559269,-0.200136395770846,0.2879433116562,7
1.03999710083008,-0.306376248598099,3.00853252410889,1.28997051715851,-0.248889165986195,2.85872632547195,1.29693134016237,2383.709,1622.014,1648.25,3243.957,-0.0916937,-0.03379285,0.08810017,-0.437789171934128,-0.107330366969109,0.298919916152954,-0.478711464817306,-0.205976169660809,0.296345200911388,7
1.05999755859375,-0.315351277589798,3.00613832473755,1.29605853557587,-0.258599401509697,2.85454828239877,1.30294243851408,2378.589,1632.818,1652.94,3244.501,-0.09216828,-0.03439206,0.09038012,-0.448752462863922,-0.119707025587559,0.304400414228439,-0.492290296490434,-0.211818761581115,0.30475114456651,7
1.07999801635742,-0.324550449848175,3.00350022315979,1.30225908756256,-0.268581219802083,2.85025338484727,1.30912165953701,2370.651,1642.07,1659.884,3246.837,-0.0926796,-0.03498382,0.09265389,-0.45995706319809,-0.131900534033775,0.310027241706848,-0.50586781946303,-0.217660790404144,0.31315627807366,7
1.09999847412109,-0.333978265523911,3.0006217956543,1.30857360363007,-0.278834517009062,2.84584167750307,1.31546893894041,2362.726,1649.867,1666.99,3250.304,-0.09314619,-0.03555746,0.09496985,-0.471390753984451,-0.143922135233879,0.315727680921555,-0.519436284009554,-0.223498921639497,0.321555803983559,7
1.11999893188477,-0.343639254570007,2.99750661849976,1.31500196456909,-0.289359035362208,2.84131327127672,1.32198411715334,2358.21,1654.165,1672.015,3255.857,-0.0934679,-0.03610075,0.09733533,-0.483049392700195,-0.155758544802666,0.321419477462769,-0.532988048794549,-0.229329867434001,0.329944991945551,7
1.13999938964844,-0.353537946939468,2.99415922164917,1.3215434551239,-0.300154365346813,2.83666834237095,1.3286669406667,2358.423,1656.433,1673.676,3262.207,-0.09357496,-0.03660462,0.09972487,-0.494935214519501,-0.167374908924103,0.327076315879822,-0.546515580872639,-0.235150386571708,0.338319178707607,7
1.15999603271484,-0.363678842782974,2.99058485031128,1.32819747924805,-0.311217811600473,2.8319080505249,1.33551574092274,2363.556,1656.958,1671.902,3269.02,-0.0934386,-0.03706587,0.1020832,-0.507047057151794,-0.178723469376564,0.332701534032822,-0.560008885098767,-0.240956178420931,0.346672176798798,7
1.17999649047852,-0.374066382646561,2.98678970336914,1.33496451377869,-0.322552888823985,2.82703088346102,1.34253269368871,2371.686,1657.245,1668.4,3275.04,-0.09308334,-0.03748878,0.1043496,-0.519377529621124,-0.189757734537125,0.338349252939224,-0.573465794611364,-0.246746310641672,0.355002644828593,7
1.19999694824219,-0.384704530239105,2.98278093338013,1.34184575080872,-0.334156660511822,2.8220381046756,1.34971598112778,2381.402,1659.807,1662.441,3279.838,-0.09258639,-0.03787867,0.1064691,-0.531905472278595,-0.200440898537636,0.344060212373734,-0.58687652428584,-0.252516572968185,0.36330452533874,7
1.21999740600586,-0.395596623420715,2.97856569290161,1.34884428977966,-0.346028131869748,2.8169301422008,1.35706498741494,2389.051,1663.268,1659.854,3282.591,-0.09203778,-0.03824938,0.1084213,-0.54460597038269,-0.210761606693268,0.349924921989441,-0.600233974716476,-0.258263910724523,0.371573423458908,7
1.23999786376953,-0.406745493412018,2.97415113449097,1.35596346855164,-0.358166167196084,2.81170748469733,1.36457900949675,2393.843,1667.922,1659.314,3284.782,-0.09150888,-0.03860945,0.1102067,-0.557442963123322,-0.220728054642677,0.355957925319672,-0.613531154887641,-0.263985315871967,0.379805011417393,7
1.2599983215332,-0.418153166770935,2.96954393386841,1.36320698261261,-0.370569492049568,2.80637068052165,1.37225725843336,2394.894,1674.297,1661.767,3285.777,-0.09105081,-0.03896365,0.1118569,-0.570382714271545,-0.230364128947258,0.362173289060593,-0.626761182173783,-0.269677827009021,0.387995028541113,7
1.27999877929688,-0.429821074008942,2.96475005149841,1.37057769298553,-0.383236695417198,2.80092033679326,1.3800988607405,2393.369,1680.03,1666.627,3287.201,-0.09066679,-0.03931252,0.1134115,-0.583393692970276,-0.239699631929398,0.368533164262772,-0.639917282339435,-0.275338529371412,0.396139281255613,7
1.29999923706055,-0.441750109195709,2.95977473258972,1.37807762622833,-0.396166231882091,2.79535711846185,1.3881028597315,2390.595,1685.099,1672.656,3289.009,-0.0903291,-0.03965074,0.1149106,-0.596453189849854,-0.248760178685188,0.374996274709702,-0.652992789539212,-0.280964554832093,0.404233643085061,7
1.31999588012695,-0.453940987586975,2.95462346076965,1.38570773601532,-0.409353883279578,2.78968284048584,1.3962666441615,2388.511,1688.329,1678.37,3291.919,-0.08998608,-0.03997245,0.1163773,-0.609545171260834,-0.257559984922409,0.381508022546768,-0.665978677763212,-0.286552019751163,0.412272526499359,8
1.33999633789063,-0.466394186019897,2.94930148124695,1.39346849918365,-0.422802873722428,2.78389611561957,1.40459220990988,2388.23,1689.473,1683.194,3295.696,-0.08958075,-0.04027232,0.1178147,-0.622660338878632,-0.266099333763123,0.388035416603088,-0.678873453515705,-0.29210028151913,0.420255006953505,8
1.3599967956543,-0.479109942913055,2.94381427764893,1.40135931968689,-0.436508776648329,2.77799884848916,1.41307681672372,2391.233,1690.886,1683.686,3300.045,-0.08909179,-0.04054343,0.1192011,-0.63578850030899,-0.274363934993744,0.394541025161743,-0.691668290305691,-0.297605542343502,0.428175620429107,8
1.37999725341797,-0.492088466882706,2.93816757202148,1.40938055515289,-0.450469530727146,2.77199192602736,1.42171918854144,2395.875,1690.816,1684.597,3303.758,-0.08851602,-0.04078844,0.1205137,-0.648924469947815,-0.28233939409256,0.401063621044159,-0.704356955827446,-0.303065120637236,0.436030508832034,8
1.39999771118164,-0.505329489707947,2.9323673248291,1.41753268241882,-0.464682951063699,2.76587628833354,1.43051797280888,2401.901,1690.648,1683.781,3307.676,-0.08787046,-0.04101215,0.1217192,-0.662053167819977,-0.290012359619141,0.407606333494186,-0.716933326165324,-0.308476381450513,0.44381588116678,8
1.41999816894531,-0.518832623958588,2.92641973495483,1.42581677436829,-0.47914673136562,2.75965292774086,1.43947174182117,2407.58,1692.164,1682.843,3310.197,-0.08720095,-0.04121934,0.1228006,-0.675157725811005,-0.297377943992615,0.414207518100739,-0.729391385793766,-0.313836736470737,0.451528013536465,8
1.43999862670898,-0.532596945762634,2.92033076286316,1.43423438072205,-0.4938584461112,2.75332288788357,1.44857899406484,2412.111,1694.049,1682.926,3312.17,-0.08654848,-0.04141695,0.1237517,-0.688215672969818,-0.304442882537842,0.420880496501923,-0.741725227577294,-0.31914364402254,0.459163249142831,8
1.45999908447266,-0.546621024608612,2.91410636901855,1.44278717041016,-0.508815552717244,2.74688726276417,1.45783815555978,2414.694,1696.933,1684.507,3313.246,-0.08595086,-0.04160869,0.1245849,-0.701204180717468,-0.311224192380905,0.427636802196503,-0.753929052770513,-0.324394609067776,0.466717998286247,8
1.47999954223633,-0.560903012752533,2.90775156021118,1.45147633552551,-0.524015393706918,2.74034719582071,1.46724758120123,2415.56,1699.766,1687.543,3314.197,-0.08542036,-0.04179618,0.1253213,-0.714100778102875,-0.317745089530945,0.434461355209351,-0.76599717101811,-0.329587183205524,0.474188738365705,8
1.49999618530273,-0.57544082403183,2.90127086639404,1.46030294895172,-0.539452231337361,2.73370515584365,1.47680371905302,2415.157,1702.432,1691.647,3315.068,-0.08495324,-0.04197888,0.1259874,-0.726887404918671,-0.324029326438904,0.441333442926407,-0.777921739365859,-0.334717991831687,0.481570614218926,8
1.51999664306641,-0.590231835842133,2.89466905593872,1.46926736831665,-0.555129074991064,2.72695984797977,1.48650843206629,2414.283,1703.523,1696.744,3316.485,-0.08451648,-0.04215411,0.1266045,-0.739550471305847,-0.330096364021301,0.448222875595093,-0.789701834723693,-0.339786637766398,0.488863054409188,8
1.53999710083008,-0.605273306369781,2.88794994354248,1.47836899757385,-0.571040013494911,2.72011381564173,1.49635806094328,2414.742,1705.427,1698.73,3318.445,-0.08409464,-0.04231603,0.1271781,-0.752077698707581,-0.335954576730728,0.455079317092896,-0.801329803423436,-0.344789827850059,0.496061320951293,8
1.55999755859375,-0.620562613010406,2.88111782073975,1.48760735988617,-0.587181951496087,2.71316839067337,1.50635068951315,2415.728,1705.299,1702.263,3320.079,-0.08366214,-0.04246357,0.1277143,-0.764466524124146,-0.341609477996826,0.461915999650955,-0.812800388649436,-0.349725300221754,0.503162159625937,8
1.57999801635742,-0.636096775531769,2.87417674064636,1.49698138237,-0.603551689586986,2.70612494969039,1.51648433719019,2418.179,1704.236,1703.857,3322.689,-0.08319981,-0.04259619,0.1281987,-0.776708781719208,-0.347059845924377,0.468703210353851,-0.824108441976122,-0.354590839657789,0.510162383312438,8
1.59999847412109,-0.65187281370163,2.86713075637817,1.50649046897888,-0.620145926473056,2.69898491314762,1.52675696031579,2421.314,1704.047,1704.367,3324.528,-0.08271246,-0.0427155,0.1286203,-0.788798928260803,-0.35230228304863,0.475454777479172,-0.835248923368005,-0.359384277571697,0.517058871988737,8
1.61999893188477,-0.667887330055237,2.8599841594696,1.51613390445709,-0.636961261140657,2.69174974440622,1.53716645350051,2424.847,1703.565,1704.468,3326.31,-0.08221338,-0.0428231,0.1289648,-0.800727605819702,-0.357335895299911,0.482171714305878,-0.846216901179681,-0.364103492014234,0.523848572731403,8
1.63999938964844,-0.684136986732483,2.85274076461792,1.52591121196747,-0.653994195024907,2.68442094880091,1.54771065096602,2427.947,1703.858,1704.647,3327.333,-0.08172442,-0.04292376,0.1292273,-0.812484502792358,-0.362164467573166,0.488868087530136,-0.857007552155828,-0.368746407673381,0.530528499715628,8
1.65999603271484,-0.700618207454681,2.84540486335754,1.53582215309143,-0.671237824488362,2.67700149677403,1.55838527903188,2430.177,1704.37,1705.488,3327.953,-0.08126583,-0.04302017,0.12941,-0.824057340621948,-0.366797775030136,0.495547354221344,-0.867614155697522,-0.373310132863173,0.537094492570531,8
1.67999649047852,-0.717326879501343,2.83797979354858,1.54586637020111,-0.688695041988866,2.66949014378176,1.56919212826729,2431.166,1704.474,1707.805,3328.287,-0.08084185,-0.04311445,0.1295228,-0.83543461561203,-0.371250063180923,0.502209424972534,-0.878036152828799,-0.377794427071868,0.543546205263364,8
1.69999694824219,-0.734258949756622,2.83046913146973,1.5560427904129,-0.706358800111611,2.66188992212981,1.58012683598675,2431.935,1706.401,1708.185,3328.527,-0.08046848,-0.04320446,0.129575,-0.846602916717529,-0.375534296035767,0.508822858333588,-0.888267004546665,-0.382196476749158,0.549879589839776,8
1.71999740600586,-0.751409947872162,2.82287573814392,1.56635081768036,-0.724225231782013,2.65420249571236,1.5911870082869,2431.608,1706.549,1711.629,3328.234,-0.08013718,-0.04329128,0.129587,-0.857557654380798,-0.37966713309288,0.515401601791382,-0.898302321135456,-0.386514393123025,0.556091928856661,8
1.73999786376953,-0.768775880336761,2.81520247459412,1.57678890228271,-0.742290383213093,2.64642956573347,1.60237019758524,2431.424,1706.032,1714.173,3328.858,-0.07982665,-0.04337277,0.1295658,-0.868290960788727,-0.383660346269608,0.521906912326813,-0.908137821269591,-0.39074633405868,0.562180571969536,8
1.7599983215332,-0.78635185956955,2.80745196342468,1.58735549449921,-0.760550216073323,2.63857286977439,1.61367390396219,2431.45,1705.64,1716.271,3329.205,-0.07952145,-0.04344787,0.1295184,-0.878800272941589,-0.387520432472229,0.528330504894257,-0.917769332013572,-0.394890504058555,0.568142935932543,8
1.77999877929688,-0.804133474826813,2.79962706565857,1.59804856777191,-0.779000609654483,2.63063418086074,1.62509557650306,2432.248,1704.528,1717.508,3329.956,-0.0792072,-0.04351445,0.1294413,-0.889082610607147,-0.391249388456345,0.534652531147003,-0.927192788821983,-0.398945154262308,0.57397650459845,8
1.79999923706055,-0.822116196155548,2.79173016548157,1.60886597633362,-0.79763736303951,2.62261530652977,1.63663261464007,2433.619,1703.35,1718.134,3330.474,-0.07887804,-0.04357304,0.1293294,-0.899136424064636,-0.394846349954605,0.540872871875763,-0.936404235539493,-0.402908582446823,0.579678828918647,9
1.81999588012695,-0.840295374393463,2.78376388549805,1.61980581283569,-0.816452590859454,2.61451963963547,1.64828013695421,2435.365,1702.046,1718.283,3330.877,-0.07853609,-0.04362418,0.1291746,-0.908959090709686,-0.398310244083405,0.546991348266602,-0.945398129488514,-0.406778403752778,0.585246477711674,9
1.83999633789063,-0.858666241168976,2.77573108673096,1.6308661699295,-0.835449117627072,2.60634596486888,1.66003989195343,2436.852,1700.291,1719.067,3330.977,-0.07818242,-0.04367105,0.1289723,-0.918547451496124,-0.401642054319382,0.553017258644104,-0.954174163352093,-0.410554485950274,0.590679260733698,9
1.8599967956543,-0.877224147319794,2.76763415336609,1.64204478263855,-0.854618942724365,2.59809772467243,1.67190692687406,2438.755,1700.577,1717.244,3330.885,-0.07784206,-0.04371206,0.1287153,-0.92789363861084,-0.404842227697372,0.558930695056915,-0.962726969681477,-0.41423451957606,0.595973855278252,9
1.87999725341797,-0.895964086055756,2.75947570800781,1.65334010124207,-0.873957566090845,2.58977685529642,1.6838784559643,2439.359,1699.695,1718.697,3329.739,-0.07752409,-0.04375147,0.1284144,-0.936996638774872,-0.40791928768158,0.564768671989441,-0.971053025860989,-0.417816988947023,0.601128080678429,9
1.89999771118164,-0.9148810505867,2.75125813484192,1.66475009918213,-0.893460418296025,2.58138532283915,1.69595165052899,2439.58,1698.482,1719.66,3329.334,-0.07722528,-0.04378983,0.1280719,-0.945848882198334,-0.410882353782654,0.570502161979675,-0.979148917665041,-0.421300425017273,0.606139823365946,9
1.91999816894531,-0.933970034122467,2.74298334121704,1.67627274990082,-0.913122862707269,2.57292512231409,1.70812364027167,2439.127,1698.076,1720.841,3328.233,-0.07694778,-0.04382658,0.1276995,-0.954447507858276,-0.413739532232285,0.576132535934448,-0.987011339258123,-0.424683405378145,0.611007036871143,9
1.93999862670898,-0.95322573184967,2.73465347290039,1.68790555000305,-0.932940197657643,2.56439827671719,1.72039151463653,2438.621,1696.821,1722.116,3327.539,-0.0766788,-0.04386013,0.1273029,-0.962789177894592,-0.416497826576233,0.581639170646667,-0.99463709319481,-0.4279645542582,0.615727741822989,9
1.95999908447266,-0.972643136978149,2.72627019882202,1.69964587688446,-0.952907658613767,2.55580683609405,1.73275232415044,2438.208,1695.557,1723.112,3326.701,-0.07640982,-0.04388996,0.1268871,-0.970873296260834,-0.419160842895508,0.587013900279999,-1.00202309041976,-0.431142542523221,0.620300025949072,9
1.97999572753906,-0.992217123508453,2.71783566474915,1.71149075031281,-0.973016570682103,2.54715453300902,1.74520069864106,2438.144,1693.742,1723.822,3326.014,-0.07612965,-0.04391446,0.1264522,-0.978699684143066,-0.421729654073715,0.592246353626251,-1.00916501115878,-0.434215511495054,0.624721215103391,9
1.99999618530273,-1.01194250583649,2.70935153961182,1.72343742847443,-0.993269723110518,2.53844016732665,1.7577383647857,2438.23,1691.076,1724.868,3325.34,-0.07582339,-0.0439347,0.1259956,-0.986269176006317,-0.424203306436539,0.597336411476135,-1.01606270846678,-0.437183397947334,0.628991218319934,9
2.01999664306641,-1.03181409835815,2.70081996917725,1.73548269271851,-1.01365835337184,2.52966750931758,1.77035989816261,2439.365,1690.24,1722.801,3324.612,-0.07550435,-0.04394748,0.1255078,-0.993578851222992,-0.426576614379883,0.602260947227478,-1.02271203275434,-0.440044416427654,0.633107466805174,9
2.03999710083008,-1.05182671546936,2.69224286079407,1.74762380123138,-1.03417746715556,2.52083870789413,1.78306220705567,2439.904,1687.978,1723.434,3323.031,-0.07517678,-0.04395601,0.1249915,-1.0006320476532,-0.428850054740906,0.607057571411133,-1.02911032850577,-0.442797424341804,0.637068316668402,9
2.05999755859375,-1.07197535037994,2.68362236022949,1.75985789299011,-1.05482201812353,2.5119559343546,1.79584216754118,2440.469,1685.5,1723.282,3322.049,-0.07483909,-0.04396133,0.1244408,-1.00742518901825,-0.431024432182312,0.611707031726837,-1.03525504859546,-0.445441325732794,0.640872191117535,9
2.07999801635742,-1.0922544002533,2.67496037483215,1.77218222618103,-1.07558691007788,2.50302138145056,1.8086966248299,2440.536,1683.912,1723.219,3320.316,-0.0744998,-0.04396453,0.1238592,-1.01395726203918,-0.433101326227188,0.616218984127045,-1.04114375428791,-0.447975071280863,0.644517580459114,9
2.09999847412109,-1.11265897750854,2.66625881195068,1.7845938205719,-1.09646699912883,2.4940372624541,1.82162239460902,2440.396,1681.946,1723.27,3318.729,-0.07415998,-0.04396559,0.123248,-1.02022564411163,-0.435083448886871,0.62058287858963,-1.04677411523768,-0.450397658303471,0.648003042098304,9
2.11999893188477,-1.13318359851837,2.65751934051514,1.79708981513977,-1.11745709586255,2.485005810225,1.83461626438416,2439.913,1680.026,1723.634,3316.844,-0.07381803,-0.04396399,0.1226122,-1.02622926235199,-0.436973750591278,0.624798953533173,-1.0521439094894,-0.452708130755304,0.651327200538896,8
2.13999938964844,-1.15382289886475,2.64874386787415,1.80966699123383,-1.138551967509,2.47592927627801,1.8476749948214,2439.367,1677.844,1723.933,3315.042,-0.07347022,-0.04395973,0.1219548,-1.03196704387665,-0.438774287700653,0.628857374191284,-1.05725102347782,-0.454905579228273,0.654488747383304,8
2.15999603271484,-1.17457163333893,2.63993406295776,1.82232201099396,-1.15974228854654,2.4668116731246,1.86079281297862,2438.84,1675.517,1724.181,3313.146,-0.07311123,-0.04395175,0.1212784,-1.0374391078949,-0.440485894680023,0.632753729820251,-1.06209255378819,-0.456988754464129,0.657485885279498,8
2.17999649047852,-1.19542455673218,2.63109183311462,1.83505177497864,-1.18103083166728,2.45765180775279,1.8739714352843,2438.194,1672.19,1725.151,3311.332,-0.07272667,-0.04394003,0.1205839,-1.04264628887177,-0.442108422517776,0.636487722396851,-1.06666845113384,-0.45895763525619,0.660318583716675,8
2.19999694824219,-1.21637618541718,2.62221908569336,1.84785234928131,-1.20240821395574,2.44845371736898,1.88720505326679,2438.582,1670.591,1723.072,3309.553,-0.0723272,-0.04392192,0.1198645,-1.04758608341217,-0.443637013435364,0.640031278133392,-1.07097597819164,-0.460811043810786,0.662985148161421,8
2.21999740600586,-1.23742151260376,2.6133177280426,1.86072075366974,-1.22386905090202,2.43921971877738,1.90049033365798,2438.374,1667.565,1723.713,3306.954,-0.0719128,-0.04389955,0.1191255,-1.05226314067841,-0.445071488618851,0.643423318862915,-1.07501345493598,-0.46254825725983,0.665484538597853,8
2.23999786376953,-1.25855493545532,2.60438942909241,1.87365353107452,-1.24540792547886,2.42995214277345,1.91382392305993,2438.452,1663.935,1723.51,3305.186,-0.07147605,-0.04387292,0.1183599,-1.05667519569397,-0.446410804986954,0.646639704704285,-1.07877930973132,-0.464168599372462,0.667815782108711,8
2.2599983215332,-1.27977156639099,2.59543633460999,1.88664734363556,-1.26701939030951,2.42065333321126,1.92720244928693,2438.237,1661.449,1723.101,3302.567,-0.07102437,-0.04384255,0.1175704,-1.06082308292389,-0.447653353214264,0.649693191051483,-1.08227207933222,-0.465671440555045,0.66997797287536,8
2.27999877929688,-1.30106568336487,2.58646035194397,1.89969885349274,-1.28869796983554,2.41132564607061,1.9406225227075,2438.081,1658.123,1722.862,3300.292,-0.07055459,-0.04380847,0.1167544,-1.0647052526474,-0.448798626661301,0.652573704719543,-1.08549040888332,-0.467056197851165,0.67197027217779,8
2.29999923706055,-1.32243204116821,2.57746338844299,1.91280460357666,-1.31043816248474,2.40197144852433,1.95408073758635,2437.758,1655.304,1722.511,3297.572,-0.07007097,-0.04377065,0.1159136,-1.06832182407379,-0.449845790863037,0.655285477638245,-1.08843305191934,-0.468322334941636,0.673791908394614,8
2.31999588012695,-1.34386551380157,2.56844758987427,1.92596113681793,-1.33223028062798,2.39259490888859,1.96757109681956,2437.385,1652.03,1722.363,3294.92,-0.06957189,-0.0437291,0.1150486,-1.07167208194733,-0.450794726610184,0.657824456691742,-1.09109838837379,-0.469469154757102,0.675441878627497,7
2.33999633789063,-1.36536061763763,2.55941462516785,1.93916499614716,-1.35407709248145,2.38319483607731,1.98109531406483,2436.673,1648.045,1723.06,3292.209,-0.06904778,-0.04368436,0.114161,-1.07475638389587,-0.451645463705063,0.660195350646973,-1.09348640563071,-0.470496651869278,0.67692017506657,7
2.3599967956543,-1.38691198825836,2.55036664009094,1.95241236686707,-1.37596887940059,2.37377541175173,1.99464737301821,2436.806,1645.838,1720.953,3289.464,-0.06851142,-0.04363376,0.1132465,-1.07757163047791,-0.452394276857376,0.662370145320892,-1.09559564748259,-0.471404199712748,0.678225896250009,7
2.37999725341797,-1.40851449966431,2.54130578041077,1.96570014953613,-1.39790005743958,2.36433903852774,2.00822381695123,2436.194,1642.126,1721.719,3286.009,-0.0679628,-0.0435789,0.1123131,-1.08012199401855,-0.453042447566986,0.66438764333725,-1.09742530100382,-0.472191448508328,0.679358538938131,7
2.39999771118164,-1.43016254901886,2.53223395347595,1.97902452945709,-1.41986502747765,2.35488812555058,2.02182117974142,2435.892,1637.729,1721.655,3283.453,-0.06739182,-0.04351978,0.1113553,-1.08240520954132,-0.453589588403702,0.666220188140869,-1.09897466165884,-0.47285809511406,0.680317666989874,7
2.41999816894531,-1.45185101032257,2.52315330505371,1.99238216876984,-1.44185817738692,2.34542508756209,2.03543598721428,2435.393,1634.425,1721.338,3280.092,-0.06680167,-0.04345587,0.1103769,-1.08442270755768,-0.454034179449081,0.667880058288574,-1.10024313330221,-0.473403883025206,0.681102911362803,6
2.43999862670898,-1.47357439994812,2.51406574249268,2.0057692527771,-1.46387388420027,2.33595234396796,2.0490647584853,2435.125,1630.202,1721.081,3277.134,-0.0661886,-0.04338716,0.1093747,-1.08617377281189,-0.45437479019165,0.669356167316437,-1.10123022817855,-0.473828602374257,0.681713970113108,6
2.45999908447266,-1.49532771110535,2.50497364997864,2.01918244361877,-1.48590651627916,2.32647231790489,2.06270400730194,2434.817,1626.4,1720.701,3273.753,-0.06555371,-0.04331312,0.1083496,-1.08765923976898,-0.454609423875809,0.670655131340027,-1.10193556692257,-0.474132089930926,0.682150608395601,6
2.47999572753906,-1.51710510253906,2.49587893486023,2.03261780738831,-1.50794623031618,2.31698924467309,2.07634764018804,2434.657,1622.05,1720.359,3270.539,-0.06489644,-0.04323429,0.1072989,-1.0888786315918,-0.454736560583115,0.671772181987762,-1.10235882472314,-0.474314205938057,0.682412625136718,5
2.49999618530273,-1.53890180587769,2.48678398132324,2.04607224464417,-1.52999579362571,2.30750193357449,2.089997370243,2434.158,1617.413,1720.703,3267.066,-0.06421094,-0.04315173,0.1062239,-1.08983290195465,-0.45475497841835,0.672718167304993,-1.10250000049778,-0.474374949929889,0.682500019666355,5
2.51999664306641,-1.5607123374939,2.47769021987915,2.05954146385193,-1.55204535801192,2.29801462201262,2.10364710096447,2434.564,1614.05,1718.573,3263.705,-0.06351107,-0.04306225,0.1051181,-1.09051859378815,-0.454660922288895,0.673464357852936,-1.10235893238473,-0.47431425226183,0.68241269178437,5
2.53999710083008,-1.58253121376038,2.46860122680664,2.07302260398865,-1.57408927882895,2.2885297387209,2.11729333804778,2433.957,1609.795,1719.265,3259.393,-0.0628,-0.0429685,0.1039914,-1.09093999862671,-0.454455941915512,0.674058258533478,-1.10193567455836,-0.474132136243598,0.68215067502728,4
2.55999755859375,-1.6043529510498,2.45951843261719,2.08651185035706,-1.59612191359838,2.27904971150017,2.13093258853001,2433.835,1604.435,1719.058,3256.309,-0.06206816,-0.0428705,0.1028361,-1.09109377861023,-0.454140484333038,0.674462139606476,-1.10123038958312,-0.473828671822132,0.681714070030222,3
2.57999801635742,-1.62617254257202,2.45044422149658,2.10000586509705,-1.6181376241771,2.2695769662859,2.14456136213196,2433.201,1600.681,1718.891,3252,-0.06132355,-0.04276717,0.1016601,-1.09098196029663,-0.453714191913605,0.67470109462738,-1.10024334841354,-0.473403975581601,0.681103044526962,1
2.59999847412109,-1.647984623909,2.44138073921204,2.11350083351135,-1.64013077892511,2.26011392621545,2.15817617260023,2432.883,1595.475,1718.834,3248.496,-0.06055815,-0.04265905,0.1004597,-1.09060323238373,-0.453177183866501,0.674754500389099,-1.09897493039424,-0.472858210743393,0.680317833349887,0
2.61999893188477,-1.6697838306427,2.43233013153076,2.12699341773987,-1.66209575487342,2.25066301069528,2.17177353904914,2432.446,1591.04,1718.631,3244.373,-0.05977359,-0.04254613,0.099238,-1.089959025383,-0.452528536319733,0.674633741378784,-1.09742562325992,-0.472191587166126,0.67935873843001,0
2.63999557495117,-1.6915647983551,2.42329454421997,2.14048004150391,-1.68402276052401,2.24122843273345,2.18534740007499,2432.257,1585.899,1718.406,3240.561,-0.05896612,-0.04242735,0.09799277,-1.08904922008514,-0.451767116785049,0.674330234527588,-1.09559639877797,-0.471404522974156,0.678226361337632,0
2.65999603271484,-1.71332228183746,2.41427683830261,2.15395712852478,-1.70591456353497,2.23180900148401,2.19889946898997,2431.795,1580.391,1718.88,3236.531,-0.05813041,-0.04230378,0.0967248,-1.08787536621094,-0.45089203119278,0.673856198787689,-1.09348726343002,-0.470497020956359,0.676920706085208,0
2.67999649047852,-1.73505091667175,2.40527892112732,2.16742062568665,-1.72776139360717,2.22240892083372,2.2124236975135,2432.438,1576.163,1716.73,3232.6,-0.05727767,-0.04217275,0.09542679,-1.08643460273743,-0.449899435043335,0.673180520534515,-1.09109935234628,-0.469469569527535,0.67544247537239,0
2.69999694824219,-1.75674557685852,2.39630317687988,2.18086767196655,-1.74955768413056,2.21303058593937,2.22591663964878,2432.089,1571.122,1717.334,3227.74,-0.05641534,-0.04203693,0.09410734,-1.08473145961761,-0.448790580034256,0.672355949878693,-1.08843358680109,-0.468322565086308,0.673792239511893,0
2.71999740600586,-1.77840089797974,2.38735175132751,2.19429469108582,-1.77129788800495,2.2036763835632,2.23937486147656,2432.095,1564.975,1717.306,3224.01,-0.0555333,-0.04189632,0.09275978,-1.08276355266571,-0.447566628456116,0.671348750591278,-1.08549099645889,-0.467056450668518,0.671970635915057,0
2.73999786376953,-1.80001151561737,2.37842726707458,2.20769834518433,-1.79297647980783,2.19434869114016,2.25279494249708,2431.663,1560.369,1717.143,3219.241,-0.05463954,-0.04175091,0.09139034,-1.08053243160248,-0.446227669715881,0.670179307460785,-1.08227271937422,-0.465671715947234,0.669978369091845,0
2.7599983215332,-1.82157230377197,2.36953210830688,2.2210750579834,-1.81458795796224,2.18504987584512,2.26617347697213,2431.515,1554.612,1717.047,3215.1,-0.05372874,-0.04160018,0.08999629,-1.07803738117218,-0.444774478673935,0.668830394744873,-1.07878000199166,-0.464168897232749,0.667816210650842,0
2.77999877929688,-1.84307789802551,2.36066770553589,2.23442125320435,-1.83612684690458,2.17578229366013,2.27950707526701,2431.223,1549.419,1716.975,3210.44,-0.05280303,-0.04144411,0.08858089,-1.07527995109558,-0.443207204341888,0.667313635349274,-1.07501419914593,-0.462548577472581,0.665484999299265,0
2.79999542236328,-1.86452293395996,2.35183715820313,2.24773383140564,-1.85758361379882,2.16655004629821,2.2927898361021,2431.018,1543.735,1716.981,3205.979,-0.0518608,-0.04128272,0.08714406,-1.07226061820984,-0.44152620434761,0.665624022483826,-1.07097756992209,-0.460811728687929,0.662986133518392,0
2.81999588012695,-1.88590264320374,2.34304261207581,2.26100921630859,-1.87896102895071,2.15735194177419,2.30602347442862,2430.695,1537.46,1717.515,3201.564,-0.05089354,-0.04111654,0.08568546,-1.06898093223572,-0.439731597900391,0.663766622543335,-1.06667014556453,-0.458958364322378,0.660319632649988,0
2.83999633789063,-1.90721154212952,2.33428621292114,2.27424359321594,-1.90024960698239,2.14819206138118,2.31920211834584,2431.308,1532.619,1715.781,3196.959,-0.04991296,-0.04094291,0.08420087,-1.06543946266174,-0.437820822000504,0.661718487739563,-1.06209435025759,-0.456989527434725,0.657486997379635,0
2.8599967956543,-1.92844414710999,2.32557034492493,2.28743410110474,-1.9214439980555,2.13907270700516,2.33232245604895,2431.102,1526.818,1716.429,3191.785,-0.04892386,-0.04076447,0.08269723,-1.06164050102234,-0.43579563498497,0.659524381160736,-1.05725197237562,-0.454905987512489,0.654489334796247,0
2.87999725341797,-1.94959580898285,2.31689715385437,2.30057716369629,-1.94253888918396,2.12999616467562,2.34538119854648,2431.271,1520.19,1716.444,3187.501,-0.04791879,-0.04058072,0.08116882,-1.05758309364319,-0.433657497167587,0.657154977321625,-1.05214490868305,-0.452708560680416,0.651327819087361,0
2.89999771118164,-1.97066128253937,2.30826902389526,2.31366968154907,-1.96352900640172,2.1209647036328,2.35837508100222,2431.019,1514.768,1716.504,3182.356,-0.04690306,-0.04039216,0.07962124,-1.0532693862915,-0.431407183408737,0.65463125705719,-1.04677516433438,-0.450398109700476,0.648003691539142,0
2.91999816894531,-1.9916353225708,2.29968810081482,2.32670831680298,-1.98440911693069,2.11198057539494,2.37130086407726,2431.071,1508.388,1716.51,3177.785,-0.04587242,-0.04019829,0.07805161,-1.04869973659515,-0.429045736789703,0.651936113834381,-1.04114485287423,-0.447975543971863,0.644518260536375,0
2.93999862670898,-2.01251292228699,2.29115629196167,2.33968997001648,-2.00517403134858,2.10304601282548,2.38415533527198,2430.979,1502.663,1716.498,3172.687,-0.04483059,-0.03999962,0.07646325,-1.04387593269348,-0.426573842763901,0.64908230304718,-1.03525619623725,-0.445441819530995,0.640872901562472,0
2.95999908447266,-2.03328895568848,2.28267669677734,2.35261130332947,-2.02581860575671,2.0941632292003,2.39693531026807,2431.04,1496.316,1716.579,3167.872,-0.04377544,-0.03979508,0.07485528,-1.03879928588867,-0.423992574214935,0.646063625812531,-1.02911152474823,-0.442797939051516,0.637069057199471,0
2.97999572753906,-2.05395841598511,2.27425050735474,2.36546897888184,-2.04633384260397,2.08533609591429,2.40963521915279,2431.196,1490.128,1716.521,3162.897,-0.04270752,-0.03958576,0.07322772,-1.03347146511078,-0.42130246758461,0.642883241176605,-1.02271452148052,-0.440045487257004,0.633109007445237,0
2.99999618530273,-2.07451629638672,2.2658805847168,2.37826013565063,-2.06672252359526,2.07656341607755,2.42225678393395,2430.975,1483.398,1717.3,3157.92,-0.04162095,-0.03937164,0.07158232,-1.02789485454559,-0.41850483417511,0.639552891254425,-1.01606529245116,-0.437184509763622,0.628992817929355,0
3.01999664306641,-2.09495735168457,2.257568359375,2.3909809589386,-2.08697572864857,2.06784902775215,2.4347944826559,2431.863,1477.754,1715.776,3152.977,-0.04052692,-0.03915113,0.06991395,-1.0220685005188,-0.415598571300507,0.636039316654205,-1.00916768936771,-0.434216663853534,0.624722873042298,0
3.03999710083008,-2.11527729034424,2.24931716918945,2.40362882614136,-2.10708851762775,2.05919505654068,2.44724525713902,2431.634,1471.792,1716.619,3147.205,-0.03943236,-0.03892529,0.06823292,-1.01599764823914,-0.41258642077446,0.632399201393127,-1.00202447609459,-0.431143138740389,0.620300883747801,0
3.05999755859375,-2.13547086715698,2.24112749099731,2.41620063781738,-2.12705600675913,2.05060360379452,2.45960608409476,2432.035,1464.069,1716.998,3142.844,-0.03832342,-0.0386952,0.06653044,-1.0096822977066,-0.409471184015274,0.628589928150177,-0.994638524886308,-0.427965170275055,0.615728628108227,0
3.07999801635742,-2.15553331375122,2.23300242424011,2.42869353294373,-2.14687337079936,2.04207674568107,2.47187397646763,2431.753,1458.729,1717.163,3137.04,-0.03721128,-0.03846084,0.0648166,-1.0031259059906,-0.4062539935112,0.62464565038681,-0.987012816387451,-0.424684040945629,0.611007951284564,0
3.09999847412109,-2.17545986175537,2.2249436378479,2.44110417366028,-2.16653584520328,2.033616532251,2.4840459847772,2432.115,1451.415,1717.377,3132.395,-0.0360853,-0.03822115,0.06308519,-0.996329367160797,-0.402936935424805,0.620535016059875,-0.979150439632689,-0.421301079877433,0.606140765536421,0
3.11999893188477,-2.19524574279785,2.21695327758789,2.45342993736267,-2.18603872829175,2.02522498650551,2.49611919846012,2432.12,1445.535,1717.535,3126.778,-0.03495399,-0.03797615,0.06134251,-0.98929637670517,-0.399520814418793,0.616284847259521,-0.971054592046769,-0.41781766283301,0.601129050222034,0
3.13999557495117,-2.21488666534424,2.20903325080872,2.4656674861908,-2.20537371089838,2.01690568364676,2.50808847374658,2432.56,1438.355,1717.753,3121.891,-0.03381043,-0.03772687,0.05958435,-0.982028722763062,-0.396007239818573,0.611877262592316,-0.962730189199339,-0.414235904844652,0.595975848313175,0
3.15999603271484,-2.23437714576721,2.20118522644043,2.47781419754028,-2.22454360124808,2.00865741537402,2.51995554906156,2432.498,1431.566,1718.552,3116.54,-0.03265302,-0.03747281,0.05781417,-0.974530100822449,-0.392397493124008,0.607336461544037,-0.95417746870157,-0.410555908149813,0.590681306902481,0
3.17999649047852,-2.25371313095093,2.19341135025024,2.48986673355103,-2.2435401949712,2.00048371179835,2.53171534550942,2433.622,1425.466,1717.264,3111.351,-0.03149081,-0.03721288,0.05602691,-0.966800808906555,-0.38869121670723,0.602624356746674,-0.9454015193052,-0.406779862296197,0.585248576169681,0
3.19999694824219,-2.27289009094238,2.18571352958679,2.50182271003723,-2.2623590635174,1.99238647840124,2.54336512160655,2433.599,1419.104,1718.243,3105.451,-0.03033234,-0.0369487,0.05423207,-0.958846390247345,-0.384891301393509,0.597800672054291,-0.936405971974636,-0.402909329586355,0.579679903854719,0
3.21999740600586,-2.29190325737,2.17809343338013,2.51367926597595,-2.28099585204123,1.98436758895103,2.55490218149615,2434.151,1411.241,1718.756,3100.798,-0.02916374,-0.03667972,0.05242216,-0.950668275356293,-0.381001263856888,0.59282386302948,-0.927194566064376,-0.398945918960059,0.573977604796153,0
3.23999786376953,-2.3107488155365,2.1705527305603,2.52543377876282,-2.29944628156995,1.97642888457015,2.56632387629027,2434.168,1405.497,1718.977,3094.933,-0.02799675,-0.03640754,0.05060557,-0.942270278930664,-0.377022534608841,0.587723553180695,-0.917771149318993,-0.394891285994308,0.568144060931169,0
3.2599983215332,-2.32942199707031,2.16309356689453,2.53708338737488,-2.31770615117141,1.96857217280235,2.57762760541179,2434.542,1398.076,1719.551,3089.975,-0.02682229,-0.03613057,0.04877894,-0.933655083179474,-0.37295800447464,0.582479357719421,-0.908139677873146,-0.390747132903322,0.562181721295578,0
3.27999877929688,-2.34791851043701,2.15571761131287,2.54862546920776,-2.33577134012187,1.96079922667992,2.58881081793642,2434.835,1391.77,1719.759,3084.406,-0.02564464,-0.03584934,0.04694604,-0.924826443195343,-0.368809014558792,0.57710474729538,-0.898304216251578,-0.386515208538549,0.556093102023818,0
