t,x_s1,x_s2,x_s3,x_s_d1,x_s_d2,x_s_d3,propellers_rpms1,propellers_rpms2,propellers_rpms3,propellers_rpms4,rollRad,pitchRad,yawRad,v_s1,v_s2,v_s3,v_s_d1,v_s_d2,v_s_d3,insideCount
0,-0.0599999986588955,2.94000005722046,1.17999994754791,-0.0599999986588955,2.94000005722046,1.17999994754791,0,0,0,0,0,0,0,0,0,0,-1.06581410364015E-15,4.44089209850063E-16,4.44089209850063E-16,0
0.01995849609375,-0.0599999986588955,2.94000005722046,1.17811644077301,-0.0600018573908239,2.93999925746004,1.18000109819152,0,0,0,0,-0.01635288,0.0001297794,-0.01587137,-1.10653664009419E-09,-7.76775763711157E-08,-0.0941759571433067,-0.000278830395522589,-0.000119972929573008,0.00017260929736197,5
0.03997802734375,-0.0599999986588955,2.94000005722046,1.17242503166199,-0.060014847005691,2.93999366839165,1.1800091393819,0,0,0,0,-0.03270202,0.0005238493,-0.03175127,-1.08383135799528E-09,-7.60859677484405E-08,-0.284568399190903,-0.00110975851463131,-0.000477498085781228,0.000686993385685745,5
0.05999755859375,-0.0599058903753757,2.93990302085876,1.16596496105194,-0.0600498857373401,2.93997859220429,1.18003083002592,1868.972,3252.972,3183.281,1722.006,-0.04942614,0.0003307642,-0.01369717,0.00470537692308426,-0.00484890071675181,-0.323006272315979,-0.00247936261166862,-0.00106680046642749,0.00153484356504269,5
0.0799560546875,-0.0598203800618649,2.93960738182068,1.16000306606293,-0.0601173573716436,2.93994956104499,1.18007259818167,1925.496,2314.381,3252.301,2829.28,-0.07544629,-0.002135855,0.02094784,0.00427543744444847,-0.0147797763347626,-0.29809358716011,-0.00436776476082353,-0.00187932715536027,0.00270385445243887,5
0.0999755859375,-0.059937484562397,2.93904495239258,1.15498697757721,-0.0602280337026576,2.93990194011169,1.18014111210282,978.7621,1498.468,3916.333,3896.943,-0.1032097,-0.008066182,0.06331681,-0.00585525576025248,-0.0281223282217979,-0.250803500413895,-0.00677334142420609,-0.00291437958958193,0.00419302100058057,4
0.1199951171875,-0.0604638978838921,2.93818354606628,1.15081334114075,-0.0603918861403606,2.93983143898525,1.18024254456713,346.5809,980.6145,4172.097,4613.561,-0.1214417,-0.0154245,0.1040136,-0.0263205915689468,-0.0430742055177689,-0.20868407189846,-0.00967801353495435,-0.00416417885169243,0.00599115140585487,4
0.13995361328125,-0.0615637339651585,2.93704128265381,1.14728260040283,-0.0606179788203098,2.93973415762137,1.18038250670631,353.2765,747.0821,3974.769,4855.23,-0.1254104,-0.02116947,0.1351159,-0.0549918115139008,-0.057118833065033,-0.176538839936256,-0.0130577281675476,-0.00561837563980114,0.00808335576156468,4
0.15997314453125,-0.0633411929011345,2.93568086624146,1.14427483081818,-0.0609172730813211,2.93960537966217,1.18056778411123,820.0153,814.008,3464.346,4692.653,-0.1184569,-0.0235285,0.1522799,-0.088872879743576,-0.0680225193500519,-0.150386199355125,-0.0169203082141145,-0.00728033592584475,0.0104744768105937,3
0.17999267578125,-0.0658473670482635,2.9341721534729,1.14182472229004,-0.0612985250199726,2.93944133760391,1.18080379722281,1349.249,1084.048,3005.296,4255.334,-0.1079715,-0.02278121,0.1557817,-0.125308603048325,-0.0754353553056717,-0.122502714395523,-0.0212433804254414,-0.00914043312572283,0.0131506644458931,3
0.199951171875,-0.0690855756402016,2.93255376815796,1.14006054401398,-0.0617692392128399,2.93923880243696,1.18109519173142,1637.41,1381.853,2917.201,3666.056,-0.09982593,-0.02030021,0.1501492,-0.161910504102707,-0.0809160321950912,-0.0882102847099304,-0.025999068106575,-0.0111866726763816,0.0160946616653354,3
0.219970703125,-0.0730111747980118,2.93082594871521,1.13903522491455,-0.0623411120546116,2.93899274152942,1.18144920826256,1640.119,1579.713,3150.688,3112.927,-0.09583385,-0.01735582,0.142182,-0.196279838681221,-0.0863901674747467,-0.0512662306427956,-0.0312039351396938,-0.0134261815535814,0.0193167223010366,3
0.239990234375,-0.0775509923696518,2.92897343635559,1.13863253593445,-0.0630214373585105,2.93870001655724,1.18187036203406,1524.428,1624.892,3416.728,2777.326,-0.09474675,-0.01467721,0.1377259,-0.226990923285484,-0.0926283225417137,-0.0201358404010534,-0.0368316683029241,-0.015847637913056,0.022800557215184,3
0.25994873046875,-0.0826399028301239,2.92699217796326,1.13863444328308,-0.0638159410385597,2.93835816381958,1.18236219765947,1440.313,1501.57,3531.873,2743.597,-0.09438935,-0.01258557,0.139291,-0.25444570183754,-0.099058523774147,9.51290130615234E-05,-0.0428509094329972,-0.0184375492131967,0.0265267542109178,3
0.27996826171875,-0.0882459059357643,2.92490029335022,1.13885164260864,-0.064737558267485,2.93796161767298,1.18293272262689,1398.804,1274.669,3479.434,2977.929,-0.09320744,-0.01110645,0.1456827,-0.280300289392471,-0.104588381946087,0.0108597315847874,-0.0492862758204926,-0.0212065075864124,0.030510552563791,3
0.29998779296875,-0.0943716242909431,2.92273211479187,1.13920605182648,-0.0657918945890516,2.93750796620855,1.18358540703494,1350.818,1061.937,3343.962,3325.216,-0.09052191,-0.009935189,0.153312,-0.306285887956619,-0.108409769833088,0.0177185460925102,-0.0561078595514081,-0.0241416444928383,0.0347334378503248,3
0.32000732421875,-0.101036846637726,2.92052531242371,1.13972342014313,-0.0669865614821475,2.93699393441958,1.18432496275165,1282.579,941.9963,3235.5,3590.157,-0.08597749,-0.008520517,0.1583548,-0.333260804414749,-0.110340237617493,0.0258683692663908,-0.0633036493784043,-0.0272377918282996,0.0391879745362408,3
0.3399658203125,-0.108252435922623,2.91831183433533,1.14046001434326,-0.0683246067173459,2.93641821093553,1.18515327649217,1253.229,944.2123,3171.279,3649.671,-0.07946606,-0.006290919,0.1584697,-0.360779732465744,-0.110676914453506,0.0368303135037422,-0.0708381612402705,-0.0304796817925674,0.0438521962973096,4
0.3599853515625,-0.116004191339016,2.91611456871033,1.14145231246948,-0.0698213312158394,2.93577421219747,1.18607982025561,1316.391,1045.341,3125.248,3498.644,-0.07155541,-0.002967294,0.1534806,-0.387587904930115,-0.109864488244057,0.049613181501627,-0.0787457139191101,-0.0338820807988248,0.0487473480944833,4
0.3800048828125,-0.124252483248711,2.91394925117493,1.14270651340485,-0.0714797725314022,2.93506063123087,1.18710647443246,1455.939,1182.25,3088.745,3231.813,-0.06359842,0.001258604,0.1450476,-0.412414968013763,-0.108264915645123,0.0627100542187691,-0.0869921272359981,-0.0374302820709642,0.0538522707687797,4
0.39996337890625,-0.132944151759148,2.91182589530945,1.14421486854553,-0.0733007663744719,2.93427710845288,1.18823375636729,1583.291,1275.066,3101.304,2980.308,-0.05701029,0.005831876,0.1357434,-0.434583932161331,-0.106165245175362,0.075419619679451,-0.0955391997469985,-0.0411078485948847,0.0591433158066154,4
0.41998291015625,-0.142024651169777,2.90974998474121,1.14595627784729,-0.075301871434707,2.93341608884986,1.18947253572543,1628.634,1286.983,3162.653,2845.628,-0.05243871,0.01017431,0.127862,-0.454025059938431,-0.103800401091576,0.0870687067508698,-0.104427768518458,-0.0449323514193797,0.064645763297398,4
0.44000244140625,-0.151447057723999,2.90772414207458,1.14789378643036,-0.077483988232608,2.93247718495301,1.19082336997196,1605.946,1238.198,3218.483,2844.477,-0.04964931,0.01397414,0.1224654,-0.471120536327362,-0.101289622485638,0.0968729928135872,-0.113620829717891,-0.048887868829098,0.0703367061060819,4
0.4599609375,-0.161177724599838,2.9057514667511,1.14999461174011,-0.0798455868024366,2.93146105506384,1.19228531198523,1544.545,1159.535,3250.547,2936.242,-0.0478831,0.01719139,0.1193262,-0.486533880233765,-0.0986348539590836,0.10503988713026,-0.123077777052859,-0.0529569290708118,0.076191007003302,4
0.47998046875,-0.171194672584534,2.9038360118866,1.15223789215088,-0.082406855753501,2.93035901258777,1.1938708594761,1471.253,1084.874,3252.337,3067.357,-0.04628361,0.01998688,0.1173753,-0.500847935676575,-0.0957759022712708,0.112166747450829,-0.132845337826091,-0.057159637597476,0.0822375924153778,5
0.5,-0.18148198723793,2.9019832611084,1.15461385250092,-0.085166398670376,2.92917165836334,1.1955791479969,1431.784,1046.555,3214.637,3170.799,-0.04431606,0.02264605,0.1152217,-0.514366090297699,-0.0926384478807449,0.118797086179256,-0.142884000065179,-0.0614789935111996,0.0884520025491718,5
0.51995849609375,-0.192025020718575,2.9001989364624,1.1571319103241,-0.0881201847785335,2.92790072672023,1.1974076823062,1428.138,1046.406,3174.505,3207.661,-0.04191229,0.02538761,0.1118679,-0.527151346206665,-0.089220754802227,0.125905111432076,-0.153151056234245,-0.0658966209524049,0.0948077994055338,5
0.53997802734375,-0.202805310487747,2.89848637580872,1.15980851650238,-0.0912913676125048,2.92653625533937,1.19937079554481,1441.477,1071.841,3153.476,3185.783,-0.03929601,0.028288,0.1070523,-0.539014458656311,-0.0856329500675201,0.133829772472382,-0.16369851368286,-0.0704348972306956,0.101337178011302,5
0.55999755859375,-0.213798403739929,2.89684581756592,1.16265082359314,-0.094676112580471,2.92507989413848,1.20146611391775,1483.052,1113.81,3137.145,3116.48,-0.03687626,0.03132768,0.1010643,-0.549654603004456,-0.0820282250642776,0.142116233706474,-0.17448465888317,-0.0750758741803766,0.108014315705644,5
0.5799560546875,-0.22497646510601,2.89527440071106,1.16566503047943,-0.0982677709141994,2.92353450389679,1.20368952152074,1526.327,1150.108,3142.913,3031.45,-0.03511911,0.03435395,0.0946379,-0.558903574943542,-0.0785681381821632,0.150711312890053,-0.185464977731761,-0.0798003986263293,0.114811656138046,5
0.5999755859375,-0.236311078071594,2.89376616477966,1.16885006427765,-0.102092760004862,2.92188871794891,1.20605737197736,1535.931,1165.741,3167.976,2980.602,-0.03429139,0.03715985,0.08862135,-0.566730856895447,-0.0754112228751183,0.159251719713211,-0.196696165293826,-0.0846328648712294,0.121764296254622,5
0.6199951171875,-0.247776120901108,2.89231300354004,1.17219221591949,-0.106144683970236,2.92014528826426,1.20856570593183,1534.055,1167.212,3180.147,2966.459,-0.03440431,0.03963292,0.08346167,-0.573253393173218,-0.072658933699131,0.167106702923775,-0.208134604141382,-0.0895545055543457,0.128845234789665,5
0.63995361328125,-0.259351134300232,2.8909056186676,1.17568373680115,-0.110414176275438,2.91830824500113,1.21120872505287,1513.158,1157.671,3191.871,2982.458,-0.03533163,0.04170901,0.07927169,-0.578749239444733,-0.0703683942556381,0.17457689344883,-0.219734259350223,-0.0945455131338589,0.136025973932143,5
0.65997314453125,-0.271020740270615,2.88953399658203,1.179319024086,-0.114931182097002,2.91636470358665,1.21400496683125,1461.11,1143.264,3202.628,3033.223,-0.03678411,0.04338437,0.07590801,-0.58348160982132,-0.0685850977897644,0.181764200329781,-0.231555939228262,-0.0996320517258771,0.143344156921357,5
0.67999267578125,-0.282773375511169,2.88818764686584,1.1830872297287,-0.119686638739014,2.91431856344567,1.21694882102647,1428.122,1139.432,3188.554,3078.036,-0.03843154,0.04477756,0.07288636,-0.58763176202774,-0.0673156231641769,0.188409671187401,-0.243554411173546,-0.104794659005432,0.150771782621969,5
0.699951171875,-0.294600009918213,2.88685655593872,1.1869889497757,-0.124668379003243,2.91217505978368,1.22003275556322,1411.824,1147.453,3174.374,3096.615,-0.04015248,0.04597913,0.06982885,-0.591332376003265,-0.0665604844689369,0.195085391402245,-0.255682396258658,-0.110012992170877,0.158279583125701,5
0.719970703125,-0.306492030620575,2.88552951812744,1.19102716445923,-0.129910105849058,2.90991969115882,1.22327763417886,1387.152,1161.975,3168.525,3109.275,-0.04193733,0.04701954,0.06663316,-0.594601333141327,-0.0663479194045067,0.201909795403481,-0.268004259419652,-0.115314745656047,0.165907403394098,5
0.739990234375,-0.318440020084381,2.88419556617737,1.19519674777985,-0.135400001298574,2.90755754251682,1.2266761409821,1391.043,1184.747,3151.399,3097.222,-0.04381859,0.04795319,0.06322253,-0.597399115562439,-0.066697858273983,0.208480909466743,-0.280473432677602,-0.12067988256057,0.173626415629864,5
0.75994873046875,-0.330434739589691,2.88284277915955,1.19950079917908,-0.141123030934024,2.90509508274763,1.23021896895215,1400.882,1208.698,3146.723,3068.32,-0.0459832,0.04874696,0.05978006,-0.599734306335449,-0.0676452070474625,0.215204551815987,-0.293041660990304,-0.126087640087875,0.181406747663168,5
0.77996826171875,-0.342467188835144,2.88145804405212,1.20394051074982,-0.147116852635298,2.90251610871756,1.23392943011056,1380.045,1225.855,3156.042,3062.189,-0.04854942,0.04931623,0.05665573,-0.601623356342316,-0.0692422240972519,0.221987336874008,-0.305776327165692,-0.131567011177758,0.189290112662009,5
0.79998779296875,-0.354529649019241,2.88002800941467,1.20850563049316,-0.153366821193532,2.89982692185086,1.2377984583754,1372.562,1240.14,3151.802,3058.009,-0.05146293,0.0496611,0.0539391,-0.603122591972351,-0.0715058892965317,0.22825799882412,-0.318629798715703,-0.137097500901303,0.197247023847227,5
0.82000732421875,-0.36661696434021,2.87853908538818,1.21319448947906,-0.159875221826383,2.89702653888221,1.24182746840525,1362.049,1251.86,3153.416,3054.866,-0.05472689,0.04975263,0.05172468,-0.604365706443787,-0.0744499787688255,0.234442502260208,-0.331592781842754,-0.14267511039705,0.205271727915392,4
0.8399658203125,-0.378726184368134,2.87697744369507,1.21800291538239,-0.166623119864544,2.89412310687084,1.24600473873783,1326.342,1260.151,3155.826,3078.405,-0.05829713,0.04956369,0.05008621,-0.605461716651917,-0.0780798047780991,0.240424007177353,-0.344616121128287,-0.148278689461635,0.213333795320821,4
0.8599853515625,-0.390856862068176,2.8753297328949,1.22292745113373,-0.173653699721778,2.89109804476993,1.25035700258242,1288.844,1267.908,3158.798,3102.646,-0.06193447,0.04913761,0.04889527,-0.606535255908966,-0.0823901444673538,0.246228769421577,-0.357770416714212,-0.153938615363784,0.221476930914505,4
0.8800048828125,-0.40300977230072,2.87358331680298,1.22795736789703,-0.180948461186242,2.88795931270381,1.25487280742661,1277.665,1280.346,3142.688,3115.533,-0.06551483,0.04854863,0.04794001,-0.607645392417908,-0.087325856089592,0.251496076583862,-0.371007022483504,-0.159633957038354,0.229671020432672,4
0.89996337890625,-0.415187060832977,2.87172603607178,1.23309397697449,-0.188485507600594,2.88471633219242,1.2595385981964,1272.028,1296.266,3134.186,3114.903,-0.06908985,0.0478168,0.04715541,-0.608864724636078,-0.0928644388914108,0.256830811500549,-0.384276397333556,-0.165343398332914,0.237885395572837,4
0.91998291015625,-0.427391320466995,2.86974620819092,1.2383394241333,-0.196312316554895,2.88134867495511,1.26438376578173,1238.183,1310.713,3137.103,3132.319,-0.07268299,0.04692615,0.0466325,-0.610213756561279,-0.0989958271384239,0.262272328138351,-0.397650971463704,-0.171098103938772,0.246164894078718,4
0.94000244140625,-0.439625263214111,2.86763286590576,1.24368488788605,-0.204407453948074,2.87786556348678,1.26939504145298,1233.977,1325.904,3125.949,3133.328,-0.07618398,0.04594235,0.04625196,-0.611697137355804,-0.105669669806957,0.267273843288422,-0.411081631631503,-0.176876941799768,0.254479112513653,4
0.9599609375,-0.451892524957657,2.86537551879883,1.24913203716278,-0.212746045182651,2.87427770063182,1.27455702664937,1236.992,1341.908,3123.343,3120.757,-0.07966474,0.04486124,0.04607147,-0.613362550735474,-0.112869329750538,0.272360146045685,-0.424518689171827,-0.18265853227144,0.262797291226931,3
0.97998046875,-0.464197099208832,2.86296391487122,1.25468218326569,-0.221379956358585,2.87056276985637,1.27990182895749,1207.032,1353.347,3130.935,3135.101,-0.08317158,0.04363709,0.04628365,-0.615229249000549,-0.120575562119484,0.277508705854416,-0.438035925118965,-0.188474621271639,0.271165104193453,3
1,-0.476543605327606,2.86038947105408,1.26032543182373,-0.230284798736574,2.86673126495361,1.28541435058594,1204.283,1363.05,3122.307,3139.854,-0.08658043,0.04232442,0.04677826,-0.617324888706207,-0.128719538450241,0.282160729169846,-0.451584000205995,-0.194303979492187,0.279552008056641,3
1.01995849609375,-0.48893815279007,2.85764384269714,1.26606345176697,-0.23943271784574,2.86279517092421,1.29107734829033,1204.531,1373.281,3120.875,3136.696,-0.08993602,0.04092155,0.04756255,-0.619728446006775,-0.137278854846954,0.286904066801071,-0.465113307397641,-0.200125262411666,0.287927293698547,3
1.03997802734375,-0.501387596130371,2.85471940040588,1.27189874649048,-0.248880035413094,2.85873025410248,1.29692568790267,1169.945,1379.948,3129.263,3161.385,-0.09323461,0.03940075,0.04873874,-0.622473359107971,-0.146226674318314,0.291763246059418,-0.478698517198992,-0.205970598662363,0.296337185718871,3
1.05999755859375,-0.513899087905884,2.85160994529724,1.27782201766968,-0.258599401509697,2.85454828239877,1.30294243851408,1167.387,1386.638,3119.924,3171.36,-0.09630257,0.03784447,0.05009875,-0.625575006008148,-0.15547801554203,0.296164870262146,-0.492290296490434,-0.211818761581115,0.30475114456651,3
1.0799560546875,-0.526480913162231,2.84830975532532,1.28383648395538,-0.268559993341139,2.85026251800042,1.30910851934653,1173.251,1395.619,3117.314,3167.156,-0.09918677,0.03626873,0.05159827,-0.62908923625946,-0.165004938840866,0.30072158575058,-0.505839340129748,-0.217648536542653,0.3131386480097,3
1.0999755859375,-0.539141118526459,2.84481430053711,1.28994619846344,-0.278822628233634,2.845846792911,1.31546157922208,1146.45,1401.637,3125.807,3187.208,-0.1019202,0.03464589,0.05334633,-0.633013546466827,-0.174776524305344,0.305484652519226,-0.519420764586993,-0.223492244065532,0.321546196721701,3
1.1199951171875,-0.551887631416321,2.84112024307251,1.29614341259003,-0.289357002179081,2.84131414609862,1.32198285851614,1152.761,1407.547,3117.13,3191.276,-0.104381,0.03305136,0.05517043,-0.637326121330261,-0.184701308608055,0.309859991073608,-0.532985466132485,-0.229328756186667,0.329943393154705,3
1.13995361328125,-0.564729034900665,2.83722496032715,1.30243277549744,-0.300129348556794,2.8366791063968,1.32865145408196,1165.638,1414.741,3116.65,3182.604,-0.1066591,0.0314854,0.05707524,-0.642067134380341,-0.194758325815201,0.314467251300812,-0.546484652851112,-0.235137079108074,0.338300032788975,3
1.15997314453125,-0.577673494815826,2.83312654495239,1.30881989002228,-0.311204994190806,2.83191356549821,1.33550780633558,1142.506,1417.647,3128.852,3200.942,-0.108805,0.0299055,0.05920957,-0.647224485874176,-0.204925045371056,0.319353401660919,-0.559993461530388,-0.240949542090342,0.346662628875245,3
1.17999267578125,-0.59072881937027,2.8288242816925,1.31529748439789,-0.322550701230474,2.8270318247214,1.34253133946411,1151.418,1420.142,3122.799,3205.295,-0.1106911,0.02838118,0.06141104,-0.652768611907959,-0.215109512209892,0.323878318071365,-0.573463232144024,-0.246745208083563,0.355001058539242,3
1.199951171875,-0.603903770446777,2.82431840896606,1.32187056541443,-0.334129796137751,2.82204966366526,1.3496993508005,1166.414,1423.729,3123.982,3198.263,-0.1123982,0.02691098,0.06367363,-0.658746063709259,-0.225295349955559,0.328655779361725,-0.586845888408906,-0.252503391206208,0.363285560271529,3
1.219970703125,-0.617206633090973,2.81960916519165,1.32854568958282,-0.346012104131023,2.81693703848901,1.35705506548116,1144.925,1423.066,3137.893,3218.405,-0.1139641,0.0254519,0.06612587,-0.665145337581635,-0.235465422272682,0.333754569292068,-0.600216179640808,-0.2582562540006,0.371562407459373,3
1.239990234375,-0.630645155906677,2.81469869613647,1.33531618118286,-0.358161486344149,2.81170949873715,1.36457611182642,1155.995,1423.143,3132.195,3224.055,-0.1152584,0.02407947,0.06858143,-0.671924889087677,-0.24552783370018,0.338523477315903,-0.613526094901141,-0.263983138701136,0.379801879044709,2
1.25994873046875,-0.644227683544159,2.80958938598633,1.34218788146973,-0.370538411106574,2.80638405378312,1.37223801784905,1173.804,1424.784,3133.569,3217.278,-0.1163674,0.02279412,0.07101639,-0.679125905036926,-0.255471467971802,0.343583583831787,-0.626728467014515,-0.269663750589943,0.387974776299087,2
1.27996826171875,-0.657962203025818,2.804283618927,1.34916841983795,-0.383217166996937,2.80092873932693,1.38008677171809,1155.612,1422.241,3148.925,3235.764,-0.1173304,0.02155083,0.07355668,-0.68672502040863,-0.265289187431335,0.349025726318359,-0.639897267894095,-0.27532991771472,0.396126891360527,2
1.29998779296875,-0.671855390071869,2.79878568649292,1.35625171661377,-0.396158759015336,2.79536033382764,1.388098233671,1170.098,1421.297,3143.84,3239.433,-0.1180329,0.02042259,0.07602718,-0.694658279418945,-0.27489361166954,0.354167342185974,-0.652985332144132,-0.280961346123326,0.404229026602261,2
1.32000732421875,-0.685914576053619,2.79310011863708,1.36344420909882,-0.409361504843077,2.78967956113998,1.39627136227237,1191.478,1421.678,3145.994,3230.463,-0.1185767,0.01940373,0.07841787,-0.702960431575775,-0.284281253814697,0.359623432159424,-0.6659860834168,-0.286555206197011,0.41227711095171,2
1.3399658203125,-0.700146377086639,2.78723120689392,1.37075161933899,-0.422782156447859,2.78390502968405,1.40457938493002,1186.9,1419.34,3155.606,3242.109,-0.1190577,0.01845064,0.08084256,-0.711592257022858,-0.293441832065582,0.365368247032166,-0.678853852630301,-0.292091847805726,0.42024287307172,2
1.3599853515625,-0.71455717086792,2.78118371963501,1.37817859649658,-0.436500861174643,2.77800225429635,1.41307191666844,1177.103,1412.895,3172.724,3253.718,-0.1193171,0.01757796,0.08327266,-0.720540463924408,-0.302371263504028,0.371351212263107,-0.69166099897751,-0.297602405088682,0.428171106749628,2
1.3800048828125,-0.729151725769043,2.77496433258057,1.38571810722351,-0.450474904562636,2.77198961381608,1.4217225152016,1202.199,1411.717,3163.593,3251.473,-0.1193245,0.01684562,0.08556396,-0.729727566242218,-0.310974329710007,0.376973390579224,-0.704361775018035,-0.303067194200314,0.436033492140578,2
1.39996337890625,-0.743935644626617,2.76857924461365,1.39337730407715,-0.464658337480184,2.7658868788709,1.43050273582817,1226.531,1410.898,3164.162,3243.005,-0.1192606,0.0162247,0.08773928,-0.739197313785553,-0.319258511066437,0.382958292961121,-0.716911837553692,-0.30846713550125,0.443802578692535,2
1.41998291015625,-0.758914172649384,2.76203417778015,1.4011664390564,-0.479135601808478,2.75965771647838,1.43946485209513,1208.019,1404.041,3184.671,3261.603,-0.1191621,0.01565279,0.0899455,-0.748926877975464,-0.327257245779037,0.389458864927292,-0.729381927869995,-0.313832666990362,0.451522158631107,2
1.44000244140625,-0.774090707302094,2.75533604621887,1.40907967090607,-0.493861275572861,2.75332167044526,1.4485807456364,1220.859,1400.511,3182.561,3265.921,-0.118883,0.01520468,0.09200925,-0.758822679519653,-0.334907233715057,0.395664662122726,-0.741727567798258,-0.319144650954242,0.459164697851088,2
1.4599609375,-0.789469063282013,2.7484917640686,1.4171222448349,-0.508786793047814,2.74689963724648,1.45782035195439,1244.904,1398.609,3185.529,3254.596,-0.1184936,0.01487795,0.09390836,-0.768917083740234,-0.342216581106186,0.402129650115967,-0.753905903732742,-0.324384648683532,0.466703667929125,2
1.47998046875,-0.805052638053894,2.7415075302124,1.42530190944672,-0.524000783579472,2.74035348215039,1.46723853683636,1233.436,1391.665,3203.638,3267.364,-0.1180404,0.01460962,0.09579799,-0.77917867898941,-0.349206954240799,0.408982396125793,-0.76598572865452,-0.329582259876133,0.474181654997567,2
1.5,-0.820842921733856,2.73439121246338,1.43361175060272,-0.539455198877605,2.73370387899399,1.4768055561018,1251.585,1388.684,3197.481,3269.286,-0.1174539,0.01445964,0.09753162,-0.789514720439911,-0.355814009904861,0.415493488311768,-0.777924000354858,-0.334718964672088,0.481572013878822,1
1.51995849609375,-0.836842358112335,2.72714996337891,1.44205808639526,-0.555098950682584,2.72697280962814,1.48648978368432,1274.155,1386.379,3200.022,3259.63,-0.1168446,0.01441127,0.09910204,-0.799974083900452,-0.362061083316803,0.422316402196884,-0.78967950960014,-0.339777031889425,0.488849234094216,1
1.53997802734375,-0.853053033351898,2.71979022026062,1.45064961910248,-0.571024729446907,2.7201203919406,1.49634859938949,1257.12,1378.222,3221.125,3274.779,-0.1162246,0.01440099,0.1006614,-0.810530185699463,-0.367991864681244,0.429574459791183,-0.801318788528229,-0.344785088448372,0.496054502206448,1
1.55999755859375,-0.869474589824677,2.71231913566589,1.45937824249268,-0.587181951496087,2.71316839067337,1.50635068951315,1272.351,1375.067,3215.754,3277,-0.1154779,0.01450009,0.102047,-0.821077406406403,-0.373550146818161,0.436432898044586,-0.812800388649436,-0.349725300221754,0.503162159625937,1
1.5799560546875,-0.886107861995697,2.70474410057068,1.46824872493744,-0.603517109114681,2.70613982870156,1.51646293023053,1296.97,1373.232,3216.812,3264.433,-0.1147029,0.01469727,0.1032431,-0.831663191318512,-0.378755301237106,0.44352263212204,-0.824084890952782,-0.354580706310386,0.510147804107099,0
1.5999755859375,-0.902953088283539,2.69707107543945,1.47726881504059,-0.620126809287134,2.69899313873865,1.52674512586702,1281.928,1365.486,3236.191,3277.346,-0.1139386,0.01492201,0.104417,-0.842263340950012,-0.383651971817017,0.451002866029739,-0.835236272052476,-0.359378834064062,0.517051040221759,0
1.6199951171875,-0.920008599758148,2.68930721282959,1.48643016815186,-0.636958033083316,2.69175113334911,1.53716445517924,1296.742,1362.912,3229.434,3279.275,-0.1130943,0.01523865,0.1054187,-0.85277396440506,-0.388192564249039,0.458065301179886,-0.846214826007804,-0.364102599125749,0.523847288101157,0
1.63995361328125,-0.937273561954498,2.6814591884613,1.49573731422424,-0.653954964893072,2.68443782843068,1.54768636564562,1318.886,1361.223,3230.685,3267.105,-0.112265,0.01563359,0.1062363,-0.863249540328979,-0.392405450344086,0.465355813503265,-0.856983060951778,-0.368735869792483,0.530513338493643,0
1.65997314453125,-0.954746901988983,2.67353224754333,1.50519752502441,-0.671217966514002,2.67701004110563,1.55837298599979,1301.17,1353.394,3250.907,3279.881,-0.111465,0.01603791,0.1070372,-0.87366795539856,-0.396343410015106,0.47301122546196,-0.86760212115283,-0.373304954734798,0.537087042614082,0
1.67999267578125,-0.972425282001495,2.6655330657959,1.51480102539063,-0.688691692550512,2.66949158495151,1.56919005480539,1315.071,1351.374,3243.031,3281.138,-0.1105936,0.01652001,0.1076688,-0.883921444416046,-0.399961054325104,0.480176538228989,-0.878034183119987,-0.377793579561193,0.543544985919778,0
1.699951171875,-0.990306675434113,2.65746736526489,1.52455139160156,-0.706318139005925,2.66190741746765,1.58010166482538,1337.647,1350.381,3242.603,3267.563,-0.1097521,0.01706597,0.1081181,-0.894070684909821,-0.403284817934036,0.487517446279526,-0.888243810122449,-0.382186496836395,0.549865231386283,0
1.719970703125,-1.0083886384964,2.6493399143219,1.53445541858673,-0.724201244699276,2.65421281668394,1.59117215914002,1318.715,1343.014,3262.066,3279.971,-0.1089632,0.01760264,0.1085615,-0.904100358486176,-0.406371265649796,0.495201200246811,-0.898289055119065,-0.386508685126782,0.556083716560567,0
1.739990234375,-1.02666676044464,2.64115619659424,1.54450261592865,-0.74228345468553,2.64643254688532,1.60236590849663,1330.482,1341.586,3253.258,3281.71,-0.1081259,0.01819878,0.1088465,-0.913904249668121,-0.409180879592896,0.502357661724091,-0.908134108040217,-0.390744736359816,0.562178273303667,0
1.75994873046875,-1.04513776302338,2.63292145729065,1.55469584465027,-0.760504703501031,2.63859245256277,1.61364572951188,1351.521,1341.172,3252.383,3267.51,-0.1073307,0.01884267,0.1089563,-0.923548698425293,-0.411742180585861,0.509661853313446,-0.917745706354326,-0.394880338597406,0.568128310524024,0
1.77996826171875,-1.06379818916321,2.62463927268982,1.56504118442535,-0.778972314193065,2.6306463556073,1.62507806026454,1330.818,1334.409,3271.274,3279.596,-0.1065962,0.01946162,0.1090713,-0.933019816875458,-0.414112865924835,0.517267405986786,-0.927178570605173,-0.398939036560826,0.573967702844936,0
1.79998779296875,-1.08264255523682,2.61631417274475,1.57552695274353,-0.797626646773287,2.62261991743975,1.63662598076079,1341.861,1333.798,3261.019,3280.689,-0.1058191,0.02012593,0.1090374,-0.942213475704193,-0.416254043579102,0.524291038513184,-0.936399026186941,-0.402906341007953,0.579675604081262,0
1.82000732421875,-1.10166645050049,2.60795021057129,1.58615565299988,-0.816463410111527,2.61451498441355,1.64828683458664,1362.26,1334.166,3259.064,3265.573,-0.1050953,0.02082333,0.1088404,-0.951201915740967,-0.418193489313126,0.531432628631592,-0.94540321420156,-0.406780591562751,0.585249625391268,0
1.8399658203125,-1.1208655834198,2.59955072402954,1.59692966938019,-0.835419998744244,2.60635849391067,1.66002186597783,1351.681,1331.247,3267.552,3272.921,-0.1045147,0.02149022,0.1086305,-0.959958672523499,-0.419974505901337,0.538699150085449,-0.954160941629351,-0.41054879701235,0.590671075857483,0
1.8599853515625,-1.14023518562317,2.59111762046814,1.60784935951233,-0.854607925216182,2.59810246519841,1.67190010651166,1332.779,1324.421,3284.157,3281.386,-0.1038723,0.02213953,0.1084048,-0.968477964401245,-0.421638429164886,0.545987188816071,-0.962722140342816,-0.41423244164655,0.595970865687568,0
1.8800048828125,-1.15976858139038,2.58265542984009,1.61890017986298,-0.873964974649439,2.58977366760063,1.68388304221498,1353.819,1326.438,3265.916,3275.483,-0.1031362,0.02283869,0.1080075,-0.976665675640106,-0.423119246959686,0.552541375160217,-0.971056158224177,-0.417818336715394,0.601130019760457,0
1.89996337890625,-1.17946076393127,2.57416653633118,1.63008511066437,-0.893426802120876,2.58139978694019,1.69593084051521,1375.639,1328.616,3259.831,3259.894,-0.1025077,0.02354908,0.1074658,-0.984610259532928,-0.424441307783127,0.559245407581329,-0.979135219574012,-0.421294531111384,0.606131343595068,0
1.91998291015625,-1.19930696487427,2.56565284729004,1.64141130447388,-0.91310780215452,2.5729316024492,1.70811431707208,1345.57,1323.101,3279.764,3275.367,-0.1020124,0.02418883,0.106982,-0.992314875125885,-0.425681799650192,0.566311836242676,-0.98700543065471,-0.424680863071164,0.611003379164165,0
1.94000244140625,-1.21930062770844,2.55711650848389,1.65286576747894,-0.932943991899774,2.5643966441608,1.72039386345315,1348.246,1323.401,3270.604,3278.276,-0.1014771,0.02484322,0.1063848,-0.999674797058105,-0.426813721656799,0.572724044322968,-0.994638524886308,-0.427965170275055,0.615728628108227,0
1.9599609375,-1.23943567276001,2.54855942726135,1.66444826126099,-0.952869434730639,2.55582328276311,1.73272866174593,1367.702,1325.415,3267.168,3259.51,-0.1009514,0.02551472,0.1056443,-1.00676095485687,-0.427854627370834,0.579127788543701,-1.00200923318578,-0.431136580142566,0.620291447661127,0
1.97998046875,-1.25970709323883,2.53998255729675,1.67616200447083,-0.973001172086935,2.54716115859433,1.74519116617712,1345.451,1321.529,3281.683,3268.972,-0.10048,0.02612553,0.1049651,-1.01356756687164,-0.428847372531891,0.585689306259155,-1.0091596546337,-0.434213206731958,0.624717899159203,0
2,-1.28010725975037,2.53138732910156,1.68799293041229,-0.993273599084619,2.53843849960327,1.7577407641983,1354.283,1323.073,3266.69,3269.619,-0.09998678,0.0267425,0.1041977,-1.02001011371613,-0.429747611284256,0.591546535491943,-1.01606400046349,-0.437183953857422,0.628992018127441,0
2.01995849609375,-1.30063080787659,2.52277588844299,1.69994270801544,-1.01361934024125,2.52968429557778,1.77033574717631,1370.266,1325.19,3262.89,3254.007,-0.0995692,0.02735205,0.103329,-1.02618193626404,-0.430583268404007,0.597491681575775,-1.02269958857548,-0.440039062045143,0.633099763265664,0
2.03997802734375,-1.32127261161804,2.51414775848389,1.71201574802399,-1.03415783849082,2.52084715356021,1.78305005597715,1339.003,1320.966,3280.131,3268.647,-0.09923098,0.02788273,0.1025516,-1.03208196163177,-0.431411802768707,0.60365104675293,-1.02910434715509,-0.442794850733705,0.637064613927399,0
2.05999755859375,-1.3420250415802,2.50550389289856,1.72419679164886,-1.05482201812353,2.5119559343546,1.79584216754118,1344.447,1322.525,3266.319,3269.537,-0.09882139,0.02842146,0.1016817,-1.03762018680573,-0.432188808917999,0.609052538871765,-1.03525504859546,-0.445441325732794,0.640872191117535,0
2.0799560546875,-1.36288249492645,2.49684524536133,1.73648583889008,-1.07554322220087,2.50304017912354,1.80866957995289,1363.507,1325.653,3260.444,3250.4,-0.09842937,0.02896298,0.1006974,-1.04288029670715,-0.432927787303925,0.614455163478851,-1.04113166921817,-0.447969871412971,0.644510099225253,0
2.0999755859375,-1.38383984565735,2.48817181587219,1.7488865852356,-1.09644304044274,2.49404757120739,1.82160756304102,1335.582,1322.766,3274.714,3262.51,-0.098105,0.02942801,0.09980908,-1.04786193370819,-0.433673948049545,0.620036721229553,-1.04676782045836,-0.450394949835787,0.647999145330045,0
2.1199951171875,-1.40488946437836,2.47948408126831,1.76138412952423,-1.11745308225396,2.48500753716864,1.83461377976925,1340.912,1324.736,3259.744,3263.655,-0.09773055,0.02989453,0.09884852,-1.05248367786407,-0.434382170438766,0.624874651432037,-1.0521429102862,-0.45270770082608,0.651326581984514,0
2.13995361328125,-1.42602610588074,2.47078275680542,1.77397906780243,-1.13850357065857,2.4759501000907,1.84764503486553,1357.253,1327.798,3254.837,3245.52,-0.0973886,0.03035575,0.09779689,-1.05683422088623,-0.435071885585785,0.629749298095703,-1.0572396359531,-0.454900679494516,0.654481697963039,0
2.15997314453125,-1.44724428653717,2.4620668888092,1.78667485713959,-1.15971797923886,2.46682213274057,1.86077776435915,1326.158,1324.988,3269.822,3258.886,-0.09710578,0.03073736,0.09686035,-1.06091165542603,-0.435788184404373,0.634792149066925,-1.06208716414724,-0.456986435452193,0.657482548835001,0
2.17999267578125,-1.46853685379028,2.4533371925354,1.79945576190948,-1.18102676265167,2.45765355853653,1.8739689163698,1331.683,1326.918,3254.456,3259.166,-0.09674145,0.03112403,0.09585832,-1.06463634967804,-0.436479926109314,0.639047741889954,-1.06666760390386,-0.458957270716794,0.660318059240953,0
2.199951171875,-1.4898989200592,2.44459390640259,1.8123220205307,-1.20235918878472,2.44847481153047,1.88717470435054,1349.52,1330.236,3248.173,3239.858,-0.09638938,0.0315086,0.0947723,-1.06809592247009,-0.437158972024918,0.643310785293579,-1.07096642698373,-0.460806934192852,0.662979235508738,0
2.219970703125,-1.51132476329803,2.43583631515503,1.82527685165405,-1.22384034501537,2.43923207011845,1.90047256334669,1318.41,1327.829,3261.96,3253.443,-0.09609538,0.03181427,0.09381302,-1.07129144668579,-0.437866061925888,0.647743582725525,-1.07500824518964,-0.462546015651526,0.665481313516697,0
2.239990234375,-1.53280758857727,2.42706561088562,1.83830487728119,-1.24539969505118,2.42995568409656,1.91381882803312,1322.918,1329.586,3246.517,3254.369,-0.0957188,0.03212501,0.0927972,-1.07414865493774,-0.438550025224686,0.651400029659271,-1.07877792518082,-0.464168003639063,0.667814925005999,0
2.25994873046875,-1.55434274673462,2.41828107833862,1.8514062166214,-1.26696571949139,2.4206764262649,1.92716922449383,1339.834,1332.808,3240.408,3235.211,-0.0953433,0.03243648,0.09170153,-1.07675325870514,-0.439222812652588,0.65506899356842,-1.08226375787775,-0.46566786006566,0.669972821498637,0
2.27996826171875,-1.57592487335205,2.40948271751404,1.86458420753479,-1.28866484336891,2.41133989946375,1.94060201584662,1308.359,1330.642,3253.961,3248.476,-0.0950104,0.03267444,0.09073535,-1.07910394668579,-0.439922243356705,0.658902168273926,-1.08548570791771,-0.467054175156991,0.671967362056137,0
2.29998779296875,-1.59754753112793,2.40067076683044,1.87782299518585,-1.31042570636616,2.40197680804417,1.95407302665558,1313.437,1332.253,3238.067,3248.828,-0.09457897,0.03292305,0.08971462,-1.08112740516663,-0.440592765808105,0.661941528320313,-1.08843144721369,-0.468321644481621,0.673790915005368,0
2.32000732421875,-1.61920547485352,2.39184594154358,1.89112293720245,-1.33224276726637,2.39258953623693,1.96757882664355,1331.357,1335.38,3231.671,3228.6,-0.09413689,0.03317701,0.08861851,-1.0829085111618,-0.4412442445755,0.664997339248657,-1.09109983431736,-0.469469776906228,0.675442773735451,0
2.3399658203125,-1.64089417457581,2.38300800323486,1.90448391437531,-1.354043721977,2.38320919447311,1.98107465613292,1312.847,1335.876,3234.698,3237.026,-0.09380505,0.03337196,0.0876214,-1.0844292640686,-0.44189578294754,0.668048858642578,-1.09348297402779,-0.470495175346408,0.676918050740891,0
2.3599853515625,-1.66260838508606,2.37415671348572,1.91790413856506,-1.37595634130987,2.37378080654189,1.99463961134278,1287.28,1331.932,3246.461,3245.558,-0.09335978,0.0335317,0.08669884,-1.08570647239685,-0.442569047212601,0.671012580394745,-1.09559452046326,-0.471403714787811,0.678225198571351,0
2.3800048828125,-1.68434166908264,2.36529302597046,1.93136644363403,-1.39790843013262,2.36433543599182,2.00822900004707,1305.176,1334.658,3224.614,3237.537,-0.09274086,0.03373052,0.08567761,-1.08667290210724,-0.443182319402695,0.673116207122803,-1.09742594550583,-0.472191725819537,0.679358937915576,0
2.39996337890625,-1.70608973503113,2.35641813278198,1.94487261772156,-1.41982729721844,2.35490435982705,2.02179782291363,1325.615,1338.291,3215.47,3217.428,-0.0921507,0.03393523,0.08459024,-1.08741140365601,-0.443741887807846,0.675307869911194,-1.09897224258044,-0.472857054252202,0.680316169465103,0
2.41998291015625,-1.72784829139709,2.34753227233887,1.95842790603638,-1.4418413890156,2.34543231112926,2.03542559441269,1289.07,1335.892,3229.615,3234.9,-0.09165269,0.0340656,0.08365553,-1.08792448043823,-0.444294691085815,0.677762448787689,-1.10024227275454,-0.473403512755585,0.681102378642803,0
2.44000244140625,-1.74961125850677,2.33863639831543,1.97201728820801,-1.46387808506052,2.33595053645515,2.04906735901791,1289.701,1335.996,3216.951,3236.747,-0.09104123,0.03421598,0.08266702,-1.08814573287964,-0.444796115159988,0.679470658302307,-1.10123038958312,-0.473828671822132,0.681714070030222,0
2.4599609375,-1.77137398719788,2.32973146438599,1.98564040660858,-1.48586448079375,2.32649040459993,2.06267798533405,1308.261,1338.327,3211.369,3214.45,-0.09036265,0.03439163,0.08159223,-1.08814334869385,-0.445250779390335,0.681155681610107,-1.10193449000042,-0.474131626561409,0.682149941729488,0
2.47998046875,-1.79313206672668,2.3208179473877,1.99929928779602,-1.50792940965705,2.3169964821328,2.07633722739875,1280.756,1336.437,3221.679,3225.351,-0.08968994,0.03451827,0.08064809,-1.08790695667267,-0.445677816867828,0.682945311069489,-1.10235860927677,-0.474314113237503,0.682412491765153,0
2.5,-1.81487965583801,2.31189727783203,2.01297855377197,-1.52999999932945,2.30750012397766,2.08999997377396,1289.23,1336.647,3204.71,3223.88,-0.08890803,0.03467104,0.07965685,-1.08737981319427,-0.446018189191818,0.683964550495148,-1.10250000050292,-0.474374949932098,0.682500019669533,0
2.51995849609375,-1.83661246299744,2.30297183990479,2.0266797542572,-1.55200330634561,2.29803271566984,2.10362106897983,1306.56,1338.331,3198.715,3204.32,-0.0881208,0.03483856,0.078607,-1.08664107322693,-0.446283996105194,0.68505597114563,-1.10235947007672,-0.474314483615674,0.682413024641328,0
2.53997802734375,-1.85832619667053,2.29404163360596,2.04040622711182,-1.57406826106879,2.28853878207593,2.11728032705303,1272.512,1335.519,3211.199,3220.203,-0.08737565,0.03495046,0.07770129,-1.08568561077118,-0.446507424116135,0.686327576637268,-1.10193621258339,-0.474132367740737,0.682151008090402,0
2.55999755859375,-1.88001537322998,2.28510880470276,2.05414295196533,-1.59612191359838,2.27904971150017,2.13093258853001,1277.94,1334.765,3196.524,3219.588,-0.08649042,0.0350967,0.07673116,-1.08445584774017,-0.446636170148849,0.686833262443542,-1.10123038958312,-0.473828671822132,0.681714070030222,0
2.5799560546875,-1.90167570114136,2.27617526054382,2.06788992881775,-1.61809145607924,2.26959683112862,2.1445327818801,1297.84,1336.364,3189.835,3197.511,-0.08554979,0.03527422,0.07567394,-1.08301687240601,-0.446673929691315,0.687353909015656,-1.10024571396254,-0.473404993411248,0.681104508914478,0
2.5999755859375,-1.92330276966095,2.26724243164063,2.08165049552917,-1.64010562536668,2.26012474908893,2.15816060134934,1268.773,1334.037,3200.033,3210.076,-0.08463473,0.03540912,0.07474186,-1.08135879039764,-0.446643799543381,0.688027918338776,-1.09897654259203,-0.472858904427064,0.680318831377119,0
2.6199951171875,-1.94489145278931,2.2583122253418,2.09540987014771,-1.66209156852628,2.2506648119635,2.17177094750084,1275.877,1333.049,3184.624,3208.881,-0.08360249,0.03557983,0.0737474,-1.07942843437195,-0.44649550318718,0.687965869903564,-1.09742594550583,-0.472191725819537,0.679358937915576,0
2.63995361328125,-1.96643722057343,2.24938774108887,2.10916924476624,-1.68397678738287,2.24124821369174,2.18531894051062,1294.349,1334.028,3179.015,3187.686,-0.08254148,0.03577916,0.07267512,-1.07729148864746,-0.44623938202858,0.687967419624329,-1.09560053017526,-0.471406300598994,0.678228918869363,0
2.65997314453125,-1.98793590068817,2.24046969413757,2.12293171882629,-1.70588953556828,2.23181977031887,2.19888397548635,1263.283,1331.21,3189.974,3201.552,-0.08151457,0.03593699,0.07173177,-1.07493674755096,-0.445901423692703,0.688127517700195,-1.09348983658457,-0.470498128112872,0.676922298990445,0
2.67999267578125,-2.0093822479248,2.23156070709229,2.13668274879456,-1.72775723139253,2.2224107117184,2.21242112090437,1270.647,1329.494,3175.287,3199.604,-0.08035663,0.03613538,0.0707202,-1.07231462001801,-0.445433974266052,0.687546193599701,-1.09109983431736,-0.469469776906228,0.675442773735451,0
2.699951171875,-2.03077173233032,2.22266411781311,2.15042281150818,-1.74950785944813,2.21305202410827,2.22588579579688,1290.504,1330.111,3169.098,3177.57,-0.07915873,0.03636695,0.0696257,-1.06948459148407,-0.444843202829361,0.687007009983063,-1.08844000459651,-0.468325326484384,0.67379621243298,0
2.719970703125,-2.05210089683533,2.21378087997437,2.16415524482727,-1.77126890221328,2.20368885533958,2.23935691789074,1261.059,1327.259,3178.893,3190.813,-0.07799973,0.03656087,0.06865492,-1.06643581390381,-0.444152563810349,0.686623275279999,-1.08549510920706,-0.467058220269158,0.671973181902092,0
2.739990234375,-2.07336282730103,2.20491480827332,2.17786574363708,-1.79296822271738,2.1943522439355,2.25278983096475,1268.13,1325.036,3164.498,3189.196,-0.07672247,0.03679496,0.06761483,-1.06312429904938,-0.44331967830658,0.685527741909027,-1.08227399942825,-0.465672266718727,0.669979161506271,0
2.75994873046875,-2.09455513954163,2.19606781005859,2.19155550003052,-1.8145344598905,2.18507289457083,2.26614035911726,1287.323,1325.249,3158.579,3167.614,-0.07541167,0.03706347,0.06648763,-1.05960488319397,-0.442352682352066,0.684483110904694,-1.07878900047211,-0.464172769027497,0.667821781138895,0
2.77996826171875,-2.11567211151123,2.18724203109741,2.2052276134491,-1.83609403998392,2.17579640956157,2.27948676622032,1257.968,1322.307,3168.543,3180.316,-0.07413974,0.03729726,0.06547662,-1.05586624145508,-0.441276043653488,0.683601677417755,-1.0750201524698,-0.462551139021528,0.665488684690339,0
2.79998779296875,-2.13670969009399,2.17844104766846,2.2188675403595,-1.85757544288233,2.1665535620153,2.29278477791556,1265.464,1319.704,3154.219,3178.204,-0.07274744,0.03757351,0.06439157,-1.05186533927917,-0.440049588680267,0.682001113891602,-1.07097916161324,-0.460812413548163,0.662987118851036,0
2.82000732421875,-2.1576623916626,2.16966772079468,2.23247647285461,-1.87897323600723,2.1573466894188,2.30603103117811,1285.535,1319.624,3148.141,3155.888,-0.07132105,0.03788532,0.06321608,-1.04765331745148,-0.438680440187454,0.680450201034546,-1.06666760390385,-0.458957270716794,0.660318059240952,0
2.8399658203125,-2.17852663993835,2.16092419624329,2.24605464935303,-1.90021719432543,2.14820600764196,2.31918205336715,1269.694,1318.298,3149.026,3162.866,-0.06999853,0.03817347,0.06211826,-1.04320824146271,-0.437181383371353,0.678905069828033,-1.06210153574728,-0.456992619150195,0.65749144554004,0
2.8599853515625,-2.19929766654968,2.15221285820007,2.25960063934326,-1.92143189875059,2.13907791299805,2.33231496600284,1248.025,1312.698,3158.131,3169.397,-0.06857906,0.03845899,0.06106326,-1.03854775428772,-0.435572952032089,0.677301108837128,-1.05725481901126,-0.454907212340279,0.654491096999312,0
2.8800048828125,-2.21997022628784,2.14353704452515,2.27309966087341,-1.94254691640495,2.12999271078668,2.34538616777867,1266.757,1311.051,3139.386,3159.324,-0.06698809,0.03880392,0.05989009,-1.03362798690796,-0.433800786733627,0.674947440624237,-1.0521429102862,-0.45270770082608,0.651326581984514,0
2.89996337890625,-2.24054002761841,2.13489937782288,2.28655362129211,-1.96349306806643,2.12098016689448,2.3583528334607,1288.646,1311.472,3131.167,3137.161,-0.06541203,0.03917787,0.05863446,-1.02849054336548,-0.431868404150009,0.672697007656097,-1.04678460577819,-0.450402172089984,0.648009536242619,0
2.91998291015625,-2.26100254058838,2.12630319595337,2.29996728897095,-1.98439323028747,2.1119874109737,2.37129102948832,1256.879,1308.461,3140.993,3152.185,-0.06394409,0.03950952,0.0575023,-1.02312898635864,-0.429809212684631,0.67067813873291,-1.0411492471255,-0.447977434695422,0.644520980787238,0
2.94000244140625,-2.28135299682617,2.11775088310242,2.31332731246948,-2.00517798053537,2.10304431360073,2.38415778000673,1259.707,1304.682,3129.616,3152.097,-0.06238295,0.03987729,0.05629619,-1.01751363277435,-0.427603274583817,0.668000161647797,-1.03525504859546,-0.445441325732794,0.640872191117535,0
2.9599609375,-2.30158662796021,2.10924601554871,2.32663416862488,-2.02577934803935,2.09418012069934,2.39691100787092,1279.046,1303.951,3124.93,3128.544,-0.06076854,0.04028294,0.05498783,-1.01168286800385,-0.425258100032806,0.66534823179245,-1.02912348666547,-0.442803085930327,0.637076462196068,0
2.97998046875,-2.3216986656189,2.10079050064087,2.33988976478577,-2.04631823718085,2.08534281049189,2.40962555865248,1254.19,1301.432,3131.698,3138.365,-0.05919461,0.04066154,0.05377893,-1.00561916828156,-0.42278841137886,0.662785172462463,-1.0227194988233,-0.440047628868552,0.633112088657521,0
3,-2.34168481826782,2.09238696098328,2.35308074951172,-2.06672639957428,2.07656174835205,2.42225918334961,1264.086,1297.875,3117.247,3134.24,-0.05752801,0.04107711,0.052497,-0.999298453330994,-0.420166730880737,0.659547030925751,-1.01606400046349,-0.437183953857422,0.628992018127441,0
3.01995849609375,-2.36154007911682,2.08403897285461,2.36620879173279,-2.08693723170091,2.06786559191325,2.43477065121144,1282.456,1297.004,3111.918,3112.74,-0.05586566,0.04151661,0.05114037,-0.992760896682739,-0.417402446269989,0.65639728307724,-1.00918107987623,-0.434222425415264,0.624731162404951,0
3.03997802734375,-2.38125967979431,2.07574868202209,2.37927651405334,-2.10706940546153,2.05920327997188,2.4472334257977,1252.786,1294.146,3119.836,3126.336,-0.05428481,0.04191801,0.04989922,-0.985996544361115,-0.414519190788269,0.653388202190399,-1.00203140433628,-0.431146119769234,0.620305172659443,0
3.05999755859375,-2.40083932876587,2.06751871109009,2.39227080345154,-2.12705600675913,2.05060360379452,2.45960608409476,1259.175,1290.047,3107.199,3123.786,-0.05260435,0.0423541,0.04857932,-0.978987455368042,-0.41149839758873,0.649715662002563,-0.994638524886308,-0.427965170275055,0.615728628108227,0
3.0799560546875,-2.42027497291565,2.05935192108154,2.40519261360168,-2.14683195375245,2.04209456627929,2.47184833734263,1278.523,1289.264,3101.617,3100.823,-0.05089514,0.04281943,0.0471658,-0.971764743328094,-0.408345222473145,0.646089792251587,-0.987029064241807,-0.424691031943446,0.611018009480403,0
3.0999755859375,-2.43956136703491,2.05125045776367,2.418044090271,-2.16651343412374,2.03362617511243,2.48403211125138,1252.421,1287.077,3107.692,3111.811,-0.04925623,0.0432517,0.04585306,-0.964314460754395,-0.405076771974564,0.64257425069809,-0.979159571260203,-0.421305008961644,0.606146418448853,0
3.1199951171875,-2.45869374275208,2.04321670532227,2.43081259727478,-2.18603502400946,2.02522658035469,2.49611690533293,1259.994,1283.115,3094.672,3108.377,-0.04753423,0.04371479,0.04446568,-0.95662248134613,-0.40167710185051,0.638420045375824,-0.971056158224178,-0.417818336715394,0.601130019760458,0
3.13995361328125,-2.47766804695129,2.03525352478027,2.44349932670593,-2.20533331276045,2.01692306583692,2.50806346537477,1278.157,1282.269,3089.544,3086.114,-0.0458069,0.04420029,0.04299738,-0.948717772960663,-0.398153275251389,0.634336054325104,-0.962747895957759,-0.414243523568132,0.595986809640128,0
3.15997314453125,-2.49647951126099,2.02736330032349,2.45610642433167,-2.22452176174551,2.00866681230185,2.51994202936911,1250.958,1280.164,3095.67,3097.809,-0.04416427,0.04464862,0.04163737,-0.940588891506195,-0.394523948431015,0.630361020565033,-0.954187384555097,-0.410560174664568,0.590687445288169,0
3.17999267578125,-2.51512432098389,2.01954746246338,2.46862149238586,-2.24353658854737,2.00048526354177,2.53171311296128,1257.701,1275.936,3083.271,3094.557,-0.0424396,0.04512436,0.04020695,-0.932228207588196,-0.39077752828598,0.625752985477448,-0.945403214201559,-0.406780591562751,0.585249625391267,0
3.199951171875,-2.53359746932983,2.01180911064148,2.48104572296143,-2.26231619777688,1.99240492233186,2.54333858567119,1275.758,1275.051,3078.202,3072.084,-0.04070322,0.04562019,0.03869837,-0.923660695552826,-0.386918902397156,0.621207177639008,-0.936426808583845,-0.40291829499719,0.579692802708405,0
3.219970703125,-2.55189490318298,2.00414991378784,2.4933807849884,-2.2809710931091,1.98437824202785,2.55488685453773,1249.583,1273.269,3083.156,3083.432,-0.03905259,0.04607834,0.03729733,-0.914874672889709,-0.38296365737915,0.616750121116638,-0.927207006545169,-0.398951271751399,0.573985306046387,0
3.239990234375,-2.57001233100891,1.99657225608826,2.50561451911926,-2.2994392795179,1.97643189735754,2.5663195416865,1256.392,1269.008,3071.006,3079.864,-0.03732686,0.04656007,0.03582916,-0.905868530273438,-0.378903239965439,0.611687302589417,-0.917774783907129,-0.394892849856044,0.568146310914365,0
3.25994873046875,-2.58794522285461,1.98907732963562,2.51774835586548,-2.31766111495966,1.9685915506261,2.57759972585135,1273.413,1268.189,3065.854,3058.301,-0.03559741,0.04705792,0.03428819,-0.896662712097168,-0.374742060899734,0.606686770915985,-0.908163813044036,-0.390757517593098,0.562196662116077,0
3.27996826171875,-2.60569024085999,1.98166728019714,2.5297839641571,-2.33574392582143,1.96081102228753,2.58879384717852,1247.695,1266.725,3070.587,3068.987,-0.03395637,0.04751753,0.03285321,-0.887247443199158,-0.37049525976181,0.601780235767365,-0.898319376918855,-0.386521731750139,0.556102487199064,0
3.29998779296875,-2.62324285507202,1.97434425354004,2.54170966148376,-2.35362764460945,1.95311615770631,2.59986472102797,1253.589,1262.469,3058.901,3065.771,-0.03224342,0.04799721,0.03135723,-0.877624809741974,-0.366157442331314,0.596279978752136,-0.888274735793772,-0.382199803288803,0.549884375850026,0
3.32000732421875,-2.64059901237488,1.9671094417572,2.55352640151978,-2.37130830610839,1.94550866300381,2.61080989274252,1270.645,1261.661,3053.73,3044.048,-0.03052409,0.04849083,0.02979161,-0.867811620235443,-0.361731082201004,0.590834558010101,-0.878034183119985,-0.377793579561194,0.543544985919778,0
3.3399658203125,-2.65775465965271,1.95996522903442,2.5652334690094,-2.38872907693451,1.93801299199733,2.62159417975029,1255.881,1260.998,3051.964,3049.851,-0.02892885,0.04895227,0.0283055,-0.857794940471649,-0.357225656509399,0.585354924201965,-0.867634212728789,-0.373318762843399,0.537106908828335,0
3.3599853515625,-2.67470693588257,1.95291197299957,2.57682943344116,-2.40599272667425,1.93058492580486,2.63228120132087,1239.27,1256.83,3056.083,3053.545,-0.02729634,0.04940071,0.02685354,-0.847599804401398,-0.352659463882446,0.579795479774475,-0.857015715678588,-0.368749920209162,0.530533553325099,0
3.3800048828125,-2.69145107269287,1.94595170021057,2.58830308914185,-2.42304196557559,1.92324911460621,2.64283549236868,1253.271,1253.996,3042.04,3043.5,-0.02555676,0.04987618,0.02531663,-0.837218821048737,-0.348015427589417,0.573678314685822,-0.846214826007803,-0.364102599125748,0.523847288101157,0
3.39996337890625,-2.70798444747925,1.93908596038818,2.59965586662292,-2.43982220956584,1.91602904440295,2.65322326275251,1269.508,1253.917,3035.481,3023.718,-0.02384754,0.05035648,0.02373376,-0.826655983924866,-0.343290477991104,0.567638754844666,-0.835270008391825,-0.3593933498684,0.517071924622901,0
3.41998291015625,-2.72430229187012,1.93231582641602,2.61089015007019,-2.45643259034873,1.90888206159239,2.66350587971929,1243.866,1252.949,3038.96,3035.375,-0.02226296,0.05079326,0.02226523,-0.815908968448639,-0.338500708341599,0.561712205410004,-0.824119146742881,-0.354595445619869,0.510169010073001,0
3.44000244140625,-2.74040246009827,1.92564284801483,2.62199592590332,-2.47281804716281,1.90183185728196,2.67364925803476,1246.589,1248.667,3029.667,3033.135,-0.02063044,0.0512407,0.02074975,-0.804993867874146,-0.33365198969841,0.555283427238464,-0.812800388649434,-0.349725300221754,0.503162159625937,0
3.4599609375,-2.75628089904785,1.91906785964966,2.63297390937805,-2.48892635951887,1.8949009004893,2.68362107072849,1260.326,1247.972,3025.65,3013.221,-0.01898461,0.05169705,0.01917766,-0.793919086456299,-0.328745990991592,0.548899173736572,-0.801354035689029,-0.344800254316973,0.496076321878038,0
3.47998046875,-2.77193450927734,1.91259217262268,2.64382481575012,-2.50485284867397,1.88804817714046,2.69348032619939,1238.946,1247.472,3027.593,3021.396,-0.01741228,0.05211933,0.01770413,-0.78267627954483,-0.323789447546005,0.542546093463898,-0.789715229532172,-0.33979240117828,0.488871346433721,0
3.5,-2.78736019134521,1.90621638298035,2.65453839302063,-2.5205447997813,1.88129636896134,2.70319439144611,1246.025,1243.416,3016.684,3016.58,-0.01578296,0.05255279,0.01618687,-0.771279990673065,-0.318782120943069,0.535682260990143,-0.777924000354857,-0.334718964672089,0.481572013878822,0
3.51995849609375,-2.80255460739136,1.89994215965271,2.66511631011963,-2.53595246190338,1.87466688239045,2.71273246826842,1260.248,1242.841,3012.047,2997.221,-0.01416695,0.05298834,0.0146327,-0.759735822677612,-0.313723146915436,0.528898060321808,-0.766022343765667,-0.329598014335553,0.474204321495588,0
3.53997802734375,-2.81751537322998,1.89376962184906,2.67555975914001,-2.55116718971613,1.86812041006291,2.72215110956251,1236.656,1242.4,3013.918,3007.952,-0.01265694,0.05338333,0.01319232,-0.748040676116943,-0.308621674776077,0.522173583507538,-0.753942941956194,-0.324400585196356,0.466726596353819,0
3.55999755859375,-2.83223986625671,1.887699842453,2.6858594417572,-2.56613872308604,1.86167857751006,2.73141920191151,1240.848,1238.176,3004.776,3004.531,-0.01109366,0.05378643,0.0117129,-0.736216723918915,-0.303483337163925,0.514987349510193,-0.741727567798258,-0.319144650954242,0.459164697851087,0
3.5799560546875,-2.84672522544861,1.88173389434814,2.69601655006409,-2.58081987775597,1.85536168679957,2.74050753601258,1253.703,1237.682,3000.438,2986.073,-0.009526127,0.05419308,0.01019276,-0.724265575408936,-0.298306167125702,0.507858514785767,-0.729419759131231,-0.31384894472519,0.451545577983967,0
3.5999755859375,-2.86096882820129,1.87587213516235,2.70603179931641,-2.59529790318687,1.84913219692586,2.7494701234383,1233.332,1237.579,3001.211,2994.541,-0.008042214,0.05456508,0.008771523,-0.712182283401489,-0.293095141649246,0.500764966011047,-0.716950039288888,-0.308483572640672,0.443826227386424,0
3.6199951171875,-2.87496852874756,1.87011504173279,2.71589660644531,-2.60952509409627,1.84301063413925,2.75827743234631,1238.925,1233.69,2991.885,2990.07,-0.006511429,0.05494503,0.007314257,-0.699987769126892,-0.287855058908463,0.493239760398865,-0.704361775018033,-0.303067194200314,0.436033492140578,0
3.63995361328125,-2.88872218132019,1.86446332931519,2.72561240196228,-2.62345692066038,1.83701615837888,2.76690189665443,1250.996,1233.312,2987.781,2972.457,-0.004991829,0.05532492,0.005828935,-0.687681198120117,-0.282583594322205,0.485792100429535,-0.691699885659414,-0.297619136941538,0.428195179458156,0
3.65997314453125,-2.9022274017334,1.8589174747467,2.73518013954163,-2.63717640706374,1.8311130466576,2.77539491228788,1230.444,1233.266,2988.579,2981.362,-0.003565973,0.05566915,0.004449062,-0.675260782241821,-0.277286678552628,0.478386700153351,-0.678893054168409,-0.29210871513241,0.420267140691237,0
3.67999267578125,-2.91548252105713,1.85347819328308,2.74459171295166,-2.65063849381582,1.82532068681534,2.78372858527554,1235.019,1229.314,2980.181,2977.368,-0.002096973,0.05601883,0.003041179,-0.662751436233521,-0.271971195936203,0.470578998327255,-0.665986083416798,-0.286555206197011,0.41227711095171,0
3.699951171875,-2.92848563194275,1.84814536571503,2.75384855270386,-2.66380138336803,1.81965706316959,2.79187704094374,1246.472,1228.899,2976.122,2960.597,-0.0006338324,0.05636817,0.001609664,-0.650150418281555,-0.266633659601212,0.462839603424072,-0.653025104588123,-0.280978459094862,0.404253647639716,0
3.719970703125,-2.94123482704163,1.84291982650757,2.76295137405396,-2.67674377421065,1.81408831395855,2.7998889974069,1227.808,1228.991,2976.333,2968.458,0.0007407462,0.05668443,0.0002792453,-0.637456297874451,-0.261278092861176,0.45514053106308,-0.639937296597115,-0.275347140947358,0.396151671034529,0
3.739990234375,-2.95372867584229,1.83780157566071,2.771892786026,-2.68942333385363,1.80863265367006,2.80773824883709,1232.114,1225.209,2968.293,2964.717,0.002151384,0.05700402,-0.001072721,-0.624694585800171,-0.255911767482758,0.447074323892593,-0.62676873176137,-0.26968107538565,0.387999702095468,0
3.75994873046875,-2.96596598625183,1.8327910900116,2.78067445755005,-2.70180106441834,1.80330686200183,2.81540065368973,1242.708,1224.821,2964.551,2948.852,0.003551666,0.05732198,-0.002442119,-0.611861169338226,-0.250531077384949,0.439086735248566,-0.613566574519476,-0.264000555950037,0.379826937856771,0
3.77996826171875,-2.97794485092163,1.82788801193237,2.78929710388184,-2.71395125899829,1.79807897271122,2.82292220292874,1224.939,1224.992,2964.334,2956.591,0.004862784,0.05760859,-0.003712979,-0.598955929279327,-0.245139554142952,0.431135177612305,-0.600256853941589,-0.258273755015919,0.371587586789143,0
3.79998779296875,-2.98966503143311,1.82309341430664,2.79775428771973,-2.72583438304408,1.79296599641037,2.83027842278479,1229.216,1221.36,2957.143,2952.413,0.00620656,0.05789787,-0.005001416,-0.586005210876465,-0.239745453000069,0.422860383987427,-0.586886736182787,-0.252520966862155,0.36331084698941,0
3.82000732421875,-3.00112533569336,1.8184061050415,2.8060474395752,-2.73744929742843,1.78796842323393,2.8374686080838,1238.57,1221.01,2953.399,2938.136,0.007536339,0.05818423,-0.006299441,-0.57300329208374,-0.234344705939293,0.414656490087509,-0.573463232144022,-0.246745208083563,0.355001058539243,0
3.8399658203125,-3.01232409477234,1.81382727622986,2.81417608261108,-2.7487608239245,1.78310138939013,2.8444709818276,1228.363,1221.014,2950.495,2941.85,0.00876898,0.05844486,-0.007518104,-0.559951841831207,-0.228940725326538,0.406433254480362,-0.560034590932614,-0.240967238923098,0.346688089934488,0
3.8599853515625,-3.0232617855072,1.80935645103455,2.82213950157166,-2.75983729406747,1.77833549372837,2.85132784449154,1219.805,1218.714,2950.81,2942.411,0.01000162,0.05869236,-0.008697884,-0.546872854232788,-0.223543092608452,0.398175597190857,-0.546525890176286,-0.235154822377061,0.338325560657667,0
3.8800048828125,-3.03393697738647,1.80499339103699,2.82993268966675,-2.77064299647982,1.77368610185671,2.85801708903178,1227.229,1216.534,2942.759,2935.491,0.01127258,0.05894442,-0.009897904,-0.533775985240936,-0.218150570988655,0.389659076929092,-0.532985466132484,-0.229328756186666,0.329943393154704,0
3.89996337890625,-3.04434990882874,1.80073881149292,2.83755707740784,-2.78114566623477,1.76916709647178,2.86451874192163,1235.35,1216.424,2938.671,2923.39,0.01250762,0.05918989,-0.01108993,-0.520652174949646,-0.212757810950279,0.381223052740097,-0.519462149665189,-0.223510050908514,0.32157181605655,0
3.91998291015625,-3.05450010299683,1.79659080505371,2.84501385688782,-2.79140913007042,1.76475101471128,2.87087231495249,1221.019,1216.384,2937.953,2929.757,0.01364489,0.0594075,-0.01219089,-0.507506906986237,-0.207369297742844,0.372841387987137,-0.505880764601328,-0.217666360335509,0.313164291730931,0
