t,x_s1,x_s2,x_s3,x_s_d1,x_s_d2,x_s_d3,propellers_rpms1,propellers_rpms2,propellers_rpms3,propellers_rpms4,rollRad,pitchRad,yawRad,v_s1,v_s2,v_s3,v_s_d1,v_s_d2,v_s_d3,insideCount
0,-0.0599999986588955,2.94000005722046,1.17999994754791,-0.0599999986588955,2.94000005722046,1.17999994754791,0,0,0,0,0,0,0,0,0,0,-1.06581410364015E-15,4.44089209850063E-16,4.44089209850063E-16,0
0.02001953125,-0.0599999986588955,2.94000005722046,1.17811644077301,-0.0600018744611685,2.93999925011514,1.18000110875888,0,0,0,0,-0.01635288,0.0001297794,-0.01587137,-1.10653664009419E-09,-7.76775763711157E-08,-0.0941759571433067,-0.000280531511337879,-0.000120704872184653,0.000173662369087018,5
0.0400390625,-0.0599999986588955,2.94000005722046,1.17242503166199,-0.0600149148426039,2.93999363920332,1.18000918137618,0,0,0,0,-0.03270202,0.0005238493,-0.03175127,-1.08383135799528E-09,-7.60859677484405E-08,-0.284568399190903,-0.00111312228156621,-0.000478945420720547,0.000689075717656889,5
0.05999755859375,-0.0599058866500854,2.93990302085876,1.16596508026123,-0.0600498857373401,2.93997859220429,1.18003083002592,1868.301,3252.834,3183.797,1722.355,-0.04942241,0.0003296772,-0.01369504,0.00470565492287278,-0.00484918523579836,-0.322997570037842,-0.00247936261166862,-0.00106680046642749,0.00153484356504269,5
0.08001708984375,-0.059820368885994,2.93960738182068,1.1600034236908,-0.0601176241590912,2.9399494462538,1.18007276333581,1924.583,2314.076,3252.92,2829.839,-0.07542871,-0.002137986,0.0209508,0.00427583884447813,-0.0147792873904109,-0.29808521270752,-0.00437432711648753,-0.0018821507536715,0.00270791686320324,5
0.10003662109375,-0.0599374249577522,2.93904519081116,1.15498661994934,-0.0602284473618957,2.93990176212568,1.18014136817759,980.9556,1499.185,3913.938,3896.469,-0.1031884,-0.008062454,0.06330721,-0.00585273467004299,-0.0281149372458458,-0.250841677188873,-0.00678144526308166,-0.00291786644505504,0.00419803766288393,4
0.1199951171875,-0.0604638159275055,2.93818378448486,1.15081310272217,-0.0603918861403606,2.93983143898525,1.18024254456713,346.9911,980.4659,4172.419,4613.277,-0.1214306,-0.01541917,0.1039964,-0.0263195671141148,-0.043065033853054,-0.208677634596825,-0.00967801353495435,-0.00416417885169243,0.00599115140585487,4
0.1400146484375,-0.0615636371076107,2.93704152107239,1.14728331565857,-0.0606187761383957,2.93973381455767,1.18038300028418,351.9845,746.5021,3976.997,4854.877,-0.1253976,-0.0211668,0.1351026,-0.0549911186099052,-0.0571137107908726,-0.176491469144821,-0.0130687916036232,-0.00562313592726786,0.00809020455552005,4
0.1600341796875,-0.0633408054709435,2.93568134307861,1.14427530765533,-0.0609183061960198,2.93960493514178,1.18056842365845,821.3716,815.5779,3461.714,4692.259,-0.1184547,-0.02352317,0.1522665,-0.0888586342334747,-0.0680132806301117,-0.150400310754776,-0.0169327949449082,-0.00728570861726639,0.0104822066917805,3
0.17999267578125,-0.065846748650074,2.93417286872864,1.14182555675507,-0.0612985250199726,2.93944133760391,1.18080379722281,1349.391,1083.808,3005.806,4255.126,-0.1079864,-0.02277748,0.1557732,-0.125297248363495,-0.075427271425724,-0.122488208115101,-0.0212433804254414,-0.00914043312572283,0.0131506644458931,3
0.20001220703125,-0.0690848454833031,2.9325544834137,1.14006245136261,-0.0617708265342762,2.93923811945689,1.181096174359,1635.246,1380.027,2920.768,3666.4,-0.09982966,-0.02030181,0.1501573,-0.161904886364937,-0.0809159502387047,-0.0881582498550415,-0.0260142813927851,-0.0111932185284278,0.0161040794142088,3
0.22003173828125,-0.073010079562664,2.93082666397095,1.13903641700745,-0.0623430170958408,2.9389919218434,1.18145038757383,1641.676,1581.165,3147.134,3113.304,-0.09583705,-0.01735529,0.1421915,-0.196261659264565,-0.0863866582512856,-0.0513045713305473,-0.0312204565115429,-0.0134332902383343,0.0193269498172333,3
0.239990234375,-0.0775497034192085,2.92897415161133,1.13863360881805,-0.0630214373585105,2.93870001655724,1.18187036203406,1525.226,1624.798,3416.44,2777.197,-0.09476273,-0.01467615,0.1377323,-0.226981431245804,-0.0926225557923317,-0.0201385356485844,-0.0368316683029241,-0.015847637913056,0.022800557215184,3
0.260009765625,-0.0826386511325836,2.92699289321899,1.13863670825958,-0.0638185570309634,2.93835703823113,1.18236381708338,1437.343,1499.628,3535.803,2744.549,-0.09439202,-0.01259089,0.1393071,-0.254447370767593,-0.0990592688322067,0.00015236996114254,-0.0428699302682246,-0.0184457333472145,0.0265385290140116,3
0.280029296875,-0.0882444530725479,2.92490124702454,1.13885307312012,-0.0647405670799769,2.93796032306502,1.18293458522515,1400.849,1276.467,3475.396,2977.925,-0.09320638,-0.01110645,0.1456877,-0.280290096998215,-0.10458517074585,0.0108185736462474,-0.0493064925116944,-0.0212152062638476,0.0305230676586995,3
0.29998779296875,-0.0943701416254044,2.92273306846619,1.13920748233795,-0.0657918945890516,2.93750796620855,1.18358540703494,1352.178,1062.433,3343.37,3324.277,-0.09053789,-0.009933058,0.1533058,-0.306284248828888,-0.108404144644737,0.0177222937345505,-0.0561078595514081,-0.0241416444928383,0.0347334378503248,3
0.32000732421875,-0.101035557687283,2.92052626609802,1.13972651958466,-0.0669865614821475,2.93699393441958,1.18432496275165,1279.024,939.7437,3240.731,3590.679,-0.08598015,-0.008525844,0.1583616,-0.333271414041519,-0.110343649983406,0.0259490348398685,-0.0633036493784043,-0.0272377918282996,0.0391879745362408,3
0.34002685546875,-0.108251079916954,2.91831254959106,1.14046287536621,-0.068328931055223,2.93641635029375,1.18515595346331,1253.219,944.6411,3169.811,3650.266,-0.07943943,-0.006292517,0.1584792,-0.360775709152222,-0.11068182438612,0.0368167832493782,-0.0708617428582823,-0.0304898283040037,0.0438667944422071,4
0.3599853515625,-0.11600250005722,2.91611552238464,1.14145338535309,-0.0698213312158394,2.93577421219747,1.18607982025561,1321.875,1048.401,3118.395,3497.189,-0.07155275,-0.002959837,0.1534666,-0.387572020292282,-0.109856374561787,0.0495272651314735,-0.0787457139191101,-0.0338820807988248,0.0487473480944833,4
0.3800048828125,-0.12425097823143,2.91395044326782,1.1427093744278,-0.0714797725314022,2.93506063123087,1.18710647443246,1453.042,1180.058,3094.406,3231.689,-0.06361866,0.001256263,0.1450415,-0.412423700094223,-0.108257777988911,0.0627966225147247,-0.0869921272359981,-0.0374302820709642,0.0538522707687797,4
0.4000244140625,-0.132942706346512,2.91182708740234,1.14421856403351,-0.0733065984369745,2.93427459907931,1.1882373666918,1579.36,1273.932,3103.556,2982.627,-0.05701295,0.00582476,0.1357521,-0.434586465358734,-0.106168016791344,0.0754611492156982,-0.0955658248284375,-0.0411193046236092,0.0591597980003546,4
0.41998291015625,-0.142022982239723,2.90975117683411,1.14595854282379,-0.075301871434707,2.93341608884986,1.18947253572543,1634.153,1289.827,3156.523,2843.299,-0.05244297,0.01017896,0.1278491,-0.454014003276825,-0.103801004588604,0.0869975015521049,-0.104427768518458,-0.0449323514193797,0.064645763297398,4
0.44000244140625,-0.151445508003235,2.90772533416748,1.14789748191833,-0.077483988232608,2.93247718495301,1.19082336997196,1603.973,1236.605,3223.254,2843.614,-0.04966263,0.013972,0.1224665,-0.471126437187195,-0.101291567087173,0.0969488546252251,-0.113620829717891,-0.048887868829098,0.0703367061060819,4
0.46002197265625,-0.161176145076752,2.90575242042542,1.14999830722809,-0.0798530997696509,2.93145782244394,1.19228996286983,1541.156,1158.413,3251.357,2939.492,-0.04787991,0.01718403,0.1193461,-0.486532092094421,-0.0986421555280685,0.105042167007923,-0.123107133063502,-0.0529695601420796,0.0762091797723108,4
0.47998046875,-0.171192899346352,2.90383696556091,1.15223968029022,-0.082406855753501,2.93035901258777,1.1938708594761,1478.102,1087.488,3245.585,3064.749,-0.04628893,0.01999155,0.1173664,-0.500837564468384,-0.0957769528031349,0.112070798873901,-0.132845337826091,-0.057159637597476,0.0822375924153778,5
0.5,-0.181480452418327,2.90198421478271,1.15461766719818,-0.085166398670376,2.92917165836334,1.1955791479969,1428.179,1044.841,3220.707,3170.503,-0.0443395,0.02264027,0.1152281,-0.51437783241272,-0.0926401540637016,0.118899710476398,-0.142884000065179,-0.0614789935111996,0.0884520025491718,5
0.52001953125,-0.1920235902071,2.90019965171814,1.15713608264923,-0.0881295333471192,2.92789670429234,1.19741346951549,1422.974,1045.149,3175.861,3212.097,-0.04191229,0.02537678,0.1118924,-0.527156054973602,-0.0892308205366135,0.125918388366699,-0.153182839569029,-0.0659102964334391,0.0948274748038155,5
0.5400390625,-0.202803760766983,2.89848685264587,1.15981042385101,-0.0913013599695072,2.9265319559073,1.1993769812898,1450.377,1074.804,3145.831,3181.6,-0.03929175,0.02829458,0.1070353,-0.53900933265686,-0.0856377780437469,0.133718475699425,-0.163731040940689,-0.0704488928010329,0.101357313933386,5
0.55999755859375,-0.213797032833099,2.89684629440308,1.16265368461609,-0.094676112580471,2.92507989413848,1.20146611391775,1484.375,1114.018,3139.125,3113.773,-0.03692473,0.03132796,0.1010493,-0.549662828445435,-0.0820297747850418,0.142165616154671,-0.17448465888317,-0.0750758741803766,0.108014315705644,5
0.58001708984375,-0.224975496530533,2.89527463912964,1.16567087173462,-0.0982790918331175,2.92352963282165,1.20369652970884,1514.011,1147.024,3151.853,3037.544,-0.03516491,0.03433388,0.09467772,-0.558923661708832,-0.0785851627588272,0.150862112641335,-0.185498893714783,-0.0798149917263209,0.114832651747179,5
0.60003662109375,-0.236310184001923,2.89376592636108,1.16885328292847,-0.102104766440831,2.92188355191493,1.20606480453317,1540.896,1167.092,3160.77,2980.679,-0.0342882,0.03715565,0.08863775,-0.566735148429871,-0.075435034930706,0.159121498465538,-0.196730728861449,-0.0846477366087834,0.121785692749472,5
0.6199951171875,-0.247775554656982,2.89231252670288,1.17219483852386,-0.106144683970236,2.92014528826426,1.20856570593183,1542.836,1168.713,3177.998,2959.126,-0.03441017,0.0396383,0.08345053,-0.573268711566925,-0.0726752132177353,0.167079627513885,-0.208134604141382,-0.0895545055543457,0.128845234789665,5
0.6400146484375,-0.259351044893265,2.89090466499329,1.17568874359131,-0.110427588881679,2.91830247393137,1.21121702809507,1501.613,1155.195,3199.268,2989.192,-0.03535826,0.04169159,0.07931551,-0.57877516746521,-0.0703883171081543,0.174696579575539,-0.21977002223474,-0.0945609009039674,0.136048112861281,5
0.6600341796875,-0.271020978689194,2.88953256607056,1.17932152748108,-0.114945316258235,2.91635862205193,1.21401371655035,1464.722,1144.078,3196.015,3034.813,-0.03678518,0.04337826,0.07592434,-0.583496987819672,-0.0686054900288582,0.181637063622475,-0.231592256338351,-0.0996476779637659,0.143366638942526,5
0.67999267578125,-0.282774180173874,2.88818597793579,1.18309009075165,-0.119686638739014,2.91431856344567,1.21694882102647,1435.571,1140.923,3188.03,3070.418,-0.03844593,0.04478056,0.07286838,-0.587660789489746,-0.0673316419124603,0.188426464796066,-0.243554411173546,-0.104794659005432,0.150771782621969,5
0.70001220703125,-0.294601559638977,2.88685417175293,1.18699479103088,-0.124683985757554,2.91216834463331,1.22004241688759,1398.249,1145.434,3182.452,3104.015,-0.04018018,0.04596085,0.06986709,-0.591368973255157,-0.0665848851203918,0.195237249135971,-0.255719729227087,-0.11002905550423,0.158302694011575,5
0.72003173828125,-0.306494057178497,2.88552665710449,1.19103002548218,-0.129926464684368,2.909912652409,1.2232877610772,1393.115,1162.75,3161.114,3109.208,-0.04192082,0.04701848,0.06663551,-0.594624102115631,-0.0663715302944183,0.201763615012169,-0.268042056234039,-0.115331008569357,0.165930801422716,5
0.739990234375,-0.318442672491074,2.88419222831726,1.19519972801208,-0.135400001298574,2.90755754251682,1.2266761409821,1400.97,1186.317,3150.424,3087.694,-0.04381752,0.04796181,0.06319277,-0.597431778907776,-0.066715769469738,0.208486884832382,-0.280473432677602,-0.12067988256057,0.173626415629864,5
0.760009765625,-0.330438137054443,2.8828387260437,1.19950699806213,-0.141140917956636,2.9050873864615,1.23023004187122,1385.328,1206.791,3154.973,3077.543,-0.04601676,0.04872833,0.05982479,-0.5997713804245,-0.0676706433296204,0.21536573767662,-0.293080296154222,-0.126104263719567,0.181430664670081,5
0.780029296875,-0.342471122741699,2.88145351409912,1.20394372940063,-0.147135516931739,2.90250807799222,1.23394098419916,1385.562,1226.005,3148.8,3062.956,-0.04854037,0.04931343,0.05666651,-0.601648986339569,-0.0692644268274307,0.221836045384407,-0.305815338775367,-0.131583796783543,0.189314262706778,5
0.79998779296875,-0.354534327983856,2.88002300262451,1.20850920677185,-0.153366821193532,2.89982692185086,1.2377984583754,1382.752,1241.582,3151.224,3047.944,-0.05146399,0.049668,0.05391495,-0.603160679340363,-0.0715247392654419,0.228273883461952,-0.318629798715703,-0.137097500901303,0.197247023847227,5
0.82000732421875,-0.366622447967529,2.87853336334229,1.21320152282715,-0.159875221826383,2.89702653888221,1.24182746840525,1344.784,1250.328,3161.58,3065.427,-0.05476258,0.04973193,0.05177789,-0.604407906532288,-0.0744779109954834,0.234613612294197,-0.331592781842754,-0.14267511039705,0.205271727915392,4
0.84002685546875,-0.378732442855835,2.87697124481201,1.21800851821899,-0.166644154783139,2.89411405613301,1.24601776035448,1325.443,1259.036,3153.262,3081.763,-0.0582444,0.04955605,0.05011642,-0.605498611927032,-0.0781050324440002,0.24035219848156,-0.344656091553402,-0.148295887618918,0.213358538918022,4
0.8599853515625,-0.39086377620697,2.87532329559326,1.22292923927307,-0.173653699721778,2.89109804476993,1.25035700258242,1310.452,1270.104,3148.696,3089.601,-0.06185351,0.04916184,0.04883437,-0.606567025184631,-0.0823936387896538,0.24603359401226,-0.357770416714212,-0.153938615363784,0.221476930914505,4
0.8800048828125,-0.403017461299896,2.87357664108276,1.22796320915222,-0.180948461186242,2.88795931270381,1.25487280742661,1268.688,1280.645,3150.867,3117.37,-0.06552655,0.04854833,0.04793368,-0.607685506343842,-0.0873328149318695,0.251697927713394,-0.371007022483504,-0.159633957038354,0.229671020432672,4
0.9000244140625,-0.415195286273956,2.87171912193298,1.2331006526947,-0.188508963212068,2.88470623989808,1.25955311833725,1257.967,1294.551,3136.198,3127.567,-0.06910583,0.04780354,0.04719081,-0.608890950679779,-0.0928727760910988,0.256871372461319,-0.384317079523421,-0.165360902742685,0.237910579786325,4
0.91998291015625,-0.427400052547455,2.86973929405212,1.23834323883057,-0.196312316554895,2.88134867495511,1.26438376578173,1257.167,1311.797,3129.464,3119.794,-0.07264411,0.04694547,0.04657741,-0.610236346721649,-0.0989935845136642,0.262128978967667,-0.397650971463704,-0.171098103938772,0.246164894078718,4
0.94000244140625,-0.439634621143341,2.86762571334839,1.24369263648987,-0.204407453948074,2.87786556348678,1.26939504145298,1227.195,1326.4,3133.702,3132.778,-0.07619464,0.0459432,0.04624703,-0.611729085445404,-0.105680420994759,0.267472088336945,-0.411081631631503,-0.176876941799768,0.254479112513653,4
0.96002197265625,-0.451902121305466,2.86536812782288,1.24913966655731,-0.21277195700315,2.87426655149935,1.27457306730061,1225.73,1340.275,3123.52,3132.363,-0.07966314,0.04485094,0.04611257,-0.613377392292023,-0.112876683473587,0.272352635860443,-0.424559845004915,-0.182676240476657,0.262822768648136,3
0.97998046875,-0.464206993579865,2.86295676231384,1.25468611717224,-0.221379956358585,2.87056276985637,1.27990182895749,1228.031,1354.215,3121.927,3122.428,-0.08312684,0.04365746,0.04623799,-0.615242063999176,-0.120565123856068,0.277322143316269,-0.438035925118965,-0.188474621271639,0.271165104193453,3
1,-0.476554065942764,2.8603823184967,1.26033353805542,-0.230284798736574,2.86673126495361,1.28541435058594,1194.999,1363.49,3130.521,3141.598,-0.08660919,0.04232021,0.04679057,-0.617353975772858,-0.128725290298462,0.2823686003685,-0.451584000205995,-0.194303979492187,0.279552008056641,3
1.02001953125,-0.488948911428452,2.85763669013977,1.26607191562653,-0.239461107372567,2.86278295570393,1.29109492275982,1190.615,1371.542,3122.031,3149.917,-0.08995199,0.04090545,0.04761567,-0.619744002819061,-0.137283086776733,0.286920964717865,-0.465154707681581,-0.200143075797255,0.287952922446475,3
1.0400390625,-0.501398682594299,2.85471248626709,1.27190339565277,-0.248909254116304,2.85871768211076,1.29694377567184,1191.73,1380.982,3120.11,3147.707,-0.0931872,0.03942131,0.04868697,-0.622487604618073,-0.146212846040726,0.291576981544495,-0.478739949598525,-0.205988425866395,0.296362834347881,3
1.05999755859375,-0.513910710811615,2.85160303115845,1.2778285741806,-0.258599401509697,2.85454828239877,1.30294243851408,1169.255,1388.541,3121.947,3167.137,-0.0963569,0.03785232,0.05006939,-0.625600457191467,-0.155473545193672,0.296259462833405,-0.492290296490434,-0.211818761581115,0.30475114456651,3
1.08001708984375,-0.526493072509766,2.84830236434937,1.28384816646576,-0.268590868588476,2.85024923324404,1.30912763259543,1147.333,1393.325,3129.287,3182.737,-0.09927998,0.03623839,0.05167611,-0.62911981344223,-0.165031388401985,0.300981253385544,-0.505880764601332,-0.21766636033551,0.313164291730931,3
1.10003662109375,-0.539153575897217,2.84480667114258,1.28995382785797,-0.278854332424133,2.84583315148354,1.31548120562628,1157.541,1401.016,3116.91,3184.092,-0.1019011,0.03464567,0.05335823,-0.633025884628296,-0.174784556031227,0.305281758308411,-0.519462149665191,-0.223510050908515,0.32157181605655,3
1.1199951171875,-0.551900744438171,2.84111261367798,1.29615020751953,-0.289357002179081,2.84131414609862,1.32198285851614,1169.239,1409.507,3114.023,3177.284,-0.1043597,0.03306664,0.05513518,-0.637357592582703,-0.184707820415497,0.309817761182785,-0.532985466132485,-0.229328756186667,0.329943393154705,3
1.1400146484375,-0.564742982387543,2.83721685409546,1.3024435043335,-0.300162704591434,2.83666475422696,1.32867210305637,1143.711,1413.566,3125.7,3196.905,-0.1067065,0.03146169,0.05714428,-0.642107665538788,-0.194783881306648,0.314663767814636,-0.54652589017629,-0.235154822377061,0.338325560657667,3
1.1600341796875,-0.577687859535217,2.8331184387207,1.30882692337036,-0.311239174734401,2.83189885856519,1.33552896572031,1149.705,1417.153,3120.594,3201.461,-0.108796,0.02990314,0.05922375,-0.647246658802032,-0.204926729202271,0.319169521331787,-0.560034590932616,-0.240967238923098,0.346688089934489,3
1.17999267578125,-0.590744197368622,2.82881617546082,1.31530475616455,-0.322550701230474,2.8270318247214,1.34253133946411,1163.866,1421.862,3121.94,3193.218,-0.1106943,0.02839284,0.06137193,-0.652814507484436,-0.215116307139397,0.323894321918488,-0.573463232144024,-0.246745208083563,0.355001058539242,3
1.20001220703125,-0.603920161724091,2.82430958747864,1.32188272476196,-0.334165615614823,2.82203425154496,1.34972152476313,1143.772,1422.366,3134.895,3211.236,-0.1124424,0.02688788,0.06372691,-0.658799886703491,-0.225329533219337,0.32889860868454,-0.586886736182789,-0.252520966862155,0.363310846989412,3
1.22003173828125,-0.6172234416008,2.81960010528564,1.3285539150238,-0.346048739660615,2.8169212752441,1.35707774461917,1155.078,1423.117,3128.509,3216.377,-0.1139284,0.02545731,0.06611846,-0.665168106555939,-0.235472336411476,0.333556711673737,-0.600256853941591,-0.258273755015919,0.371587586789143,3
1.239990234375,-0.630662739276886,2.81468939781189,1.33532404899597,-0.358161486344149,2.81170949873715,1.36457611182642,1171.258,1425.096,3129.784,3210.711,-0.1152424,0.02409928,0.06852768,-0.67196649312973,-0.245533257722855,0.338505655527115,-0.613526094901141,-0.263983138701136,0.379801879044709,2
1.260009765625,-0.644246280193329,2.80957937240601,1.34220063686371,-0.37057666480527,2.80636759428526,1.37226169871082,1150.596,1422.875,3145.077,3231.03,-0.1164148,0.02277139,0.07107291,-0.679177939891815,-0.255504101514816,0.34383025765419,-0.626768731761373,-0.26968107538565,0.387999702095469,2
1.280029296875,-0.657981097698212,2.8042733669281,1.34917747974396,-0.383256224448249,2.80091193399677,1.38011095014101,1163.302,1422.152,3140,3235.85,-0.1173133,0.02155121,0.07356579,-0.686744809150696,-0.265295594930649,0.348843902349472,-0.639937296597118,-0.275347140947359,0.39615167103453,2
1.29998779296875,-0.671875178813934,2.79877543449402,1.35626065731049,-0.396158759015336,2.79536033382764,1.388098233671,1184.113,1423.059,3141.705,3227.068,-0.1180308,0.02043751,0.07598732,-0.694701492786407,-0.274900197982788,0.354158401489258,-0.652985332144132,-0.280961346123326,0.404229026602261,2
1.32000732421875,-0.68593567609787,2.79308915138245,1.36345815658569,-0.409361504843077,2.78967956113998,1.39627136227237,1168.567,1419.46,3157.932,3243.641,-0.1186183,0.01937861,0.07847892,-0.703018605709076,-0.28431698679924,0.359874725341797,-0.6659860834168,-0.286555206197011,0.41227711095171,2
1.34002685546875,-0.700168073177338,2.78721976280212,1.37076413631439,-0.422823591595166,2.78388720129772,1.40460503526004,1184.63,1417.741,3153.24,3246.512,-0.1189762,0.01844257,0.08087862,-0.711624026298523,-0.293463706970215,0.36530002951622,-0.67889305416841,-0.29210871513241,0.420267140691238,2
1.3599853515625,-0.714579164981842,2.78117299079895,1.37818515300751,-0.436500861174643,2.77800225429635,1.41307191666844,1206.668,1417.064,3156.128,3237.399,-0.1192058,0.01761891,0.08318157,-0.720554828643799,-0.30234357714653,0.371051043272018,-0.69166099897751,-0.297602405088682,0.428171106749628,2
1.3800048828125,-0.729174792766571,2.77495360374451,1.3857296705246,-0.450474904562636,2.77198961381608,1.4217225152016,1191.037,1411.312,3174.605,3254.009,-0.1193437,0.01685158,0.08553344,-0.729782462120056,-0.310969173908234,0.377227306365967,-0.704361775018035,-0.303067194200314,0.436033492140578,2
1.4000244140625,-0.743959248065948,2.76856827735901,1.3933914899826,-0.464702095472036,2.76586805102946,1.43052982410961,1207.264,1408.367,3170.334,3257.199,-0.1192803,0.01620945,0.08776806,-0.7392258644104,-0.319264650344849,0.383093565702438,-0.716950039288891,-0.308483572640673,0.443826227386424,2
1.41998291015625,-0.758937776088715,2.76202344894409,1.40117681026459,-0.479135601808478,2.75965771647838,1.43946485209513,1230.361,1406.644,3172.914,3247.931,-0.1191152,0.01568288,0.08987134,-0.74892520904541,-0.32723793387413,0.389266163110733,-0.729381927869995,-0.313832666990362,0.451522158631107,2
1.44000244140625,-0.774114787578583,2.75532531738281,1.40909421443939,-0.493861275572861,2.75332167044526,1.4485807456364,1215.606,1399.747,3191.918,3263.726,-0.1188824,0.01521274,0.09198752,-0.758852481842041,-0.334911793470383,0.395871758460999,-0.741727567798258,-0.319144650954242,0.459164697851088,2
1.46002197265625,-0.789493143558502,2.74848103523254,1.41713726520538,-0.50883280894277,2.74687983789241,1.45784883798541,1232.02,1396.569,3187.08,3266.774,-0.1184803,0.01486694,0.09395259,-0.768916010856628,-0.342218339443207,0.402152210474014,-0.753942941956197,-0.324400585196357,0.466726596353819,2
1.47998046875,-0.80507630109787,2.74149751663208,1.42531192302704,-0.524000783579472,2.74035348215039,1.46723853683636,1255.658,1394.58,3189.552,3256.459,-0.1180095,0.01463528,0.09575157,-0.779157221317291,-0.349173009395599,0.408733367919922,-0.76598572865452,-0.329582259876133,0.474181654997567,2
1.5,-0.820867240428925,2.73438143730164,1.43362677097321,-0.539455198877605,2.73370387899399,1.4768055561018,1241.011,1387.112,3209.385,3270.818,-0.1174997,0.01445391,0.09753866,-0.789546012878418,-0.355809181928635,0.415744245052338,-0.777924000354858,-0.334718964672088,0.481572013878822,1
1.52001953125,-0.836866796016693,2.72714018821716,1.44207465648651,-0.555147149984933,2.72695207081487,1.48651962134853,1257.529,1384.024,3204.039,3272.925,-0.1168536,0.01438983,0.09915817,-0.799981653690338,-0.362066030502319,0.422392845153809,-0.789715229532175,-0.33979240117828,0.488871346433721,1
1.5400390625,-0.853076994419098,2.71978092193604,1.45066094398499,-0.571073639140036,2.72009934746603,1.49637887681943,1281.596,1381.989,3205.994,3261.426,-0.1161735,0.01442936,0.1005994,-0.810509920120239,-0.36796373128891,0.429313391447067,-0.801354035689029,-0.344800254316973,0.496076321878038,1
1.55999755859375,-0.869498789310455,2.71231031417847,1.45939111709595,-0.587181951496087,2.71316839067337,1.50635068951315,1277.704,1376.904,3217.261,3270.393,-0.1155514,0.01451571,0.1019914,-0.821090161800385,-0.37352854013443,0.436508983373642,-0.812800388649436,-0.349725300221754,0.503162159625937,1
1.58001708984375,-0.886132836341858,2.70473456382751,1.46826887130737,-0.603567408310176,2.70611818636293,1.51649406782863,1266.268,1367.889,3236.308,3280.311,-0.1148083,0.01465819,0.1033232,-0.831700921058655,-0.378787755966187,0.443890243768692,-0.824119146742882,-0.35459544561987,0.510169010073001,0
1.60003662109375,-0.902977645397186,2.69706130027771,1.47728431224823,-0.620177789093064,2.69897120355237,1.5267766847954,1292.028,1366.718,3223.89,3276.193,-0.1139188,0.01491857,0.1044452,-0.842242836952209,-0.383666634559631,0.450769275426865,-0.835270008391827,-0.359393349868401,0.517071924622902,0
1.6199951171875,-0.920033276081085,2.68929743766785,1.48644316196442,-0.636958033083316,2.69175113334911,1.53716445517924,1317.446,1365.755,3222.318,3264.341,-0.1130778,0.0152593,0.1053821,-0.852778553962708,-0.388191133737564,0.457942694425583,-0.846214826007804,-0.364102599125749,0.523847288101157,0
1.6400146484375,-0.937299132347107,2.6814489364624,1.49575519561768,-0.654007271984653,2.68441532215046,1.54771874622704,1295.932,1357.519,3244.597,3280.389,-0.1123124,0.01560401,0.1063091,-0.863292157649994,-0.392429918050766,0.465600669384003,-0.857015715678588,-0.368749920209162,0.530533553325099,0
1.6600341796875,-0.954772472381592,2.67352199554443,1.50521159172058,-0.671270921724395,2.67698725595799,1.55840576779763,1305.619,1354.769,3240.263,3283.432,-0.1114693,0.01602959,0.1070631,-0.873668730258942,-0.39634707570076,0.472817212343216,-0.86763421272879,-0.373318762843399,0.537106908828335,0
1.67999267578125,-0.972451567649841,2.665522813797,1.5148149728775,-0.688691692550512,2.66949158495151,1.56919005480539,1329.041,1353.637,3240.837,3268.34,-0.1106128,0.01653278,0.1076215,-0.883955597877502,-0.399963915348053,0.480169504880905,-0.878034183119987,-0.377793579561193,0.543544985919778,0
1.70001220703125,-0.990334212779999,2.65745639801025,1.52457129955292,-0.706372354049449,2.66188409024902,1.58013522651994,1314.485,1346.619,3258.585,3278.361,-0.1097835,0.01703944,0.108165,-0.894132256507874,-0.403324753046036,0.487816125154495,-0.888274735793774,-0.382199803288802,0.549884375850026,0
1.72003173828125,-1.008416056633,2.64932870864868,1.53447043895721,-0.72425607283747,2.65418922566779,1.59120610036939,1328.939,1345.21,3248.704,3279.496,-0.1089174,0.01760895,0.1085544,-0.904099225997925,-0.4063860476017,0.494956403970718,-0.898319376918855,-0.386521731750138,0.556102487199065,0
1.739990234375,-1.02669477462769,2.64114499092102,1.54451644420624,-0.74228345468553,2.64643254688532,1.60236590849663,1348.712,1344.266,3248.672,3267.159,-0.108119,0.0182237,0.1087803,-0.913928031921387,-0.40918231010437,0.502297580242157,-0.908134108040217,-0.390744736359816,0.562178273303667,0
1.760009765625,-1.04516673088074,2.63290953636169,1.55471587181091,-0.760560719141003,2.63856835059778,1.61368040586141,1325.838,1336.787,3269.28,3280.962,-0.1073834,0.01881415,0.1090142,-0.923604726791382,-0.411776930093765,0.509973287582397,-0.91777478390713,-0.394892849856044,0.568146310914365,0
1.780029296875,-1.06382751464844,2.62462687492371,1.56505703926086,-0.7790289055498,2.63062200592748,1.62511309301018,1336.648,1335.777,3259.777,3282.312,-0.1065861,0.01945719,0.1090906,-0.933020055294037,-0.414129257202148,0.517060875892639,-0.927207006545171,-0.398951271751399,0.573985306046387,0
1.79998779296875,-1.08267211914063,2.61630153656006,1.5755420923233,-0.797626646773287,2.62261991743975,1.63662598076079,1358.791,1336.111,3257.333,3266.495,-0.1058228,0.02014301,0.1089907,-0.942242681980133,-0.416262567043304,0.524251759052277,-0.936399026186941,-0.402906341007953,0.579675604081262,0
1.82000732421875,-1.10169744491577,2.60793685913086,1.58617663383484,-0.816463410111527,2.61451498441355,1.64828683458664,1338.054,1330.043,3275.058,3277.959,-0.1051304,0.02079403,0.1089041,-0.951262474060059,-0.418233543634415,0.53172779083252,-0.94540321420156,-0.406780591562751,0.585249625391268,0
1.84002685546875,-1.12089693546295,2.59953665733337,1.59694886207581,-0.835478236913388,2.60633343565348,1.6600579181788,1347.647,1329.895,3264.197,3279.497,-0.1044114,0.02147864,0.1086808,-0.959978759288788,-0.420006215572357,0.538609683513641,-0.954187384555097,-0.410560174664568,0.59068744528817,0
1.8599853515625,-1.14026641845703,2.59110450744629,1.60786092281342,-0.854607925216182,2.59810246519841,1.67190010651166,1366.562,1330.628,3262.273,3264.249,-0.103752,0.02218658,0.1083045,-0.968467235565186,-0.421610504388809,0.545601367950439,-0.962722140342816,-0.41423244164655,0.595970865687568,0
1.8800048828125,-1.15980064868927,2.58264231681824,1.61891782283783,-0.873964974649439,2.58977366760063,1.68388304221498,1342.251,1324.927,3280.511,3276.394,-0.1031639,0.02284423,0.1079645,-0.976718902587891,-0.423105001449585,0.552845478057861,-0.971056158224177,-0.417818336715394,0.601130019760457,0
1.9000244140625,-1.17949330806732,2.57415342330933,1.63010632991791,-0.893486564535158,2.58137407284289,1.69596783629653,1351.352,1325.418,3268.371,3277.083,-0.1025344,0.02352661,0.1075007,-0.984634160995483,-0.424449682235718,0.559422671794891,-0.979159571260204,-0.421305008961645,0.606146418448853,0
1.91998291015625,-1.19933915138245,2.56563997268677,1.64142763614655,-0.91310780215452,2.5729316024492,1.70811431707208,1370.818,1326.979,3264.599,3260.655,-0.1019591,0.02422264,0.1068976,-0.99229371547699,-0.42566791176796,0.56606525182724,-0.98700543065471,-0.424680863071164,0.611003379164165,0
1.94000244140625,-1.21933305263519,2.55710363388062,1.65288662910461,-0.932943991899774,2.5643966441608,1.72039386345315,1345.174,1322.063,3281.72,3272.976,-0.1014648,0.02485562,0.1063507,-0.999695479869843,-0.426816880702972,0.572948396205902,-0.994638524886308,-0.427965170275055,0.615728628108227,0
1.96002197265625,-1.23946797847748,2.54854655265808,1.66446948051453,-0.952930593197372,2.55579696798345,1.73276652175022,1351.984,1323.013,3268.936,3274.583,-0.1009343,0.02550149,0.1056975,-1.00674450397491,-0.427857995033264,0.579143404960632,-1.00203140433628,-0.431146119769234,0.620305172659443,0
1.97998046875,-1.25973856449127,2.53997015953064,1.67617726325989,-0.973001172086935,2.54716115859433,1.74519116617712,1370.109,1325.115,3264.934,3257.629,-0.1004512,0.02615297,0.104916,-1.01352453231812,-0.428814232349396,0.585388958454132,-1.0091596546337,-0.434213206731958,0.624717899159203,0
2,-1.28013920783997,2.53137540817261,1.68801414966583,-0.993273599084619,2.53843849960327,1.7577407641983,1342.99,1320.97,3281.335,3269.854,-0.1000395,0.02673497,0.1042055,-1.02003252506256,-0.429739058017731,0.591843366622925,-1.01606400046349,-0.437183953857422,0.628992018127441,0
2.02001953125,-1.30066275596619,2.52276372909546,1.69996547698975,-1.01368176147806,2.52965743746343,1.77037438889544,1349.71,1322.51,3267.322,3270.795,-0.09958145,0.02732511,0.1034,-1.02617716789246,-0.430589526891708,0.597569048404694,-1.0227194988233,-0.440047628868552,0.633112088657522,0
2.0400390625,-1.32130360603333,2.51413607597351,1.71203207969666,-1.03422065061955,2.52082012725598,1.78308893967699,1367.741,1325.183,3262.466,3253.014,-0.09916706,0.02791518,0.1024809,-1.03204548358917,-0.431385815143585,0.60333240032196,-1.02912348666547,-0.442803085930327,0.637076462196067,0
2.05999755859375,-1.34205603599548,2.50549268722534,1.72421479225159,-1.05482201812353,2.5119559343546,1.79584216754118,1351.682,1324.677,3268.151,3260.775,-0.09889702,0.02843991,0.1016139,-1.03761959075928,-0.432163774967194,0.609132945537567,-1.03525504859546,-0.445441325732794,0.640872191117535,0
2.08001708984375,-1.36291408538818,2.49683356285095,1.73651218414307,-1.07560676837143,2.50301283698163,1.80870891805959,1327.707,1320.074,3282.239,3269.26,-0.09855188,0.0289183,0.1007893,-1.04290783405304,-0.432957619428635,0.614868879318237,-1.0411492471255,-0.447977434695423,0.644520980787238,0
2.10003662109375,-1.38387060165405,2.48815965652466,1.74890732765198,-1.09650693059248,2.49402008106085,1.82164711408721,1345.993,1323.679,3260.91,3262.489,-0.09808635,0.02942367,0.09984132,-1.04782903194427,-0.433692693710327,0.619757115840912,-1.04678460577819,-0.450402172089984,0.648009536242619,0
2.1199951171875,-1.40492033958435,2.47947192192078,1.76140213012695,-1.11745308225396,2.48500753716864,1.83461377976925,1366.139,1327.666,3252.599,3244.322,-0.09770232,0.02991953,0.09879968,-1.05247890949249,-0.434384137392044,0.62474125623703,-1.0521429102862,-0.45270770082608,0.651326581984514,0
2.1400146484375,-1.42605757713318,2.47076988220215,1.77400243282318,-1.13856809990831,2.47592233495728,1.84768498154507,1330.693,1324.456,3269.65,3261.226,-0.09744187,0.03032281,0.09788082,-1.05686450004578,-0.435096263885498,0.630016386508942,-1.05725481901126,-0.454907212340279,0.654491096999312,0
2.1600341796875,-1.44727551937103,2.46205401420593,1.78669345378876,-1.15978280433347,2.46679424031336,1.86081789418076,1330.781,1325.883,3257.832,3263.88,-0.09711057,0.03072737,0.09689309,-1.06089997291565,-0.435792684555054,0.634550154209137,-1.06210153574728,-0.456992619150195,0.65749144554004,0
2.17999267578125,-1.46856880187988,2.45332431793213,1.79947423934937,-1.18102676265167,2.45765355853653,1.8739689163698,1348.66,1329.187,3252.62,3243.179,-0.09675584,0.03113799,0.09580468,-1.06466221809387,-0.43648287653923,0.639039218425751,-1.06666760390386,-0.458957270716794,0.660318059240953,0
2.20001220703125,-1.48993158340454,2.44458031654358,1.81234693527222,-1.20242455577657,2.44844668594002,1.88721516963236,1322.053,1327.153,3264.901,3253.531,-0.09643307,0.03147762,0.09483086,-1.0681471824646,-0.43719756603241,0.643637299537659,-1.07097916161324,-0.460812413548163,0.662987118851036,0
2.22003173828125,-1.51135742664337,2.43582248687744,1.82529604434967,-1.22390595867498,2.43920383839376,1.9005131813276,1329.407,1329.245,3247.875,3253.437,-0.09604584,0.0318199,0.09380662,-1.07128393650055,-0.437881499528885,0.647457361221313,-1.0750201524698,-0.462551139021528,0.665488684690339,0
2.239990234375,-1.53284072875977,2.42705178260803,1.83832275867462,-1.24539969505118,2.42995568409656,1.91381882803312,1344.94,1332.217,3242.316,3235.872,-0.09569537,0.03215338,0.09271855,-1.07416665554047,-0.438552707433701,0.651335835456848,-1.07877792518082,-0.464168003639063,0.667814925005999,0
2.260009765625,-1.55437648296356,2.41826677322388,1.85143065452576,-1.26703177594152,2.42064800401982,1.92721011658316,1310.459,1329.53,3257.105,3251.522,-0.09540295,0.03240616,0.09176787,-1.07679569721222,-0.439255326986313,0.655395030975342,-1.08227399942825,-0.465672266718726,0.669979161506271,0
2.280029296875,-1.57595837116241,2.40946817398071,1.86460375785828,-1.28873109644562,2.41131139261574,1.94064302965718,1314.678,1331.029,3242.013,3251.963,-0.09500028,0.03267007,0.09075555,-1.07909679412842,-0.43993604183197,0.658656716346741,-1.08549510920706,-0.467058220269158,0.671973181902092,0
2.29998779296875,-1.59758150577545,2.40065622329712,1.8778418302536,-1.31042570636616,2.40197680804417,1.95407302665558,1333.286,1334.367,3235.151,3231.295,-0.09457311,0.03294223,0.08965852,-1.08115088939667,-0.440600961446762,0.661906480789185,-1.08843144721369,-0.468321644481621,0.673790915005368,0
2.32000732421875,-1.61924052238464,2.39183044433594,1.89114797115326,-1.33224276726637,2.39258953623693,1.96757882664355,1303.166,1332.504,3247.312,3244.079,-0.09418482,0.03314518,0.08869184,-1.08295547962189,-0.441282093524933,0.665308654308319,-1.09109983431736,-0.469469776906228,0.675442773735451,0
2.34002685546875,-1.64092946052551,2.38299226760864,1.9045068025589,-1.35411046309062,2.38318047763645,1.98111597206157,1308.525,1333.94,3231.323,3244.29,-0.09370279,0.03336036,0.08767406,-1.08444273471832,-0.441925168037415,0.667939841747284,-1.09348983658457,-0.470498128112872,0.676922298990446,0
2.3599853515625,-1.66264343261719,2.37414121627808,1.91791880130768,-1.37595634130987,2.37378080654189,1.99463961134278,1325.22,1336.793,3225.358,3224.861,-0.0932149,0.0335817,0.08658634,-1.08569550514221,-0.44254207611084,0.670602798461914,-1.09559452046326,-0.471403714787811,0.678225198571351,0
2.3800048828125,-1.68437743186951,2.36527800559998,1.93138742446899,-1.39790843013262,2.36433543599182,2.00822900004707,1292.834,1334.584,3238.593,3238.607,-0.09276163,0.0337367,0.08563799,-1.08671045303345,-0.443167209625244,0.67343133687973,-1.09742594550583,-0.472191725819537,0.679358937915576,0
2.4000244140625,-1.70612597465515,2.3564031124115,1.94489657878876,-1.41989437329222,2.3548754988664,2.02183934619858,1298.232,1335.453,3222.721,3238.571,-0.09219065,0.03391115,0.08463776,-1.08741939067841,-0.44374281167984,0.675460159778595,-1.09897654259203,-0.472858904427064,0.68031883137712,0
2.41998291015625,-1.72788405418396,2.34751749038696,1.95844674110413,-1.4418413890156,2.34543231112926,2.03542559441269,1317.073,1338.066,3216.068,3217.505,-0.0915909,0.03410021,0.08356386,-1.08790278434753,-0.444275945425034,0.677507340908051,-1.10024227275454,-0.473403512755585,0.681102378642803,0
2.44000244140625,-1.74964714050293,2.33862161636353,1.97204113006592,-1.46387808506052,2.33595053645515,2.04906735901791,1285.495,1335.906,3228.024,3231.435,-0.09102791,0.03422813,0.08263157,-1.08815598487854,-0.444796293973923,0.679717063903809,-1.10123038958312,-0.473828671822132,0.681714070030222,0
2.46002197265625,-1.77140951156616,2.32971668243408,1.98566424846649,-1.48593173759011,2.32646146587939,2.06271962049488,1290.864,1336.23,3212.377,3231.524,-0.09034934,0.03437914,0.0816471,-1.08811724185944,-0.44524884223938,0.681155443191528,-1.10193621258339,-0.474132367740737,0.682151008090402,0
2.47998046875,-1.79316675662994,2.32080388069153,1.99931681156158,-1.50792940965705,2.3169964821328,2.07633722739875,1308.921,1338.389,3206.225,3210.836,-0.08963987,0.03454894,0.08058817,-1.08786261081696,-0.445642352104187,0.682628214359283,-1.10235860927677,-0.474314113237503,0.682412491765153,0
2.5,-1.81491446495056,2.31188368797302,2.01300191879272,-1.52999999932945,2.30750012397766,2.08999997377396,1277.385,1336.093,3218.032,3224.602,-0.0889581,0.03466495,0.0796653,-1.08738458156586,-0.446004927158356,0.684260010719299,-1.10250000050292,-0.474374949932098,0.682500019669533,0
2.52001953125,-1.83664691448212,2.3029580116272,2.02670431137085,-1.55207058900185,2.29800376582252,2.10366272014916,1283.77,1335.948,3202.449,3223.743,-0.08814903,0.03481124,0.07868432,-1.08662331104279,-0.446281224489212,0.68512088060379,-1.10235860927677,-0.474314113237503,0.682412491765153,0
2.5400390625,-1.85836005210876,2.29402828216553,2.04042458534241,-1.57413551786515,2.2885098433554,2.11732196221386,1302.818,1337.756,3195.997,3202.449,-0.08730481,0.03498175,0.0776269,-1.08565008640289,-0.446478337049484,0.686015665531158,-1.10193449000042,-0.47413162656141,0.682149941729488,0
2.55999755859375,-1.88004887104034,2.28509640693665,2.05416297912598,-1.59612191359838,2.27904971150017,2.13093258853001,1285.067,1337.458,3198.12,3210.55,-0.0865538,0.03511423,0.07666618,-1.08444440364838,-0.446609735488892,0.686915457248688,-1.10123038958312,-0.473828671822132,0.681714070030222,0
2.58001708984375,-1.90170931816101,2.27616262435913,2.06791758537292,-1.6181586096433,2.26956793682606,2.14457435313522,1260.967,1332.684,3208.621,3218.563,-0.08568028,0.03523213,0.07576989,-1.08302211761475,-0.446692824363708,0.687736332416534,-1.10024227275454,-0.473403512755585,0.681102378642802,0
2.60003662109375,-1.92333590984344,2.26722955703735,2.08167243003845,-1.64017270144046,2.26009588812827,2.15820212463428,1280.073,1333.388,3187.902,3209.12,-0.08461662,0.03540665,0.07476559,-1.08132576942444,-0.446652770042419,0.687744140625,-1.09897224258044,-0.472857054252202,0.680316169465104,0
2.6199951171875,-1.94492423534393,2.2582995891571,2.09542942047119,-1.66209156852628,2.2506648119635,2.17177094750084,1301.368,1335.478,3179.081,3188.155,-0.08356413,0.0356044,0.07369045,-1.07942008972168,-0.446494072675705,0.687853217124939,-1.09742594550583,-0.472191725819537,0.679358937915576,0
2.6400146484375,-1.96647024154663,2.24937438964844,2.10919380187988,-1.68404365734903,2.24121944141343,2.18536033620513,1266.687,1332.577,3191.482,3204.893,-0.08259954,0.03574909,0.07275734,-1.07730221748352,-0.446256190538406,0.688220024108887,-1.09559452046326,-0.471403714787811,0.678225198571351,0
2.6600341796875,-1.9879686832428,2.24045610427856,2.12295126914978,-1.7059562766819,2.23179105348221,2.198925291415,1268.844,1330.695,3179.316,3205.687,-0.08151563,0.03592966,0.07175937,-1.07491981983185,-0.445900708436966,0.687877476215363,-1.09348297402779,-0.470495175346408,0.676918050740891,0
2.67999267578125,-2.0094153881073,2.23154759407043,2.13670206069946,-1.72775723139253,2.2224107117184,2.21242112090437,1288.33,1331.386,3174.098,3182.639,-0.08035929,0.03614951,0.07066606,-1.07232820987701,-0.445433109998703,0.687538862228394,-1.09109983431736,-0.469469776906228,0.675442773735451,0
2.70001220703125,-2.03080558776855,2.22265028953552,2.15044832229614,-1.74957429229274,2.21302343991116,2.22592692089233,1261.961,1328.859,3183.03,3193.324,-0.0792136,0.03633759,0.06968882,-1.06951200962067,-0.444869518280029,0.68730753660202,-1.08843144721369,-0.468321644481621,0.673790915005369,0
2.72003173828125,-2.05213403701782,2.21376705169678,2.16417527198792,-1.77133515528999,2.20366034849157,2.23939793170129,1271.759,1327.037,3167.076,3190.484,-0.07795499,0.03656569,0.06864786,-1.06642663478851,-0.444161415100098,0.686347186565399,-1.08548570791771,-0.467054175156991,0.671967362056136,0
2.739990234375,-2.07339668273926,2.20490074157715,2.17788481712341,-1.79296822271738,2.1943522439355,2.25278983096475,1290.28,1327.234,3161.304,3169.841,-0.07668785,0.03682126,0.0675357,-1.06313371658325,-0.443320065736771,0.685472846031189,-1.08227399942825,-0.465672266718727,0.669979161506271,0
2.760009765625,-2.09458923339844,2.19605302810669,2.19158029556274,-1.81460030360772,2.18504456385877,2.26618111951479,1258.21,1323.969,3172.237,3184.69,-0.07547292,0.03703658,0.06655202,-1.05962455272675,-0.442374229431152,0.684778809547424,-1.07877792518082,-0.464168003639063,0.667814925005998,0
2.780029296875,-2.11570620536804,2.18722748756409,2.20524740219116,-1.83615965364354,2.17576817783687,2.27952738420123,1264.477,1321.277,3158.471,3183.239,-0.07412696,0.03729464,0.06549262,-1.05585563182831,-0.441283792257309,0.683359086513519,-1.07500824518964,-0.462546015651526,0.665481313516697,0
2.79998779296875,-2.13674402236938,2.17842650413513,2.2188868522644,-1.85757544288233,2.1665535620153,2.29278477791556,1285.209,1321.376,3152.054,3160.384,-0.07272986,0.03759173,0.064335,-1.05187726020813,-0.440053373575211,0.68196827173233,-1.07097916161324,-0.460812413548163,0.662987118851036,0
2.82000732421875,-2.15769720077515,2.16965246200562,2.23250150680542,-1.87897323600723,2.1573466894188,2.30603103117811,1257.716,1318.643,3160.804,3172.118,-0.07137485,0.03785737,0.06328657,-1.04767632484436,-0.438704282045364,0.680730998516083,-1.06666760390385,-0.458957270716794,0.660318059240952,0
2.84002685546875,-2.1785614490509,2.16090846061707,2.24607753753662,-1.90028201942005,2.14817811521475,2.31922218318877,1265.402,1315.868,3146.485,3169.944,-0.06991331,0.03816391,0.06216405,-1.04321396350861,-0.437200367450714,0.678798735141754,-1.06208716414723,-0.456986435452194,0.657482548835001,0
2.8599853515625,-2.19933223724365,2.15219736099243,2.2596161365509,-1.92143189875059,2.13907791299805,2.33231496600284,1284.452,1315.547,3141.083,3148.021,-0.06842992,0.03850365,0.06095384,-1.03853929042816,-0.435551643371582,0.676935732364655,-1.05725481901126,-0.454907212340279,0.654491096999312,0
2.8800048828125,-2.22000503540039,2.14352178573608,2.27312064170837,-1.94254691640495,2.12999271078668,2.34538616777867,1255.369,1312.554,3150.349,3160.641,-0.06699927,0.03881005,0.05985708,-1.03363966941833,-0.433781892061234,0.675224125385284,-1.0521429102862,-0.45270770082608,0.651326581984514,0
2.9000244140625,-2.24057483673096,2.13488459587097,2.28657674789429,-1.96355695821617,2.12095267674793,2.3583923845069,1262.886,1309.245,3136.508,3158.201,-0.06545677,0.03915758,0.05868385,-1.02848088741302,-0.431858688592911,0.672808706760406,-1.04676782045836,-0.450394949835786,0.647999145330045,0
2.91998291015625,-2.26103663444519,2.12628865242004,2.29998564720154,-1.98439323028747,2.1119874109737,2.37129102948832,1283.097,1308.724,3130.677,3135.347,-0.06388444,0.03953917,0.05741897,-1.02310752868652,-0.42978909611702,0.670447409152985,-1.0411492471255,-0.447977434695422,0.644520980787238,0
2.94000244140625,-2.2813868522644,2.11773705482483,2.31335020065308,-2.00517798053537,2.10304431360073,2.38415778000673,1255.194,1305.908,3138.846,3147.468,-0.0623739,0.03988732,0.05626537,-1.01750683784485,-0.427594631910324,0.668231129646301,-1.03525504859546,-0.445441325732794,0.640872191117535,0
2.96002197265625,-2.30162000656128,2.10923218727112,2.32665681838989,-2.02584216016808,2.09415309439512,2.39694989157076,1262.177,1302.3,3125.219,3145.437,-0.06076534,0.04027297,0.05503682,-1.01165080070496,-0.425248354673386,0.665333926677704,-1.02910434715508,-0.442794850733705,0.637064613927399,0
2.97998046875,-2.32173156738281,2.10077667236328,2.33990693092346,-2.04631823718085,2.08534281049189,2.40962555865248,1281.491,1301.576,3119.86,3122.857,-0.05913443,0.04069006,0.05371642,-1.00558030605316,-0.422758847475052,0.662502646446228,-1.0227194988233,-0.440047628868552,0.633112088657521,0
3,-2.34171724319458,2.09237408638,2.35310316085815,-2.06672639957428,2.07656174835205,2.42225918334961,1253.562,1298.912,3127.695,3134.801,-0.05756689,0.04107403,0.05250341,-0.999281704425812,-0.420147210359573,0.659806191921234,-1.01606400046349,-0.437183953857422,0.628992018127441,0
3.02001953125,-2.36157178878784,2.08402633666992,2.36623167991638,-2.08699882657197,2.06783908936099,2.4348087813708,1260.968,1295.117,3114.127,3132.159,-0.05590135,0.04149458,0.05121258,-0.992731094360352,-0.417389780282974,0.65642923116684,-1.0091596546337,-0.434213206731958,0.624717899159203,0
3.0400390625,-2.38129091262817,2.07573652267456,2.3792941570282,-2.10713056392826,2.05917696519221,2.44727128580198,1280.784,1294.359,3108.645,3108.961,-0.05421663,0.04194453,0.04983059,-0.985965132713318,-0.414493888616562,0.65311861038208,-1.00200923318578,-0.431136580142566,0.620291447661128,0
3.05999755859375,-2.40087008476257,2.06750702857971,2.39229011535645,-2.12705600675913,2.05060360379452,2.45960608409476,1264.768,1292.988,3108.56,3115.878,-0.05265282,0.04236735,0.04852524,-0.978962957859039,-0.411472260951996,0.649795889854431,-0.994638524886308,-0.427965170275055,0.615728628108227,0
3.08001708984375,-2.4203052520752,2.05934000015259,2.40521812438965,-2.14689219650438,2.04206864550612,2.47188563047583,1245.358,1287.61,3115.639,3120.958,-0.05101818,0.04278538,0.04725248,-0.971746146678925,-0.408346235752106,0.64639949798584,-0.987005430654711,-0.424680863071165,0.611003379164165,0
3.10003662109375,-2.43959069252014,2.05123829841614,2.4180645942688,-2.16657319653803,2.03360046101514,2.4840691070327,1262.785,1285.045,3098.611,3110.463,-0.04923972,0.04325082,0.04586765,-0.964286804199219,-0.405079632997513,0.64232075214386,-0.979135219574012,-0.421294531111384,0.606131343595068,0
3.1199951171875,-2.4587230682373,2.04320478439331,2.43083143234253,-2.18603502400946,2.02522658035469,2.49611690533293,1283.088,1284.959,3091.006,3088.504,-0.04748736,0.04373574,0.04440906,-0.956608474254608,-0.401673853397369,0.638337016105652,-0.971056158224178,-0.417818336715394,0.601130019760458,0
3.1400146484375,-2.47769689559937,2.03524160385132,2.44352221488953,-2.20539207344272,2.01689778275692,2.50809984103626,1253.316,1282.669,3098.084,3102.476,-0.0458607,0.04417688,0.04306806,-0.948705315589905,-0.398155689239502,0.634535253047943,-0.962722140342815,-0.41423244164655,0.595970865687568,0
3.1600341796875,-2.49650835990906,2.02735137939453,2.45612478256226,-2.22457999991466,2.00864175404465,2.51997808157008,1256.182,1278.315,3087.567,3101.275,-0.04416373,0.04464354,0.04165801,-0.940570056438446,-0.394520103931427,0.630131304264069,-0.954160941629351,-0.410548797012349,0.590671075857482,0
3.17999267578125,-2.51515316963196,2.01953554153442,2.46863985061646,-2.24353658854737,2.00048526354177,2.53171311296128,1273.544,1277.359,3083.109,3078.671,-0.04243321,0.04513546,0.04015851,-0.932226598262787,-0.390772998332977,0.625756561756134,-0.945403214201559,-0.406780591562751,0.585249625391267,0
3.20001220703125,-2.53362631797791,2.01179718971252,2.4810688495636,-2.26237335188561,1.99238033051557,2.54337396678712,1249.9,1275.627,3087.972,3087.48,-0.04076181,0.04559605,0.03875609,-0.923660516738892,-0.386926800012589,0.62144809961319,-0.93639902618694,-0.402906341007952,0.579675604081262,0
3.22003173828125,-2.5519232749939,2.00413775444031,2.49339890480042,-2.28102768446584,1.98435389234802,2.55492188728337,1258.655,1271.548,3074.578,3083.195,-0.03901637,0.04608154,0.03728954,-0.914865493774414,-0.382967889308929,0.616507649421692,-0.927178570605173,-0.398939036560826,0.573967702844936,0
3.239990234375,-2.5700409412384,1.99655961990356,2.50563192367554,-2.2994392795179,1.97643189735754,2.5663195416865,1276.37,1270.631,3069.346,3061.387,-0.03728319,0.04658104,0.0357578,-0.905866384506226,-0.378901660442352,0.611652374267578,-0.917774783907129,-0.394892849856044,0.568146310914365,0
3.260009765625,-2.58797407150269,1.98906445503235,2.51777005195618,-2.31771654397337,1.96856770107001,2.57763403905129,1248.181,1268.877,3074.733,3074.245,-0.03565333,0.04703764,0.03434364,-0.896655380725861,-0.374746441841125,0.606908023357391,-0.908134108040216,-0.390744736359816,0.562178273303667,0
3.280029296875,-2.60571885108948,1.98165488243103,2.52980136871338,-2.33579875395963,1.96078743127139,2.58882778840789,1253.271,1264.403,3063.469,3071.5,-0.03394572,0.04751571,0.03286473,-0.887235462665558,-0.370497703552246,0.601565361022949,-0.898289055119065,-0.386508685126782,0.556083716560567,0
3.29998779296875,-2.62327098846436,1.97433161735535,2.54172658920288,-2.35362764460945,1.95311615770631,2.59986472102797,1270.572,1263.619,3058.142,3049.569,-0.03221999,0.04801069,0.03130821,-0.877623319625854,-0.366157293319702,0.596264600753784,-0.888274735793772,-0.382199803288803,0.549884375850026,0
3.32000732421875,-2.64062714576721,1.96709704399109,2.55354738235474,-2.37130830610839,1.94550866300381,2.61080989274252,1246.696,1262.526,3061.859,3059.059,-0.03057682,0.04846955,0.02985189,-0.867807865142822,-0.361737161874771,0.591044962406158,-0.878034183119985,-0.377793579561194,0.543544985919778,0
3.34002685546875,-2.65778303146362,1.95995247364044,2.56525230407715,-2.3887820321449,1.9379902068497,2.62162696154813,1252.822,1258.39,3050.116,3055.677,-0.02887186,0.04894585,0.02833828,-0.857793390750885,-0.357233107089996,0.585252106189728,-0.867602121152829,-0.373304954734798,0.537087042614081,0
3.3599853515625,-2.6747350692749,1.95289933681488,2.57684278488159,-2.40599272667425,1.93058492580486,2.63228120132087,1268.989,1257.626,3045.343,3034.436,-0.0271685,0.04943306,0.02676225,-0.847595036029816,-0.35264840722084,0.579529643058777,-0.857015715678588,-0.368749920209162,0.530533553325099,0
3.3800048828125,-2.69147896766663,1.94593954086304,2.58832049369812,-2.42304196557559,1.92324911460621,2.64283549236868,1243.817,1256.652,3048.991,3045.135,-0.02556102,0.0498802,0.02529614,-0.837204694747925,-0.347995698451996,0.5738844871521,-0.846214826007803,-0.364102599125748,0.523847288101157,0
3.4000244140625,-2.70801162719727,1.93907403945923,2.59967422485352,-2.43987318937177,1.91600710921667,2.65325482168089,1249.409,1252.34,3038.031,3041.64,-0.02388909,0.05034238,0.02377674,-0.826633214950562,-0.343274265527725,0.567683279514313,-0.835236272052476,-0.359378834064062,0.51705104022176,0
3.41998291015625,-2.72432971000671,1.93230414390564,2.61090517044067,-2.45643259034873,1.90888206159239,2.66350587971929,1265.192,1251.653,3033.254,3020.644,-0.02221289,0.05081365,0.02219999,-0.815891325473785,-0.338484853506088,0.561544060707092,-0.824119146742881,-0.354595445619869,0.510169010073001,0
3.44000244140625,-2.74042892456055,1.9256317615509,2.62201452255249,-2.47281804716281,1.90183185728196,2.67364925803476,1241.319,1250.972,3035.881,3030.847,-0.02063044,0.05124565,0.02073211,-0.804971396923065,-0.333637148141861,0.555467188358307,-0.812800388649434,-0.349725300221754,0.503162159625937,0
3.46002197265625,-2.75630664825439,1.91905677318573,2.63299179077148,-2.48897526921199,1.89487985601472,2.68365134815842,1246.956,1246.725,3025.16,3027.225,-0.01899047,0.05169002,0.01921543,-0.793888211250305,-0.328732341527939,0.54886519908905,-0.801318788528228,-0.344785088448372,0.496054502206447,0
3.47998046875,-2.77195954322815,1.91258144378662,2.64383864402771,-2.50485284867397,1.88804817714046,2.69348032619939,1261.6,1246.154,3020.786,3006.958,-0.01735103,0.05214012,0.01764942,-0.782649219036102,-0.323770672082901,0.542340159416199,-0.789715229532172,-0.33979240117828,0.488871346433721,0
3.5,-2.78738474845886,1.90620613098145,2.6545557975769,-2.5205447997813,1.88129636896134,2.70319439144611,1238.014,1245.702,3022.735,3017.418,-0.01580693,0.05255149,0.01619207,-0.771247982978821,-0.318760693073273,0.53586208820343,-0.777924000354857,-0.334718964672089,0.481572013878822,0
3.52001953125,-2.80257892608643,1.89993190765381,2.6651337146759,-2.53599921507943,1.87464676580493,2.71276141071155,1243.709,1241.508,3012.815,3013.113,-0.01420424,0.05297349,0.0146885,-0.75970321893692,-0.313705682754517,0.528895974159241,-0.765985728654519,-0.329582259876133,0.474181654997567,0
3.5400390625,-2.81753897666931,1.89375996589661,2.6755735874176,-2.55121320561109,1.86810061070885,2.72217959559352,1257.428,1241.05,3008.279,2993.936,-0.01260421,0.05339959,0.01314282,-0.748017966747284,-0.308604210615158,0.521995425224304,-0.753905903732742,-0.324384648683532,0.466703667929126,0
3.55999755859375,-2.83226251602173,1.88769090175629,2.68587446212769,-2.56613872308604,1.86167857751006,2.73141920191151,1243.817,1240.862,3005.451,2999.469,-0.0111203,0.0537933,0.01168068,-0.73618620634079,-0.30346217751503,0.515046119689941,-0.741727567798258,-0.319144650954242,0.459164697851087,0
3.58001708984375,-2.84674739837646,1.88172495365143,2.69603514671326,-2.58086439685043,1.85534253147694,2.74053509545279,1230.67,1237.65,3007.806,3001.287,-0.009615077,0.05417226,0.01025437,-0.72423380613327,-0.298294097185135,0.508036911487579,-0.729381927869994,-0.313832666990361,0.451522158631107,0
3.60003662109375,-2.86099052429199,1.87586307525635,2.70604681968689,-2.59534166117872,1.84911336908442,2.74949721171974,1241.348,1235.034,2996.256,2992.701,-0.008030496,0.0545659,0.008773589,-0.712163686752319,-0.293091773986816,0.500586569309235,-0.716911837553691,-0.308467135501249,0.443802578692534,0
3.6199951171875,-2.87499022483826,1.87010610103607,2.71591091156006,-2.60952509409627,1.84301063413925,2.75827743234631,1254.296,1234.963,2990.667,2975.586,-0.006473612,0.0549577,0.007270875,-0.699970662593842,-0.287849515676498,0.493208527565002,-0.704361775018033,-0.303067194200314,0.436033492140578,0
3.6400146484375,-2.88874340057373,1.86445462703705,2.72562909126282,-2.62349913748426,1.83699799365897,2.76692803087948,1233.081,1234.736,2991.791,2985.135,-0.005031777,0.05531109,0.005876875,-0.687655627727509,-0.282576143741608,0.485907256603241,-0.691660998977508,-0.297602405088683,0.428171106749629,0
3.6600341796875,-2.90224838256836,1.85890889167786,2.73519349098206,-2.63721784221104,1.83109521827128,2.77542056261789,1235.487,1230.798,2983.997,2982.55,-0.003558516,0.05566789,0.004456539,-0.675244748592377,-0.277281492948532,0.47821632027626,-0.6788538526303,-0.292091847805727,0.42024287307172,0
3.67999267578125,-2.91550302505493,1.85346984863281,2.74460530281067,-2.65063849381582,1.82532068681534,2.78372858527554,1246.149,1230.329,2980.589,2965.69,-0.002083125,0.05602609,0.003006883,-0.662737309932709,-0.271964192390442,0.470588356256485,-0.665986083416798,-0.286555206197011,0.41227711095171,0
3.70001220703125,-2.92850589752197,1.84813690185547,2.75386476516724,-2.66384123964357,1.81963991412768,2.79190171387692,1227.983,1230.396,2980.645,2972.977,-0.0006828345,0.05635333,0.001652379,-0.650130331516266,-0.266627490520477,0.46297487616539,-0.65298533214413,-0.280961346123326,0.404229026602262,0
3.72003173828125,-2.94125461578369,1.84291160106659,2.76296448707581,-2.67678283166196,1.81407150862839,2.79991317582983,1233.994,1226.666,2972.232,2967.755,0.0007610769,0.05668594,0.0002728541,-0.637446880340576,-0.261276632547379,0.454984217882156,-0.639897267894093,-0.275329917714721,0.396126891360527,0
3.739990234375,-2.95374822616577,1.83779358863831,2.77190566062927,-2.68942333385363,1.80863265367006,2.80773824883709,1244.831,1226.274,2967.95,2952.145,0.002185949,0.05701552,-0.00111906,-0.624682724475861,-0.255907446146011,0.447064071893692,-0.62676873176137,-0.26968107538565,0.387999702095468,0
3.760009765625,-2.96598482131958,1.83278298377991,2.78068947792053,-2.70183851231475,1.80329074921818,2.81542383572149,1226.518,1226.3,2968.142,2960.084,0.003514363,0.05731158,-0.002408563,-0.611839234828949,-0.250524669885635,0.439196825027466,-0.613526094901139,-0.263983138701136,0.379801879044709,0
3.780029296875,-2.97796392440796,1.82788038253784,2.78930950164795,-2.71398789452788,1.79806320946631,2.82294488206675,1229.587,1222.595,2960.949,2956.964,0.004872608,0.05760905,-0.003712979,-0.598943650722504,-0.245137155056,0.430995643138885,-0.600216179640806,-0.2582562540006,0.371562407459372,0
3.79998779296875,-2.98968386650085,1.82308554649353,2.79776668548584,-2.72583438304408,1.79296599641037,2.83027842278479,1239.095,1222.154,2957.35,2942.256,0.006224647,0.05790519,-0.005032309,-0.585991621017456,-0.239741340279579,0.422862321138382,-0.586886736182787,-0.252520966862155,0.36331084698941,0
3.82000732421875,-3.00114321708679,1.81839871406555,2.80606198310852,-2.73744929742843,1.78796842323393,2.8374686080838,1223.295,1222.355,2956.8,2948.631,0.007497902,0.05817285,-0.006261624,-0.572983026504517,-0.234339565038681,0.414761275053024,-0.573463232144022,-0.246745208083563,0.355001058539243,0
3.84002685546875,-3.01234221458435,1.81381964683533,2.81418919563293,-2.7487950044681,1.78308668245712,2.84449214121233,1227.756,1218.945,2949.648,2944.438,0.008798021,0.05844261,-0.007504255,-0.559942603111267,-0.228939414024353,0.406358778476715,-0.559993461530387,-0.240949542090342,0.346662628875244,0
3.8599853515625,-3.02327942848206,1.80934917926788,2.82214999198914,-2.75983729406747,1.77833549372837,2.85132784449154,1236.648,1218.627,2946.262,2930.593,0.01007863,0.05870835,-0.00875168,-0.546864092350006,-0.22353695333004,0.398041486740112,-0.546525890176286,-0.235154822377061,0.338325560657667,0
3.8800048828125,-3.03395414352417,1.8049863576889,2.82994508743286,-2.77064299647982,1.77368610185671,2.85801708903178,1221.287,1218.753,2945.481,2937.384,0.01127087,0.058946,-0.009905362,-0.533750295639038,-0.218135416507721,0.389757037162781,-0.532985466132484,-0.229328756186666,0.329943393154704,0
3.9000244140625,-3.04436683654785,1.80073153972626,2.83756947517395,-2.78117737042527,1.76915345504432,2.86453836832583,1225.094,1215.429,2939.452,2933.23,0.01248259,0.05918372,-0.01106703,-0.520627379417419,-0.212743893265724,0.38122084736824,-0.51942076458699,-0.223492244065531,0.321546196721701,0
3.91998291015625,-3.05451631546021,1.79658448696136,2.84502458572388,-2.79140913007042,1.76475101471128,2.87087231495249,1232.479,1215.116,2936.244,2921.116,0.01367313,0.05941671,-0.01222551,-0.507489204406738,-0.207358658313751,0.372761160135269,-0.505880764601328,-0.217666360335509,0.313164291730931,0
3.94000244140625,-3.06440305709839,1.79254472255707,2.85231137275696,-2.8014005971492,1.76045196555656,2.87705750903383,1219.378,1215.182,2935.273,2926.443,0.01478423,0.05962433,-0.0132977,-0.494339495897293,-0.201982259750366,0.36433532834053,-0.492290296490434,-0.211818761581115,0.30475114456651,0
