t,x_s1,x_s2,x_s3,x_s_d1,x_s_d2,x_s_d3,propellers_rpms1,propellers_rpms2,propellers_rpms3,propellers_rpms4,rollRad,pitchRad,yawRad,v_s1,v_s2,v_s3,v_s_d1,v_s_d2,v_s_d3,insideCount
0,-0.0599999986588955,2.94000005722046,1.17999994754791,-0.0599999986588955,2.94000005722046,1.17999994754791,0,0,0,0,0,45.0048027038574,0,0,0,0,-1.06581410364015E-15,4.44089209850063E-16,-7.105427357601E-16,0
0.0200004577636719,-0.0599999986588955,2.94000005722046,1.1790189743042,-0.0600018691155303,2.93999925241522,1.18000109018068,0,0,0,0,0.00112506025470793,44.8630180358887,0.909283995628357,-3.60929135467813E-08,2.95208444356376E-08,-0.0490499772131443,-0.000279999361409376,-0.000120475902936966,0.000171047240579747,5
0.0399971008300781,-0.0599999986588955,2.94000005722046,1.17411398887634,-0.0600148681826738,2.93999365927978,1.18000903110795,0,0,0,0,0.00304076820611954,44.7212371826172,1.81856417655945,-3.62307304158094E-08,2.93641413406931E-08,-0.245249927043915,-0.00111080915396111,-0.000477950146533378,0.000678575978318444,6
0.05999755859375,-0.0600350871682167,2.94003486633301,1.16684293746948,-0.0600498857373401,2.93997859220429,1.18003042278566,2307.006,2000.193,2127.755,3382.364,-0.00213779578916728,44.8046226501465,1.2831004858017,-0.00175439822487533,0.00174322084058076,-0.36355447769165,-0.00247936261166862,-0.00106680046642749,0.00151460392977639,6
0.0799980163574219,-0.0601342283189297,2.9401330947876,1.15967178344727,-0.0601175407449857,2.93994948214456,1.1800717521741,2848.305,2760.014,2606.53,2299.042,359.914306640625,44.8777160644531,0.619932174682617,-0.00495702214539051,0.00491338549181819,-0.358560830354691,-0.00437227586895222,-0.00188126815916228,0.00267095510032206,6
0.0999984741210938,-0.0602752827107906,2.94026303291321,1.1533819437027,-0.0602281887669101,2.93990187339187,1.18013934532406,2872.026,2897.54,2627.938,2213.443,359.724700927734,44.9188003540039,0.190223515033722,-0.00705279409885406,0.00649311672896147,-0.314491927623749,-0.00677637982016689,-0.00291568692648091,0.00413958468881675,5
0.119998931884766,-0.0604444369673729,2.94038772583008,1.14806056022644,-0.0603919230601972,2.93983142309968,1.18023936804881,2725.787,2926.575,2634.739,2219.366,359.427734375,44.935115814209,0.0502919480204582,-0.00845779664814472,0.00623428588733077,-0.266067802906036,-0.00967861374975049,-0.00416443710735115,0.005912514107932,5
0.139999389648438,-0.0606513246893883,2.94048070907593,1.1437304019928,-0.0606185767455666,2.93973390035084,1.18037782724834,2551.807,2770,2667.52,2379.449,359.090637207031,44.9478645324707,0.144074559211731,-0.0103443618863821,0.00464889733120799,-0.216507107019424,-0.0130660253322238,-0.00562194567796536,0.00798183098414958,5
0.159999847412109,-0.0609211884438992,2.94052791595459,1.14032292366028,-0.0609177249752248,2.93960518522485,1.18056057223372,2443.358,2553.603,2687.157,2529.344,358.804473876953,44.9652938842773,0.340548038482666,-0.0134931113570929,0.00235707429237664,-0.170372739434242,-0.0169257706321904,-0.00728268625174051,0.0103396891577615,5
0.180000305175781,-0.0612808242440224,2.94052505493164,1.13772797584534,-0.0612986871007165,2.9394412678651,1.18079329605139,2417.315,2395.042,2654.74,2596.439,358.625579833984,44.9838790893555,0.518689155578613,-0.0179818700999022,-0.000144836492836475,-0.129749298095703,-0.0212451141043368,-0.00914117907931815,0.0129783086828701,5
0.199996948242188,-0.0617486126720905,2.94047331809998,1.13583755493164,-0.0617704296168641,2.93923829023936,1.1810814761931,2450.73,2337.896,2561.847,2580.202,358.551239013672,44.9966087341309,0.617884516716003,-0.0233894307166338,-0.00259083858691156,-0.094520777463913,-0.0260104776919234,-0.0111915819022102,0.0158893949364944,5
0.219997406005859,-0.0623323544859886,2.94037485122681,1.13456833362579,-0.0623419453860714,2.93899238297017,1.18143060625819,2496.882,2359.936,2442.935,2516.236,358.525909423828,44.9992332458496,0.641161441802979,-0.0291870161890984,-0.00492181489244103,-0.0634631738066673,-0.0312111627562649,-0.0134292913950757,0.0190664122872106,5
0.239997863769531,-0.063033327460289,2.94023036956787,1.13386464118958,-0.0630217183703222,2.93869989564571,1.18184586896662,2511.893,2408.232,2348.265,2446.436,358.476959228516,44.9927101135254,0.627729415893555,-0.0350485444068909,-0.00722966063767672,-0.0351849906146526,-0.0368338920540454,-0.0158485947310391,0.0225012498742643,5
0.259998321533203,-0.0638525038957596,2.94003653526306,1.13368916511536,-0.063818066443955,2.93835724931701,1.18233234557803,2475.454,2437.17,2311.609,2397.033,358.356018066406,44.9817428588867,0.61920964717865,-0.0409588217735291,-0.00969044677913189,-0.00877146422863007,-0.04286636357961,-0.0184441987007453,0.0261863925943699,4
0.279998779296875,-0.0647951662540436,2.93978667259216,1.13401007652283,-0.0647390625194898,2.93796097043536,1.18289496770872,2398.693,2429.028,2331.188,2372.534,358.162963867188,44.9715003967285,0.638293623924255,-0.047133170068264,-0.0124881649389863,0.01604825258255,-0.0492963837173861,-0.0212108567320638,0.0301143915580518,4
0.299999237060547,-0.0658718347549438,2.93947196006775,1.13479292392731,-0.065792536715479,2.93750768991949,1.18353851865591,2313.73,2391.282,2375.51,2363.953,357.940124511719,44.9649925231934,0.685065865516663,-0.0538334287703037,-0.015736548230052,0.0391426607966423,-0.0561118672418845,-0.0241433688900884,0.0342778640896448,4
0.319999694824219,-0.0670957863330841,2.93908333778381,1.13599860668182,-0.0669860785243584,2.93699414222283,1.1842676347221,2254.659,2343.45,2404.515,2358.778,357.744445800781,44.9626731872559,0.745578408241272,-0.0611974485218525,-0.0194297768175602,0.0602819733321667,-0.0633008373176985,-0.0272365818771378,0.0386694937272938,4
0.340000152587891,-0.0684792473912239,2.93861436843872,1.1375857591629,-0.0683270389802989,2.93641716440073,1.18508680653936,2239.426,2303.396,2392.641,2348.372,357.614715576172,44.9632034301758,0.803879857063293,-0.0691729336977005,-0.0234481077641249,0.0793575271964073,-0.0708514254995047,-0.0304853890327553,0.0432820302229541,4
0.360000610351563,-0.0700306668877602,2.93806195259094,1.1395149230957,-0.0698225328270578,2.93577369517774,1.18600038039362,2261.902,2279.324,2340.962,2330.732,357.552398681641,44.9647407531738,0.850465595722198,-0.0775711387395859,-0.0276181641966105,0.0964583307504654,-0.0787518717320621,-0.0338847303337087,0.0481082895423912,4
0.379997253417969,-0.0717543736100197,2.93742609024048,1.14175117015839,-0.0714791088463715,2.935060916796,1.18701235683346,2297.198,2269.417,2273.544,2308.702,357.524871826172,44.965763092041,0.88452559709549,-0.0861855000257492,-0.0317951738834381,0.111813470721245,-0.0869889214763108,-0.0374289027221294,0.0531401746945263,4
0.399997711181641,-0.073652371764183,2.93670749664307,1.14426505565643,-0.0733040467096699,2.93427569701629,1.18812718289655,2316.769,2266.073,2221.359,2286.899,357.486968994141,44.9656410217285,0.911167621612549,-0.0948998034000397,-0.0359259769320488,0.125693112611771,-0.0955541759940907,-0.0411142924556206,0.058372555021277,4
0.419998168945313,-0.0757269412279129,2.93590617179871,1.14703130722046,-0.0753034649285836,2.93341540321397,1.18934859628618,2304.924,2262.118,2203.444,2268.318,357.407073974609,44.9645919799805,0.936893343925476,-0.103728376328945,-0.0400610864162445,0.138309836387634,-0.104434660908044,-0.0449353170220673,0.0637975046779765,4
0.439998626708984,-0.077982559800148,2.93501996994019,1.15002763271332,-0.0774835548069347,2.93247737144397,1.19068037917324,2264.43,2253.25,2219.276,2254.364,357.282531738281,44.9632873535156,0.965944468975067,-0.11278110742569,-0.0443135425448418,0.14981497824192,-0.113619049702587,-0.0488871029382406,0.0694081044730023,4
0.459999084472656,-0.0804261863231659,2.93404412269592,1.15323340892792,-0.0798502821969742,2.93145903476675,1.19212617600376,2214.56,2240.001,2249.716,2243.936,357.138092041016,44.9624671936035,0.998953819274902,-0.122181341052055,-0.0487892739474773,0.160285919904709,-0.123096124252221,-0.0529648233581361,0.075197501428542,4
0.479999542236328,-0.0830659568309784,2.93297362327576,1.15662896633148,-0.0824093896672336,2.93035792231548,1.19368949482325,2177.831,2225.491,2270.675,2235.351,357.009094238281,44.962574005127,1.03390729427338,-0.131988674402237,-0.0535275973379612,0.169779986143112,-0.13285477482153,-0.0571636980729742,0.0811589087805935,4
0.5,-0.0859093219041824,2.93180394172668,1.16019630432129,-0.085166398670376,2.92917165836334,1.195373708601,2167.889,2212.968,2266.428,2227.408,356.920959472656,44.9636497497559,1.06799364089966,-0.142168372869492,-0.058483362197876,0.178368777036667,-0.142884000065179,-0.0614789935111996,0.0872856059789651,5
0.520000457763672,-0.0889616459608078,2.93053293228149,1.16391909122467,-0.0881266117110474,2.92789796139072,1.19718205655433,2182.75,2204.348,2237.624,2219.45,356.876190185547,44.9653778076172,1.09927892684937,-0.152616113424301,-0.0635556727647781,0.186141043901443,-0.153172907027918,-0.0659060227384819,0.0935709386872751,5
0.539997100830078,-0.0922260284423828,2.92916011810303,1.16778314113617,-0.0912944900108037,2.92653491185861,1.19911726397389,2207.765,2199.389,2198.787,2211.694,356.855590820313,44.9672431945801,1.12741804122925,-0.163219064474106,-0.0686440095305443,0.193205133080482,-0.163708678212627,-0.0704392707438901,0.100007076896547,5
0.55999755859375,-0.0957042872905731,2.92768621444702,1.17177653312683,-0.094676112580471,2.92507989413848,1.20118304443252,2224.568,2196.41,2169.216,2204.593,356.8310546875,44.968864440918,1.15334808826447,-0.173913061618805,-0.0736981853842735,0.199667990207672,-0.17448465888317,-0.0750758741803766,0.106589955332319,5
0.579998016357422,-0.0993984192609787,2.92611145973206,1.17588889598846,-0.0982755538235842,2.92353115512831,1.20338188691976,2222.779,2193.952,2160.362,2198.247,356.782135009766,44.9700317382813,1.17851889133453,-0.184706389904022,-0.0787358283996582,0.205615982413292,-0.185488294752812,-0.0798104312890852,0.113311904776732,5
0.599998474121094,-0.103311657905579,2.92443513870239,1.18011164665222,-0.102097262171133,2.92188678079254,1.2057165089127,2202.388,2190.379,2172.967,2193.285,356.705749511719,44.970874786377,1.20399260520935,-0.195662096142769,-0.0838219597935677,0.211137115955353,-0.196709126405959,-0.0846384416756885,0.120166535736014,5
0.619998931884766,-0.107448697090149,2.92265462875366,1.18443751335144,-0.106145477944935,2.92014494663912,1.20818950075775,2174.98,2185.887,2195.223,2189.407,356.616394042969,44.9717063903809,1.22988343238831,-0.206851899623871,-0.0890255570411682,0.216290608048439,-0.208136802817102,-0.0895554515830839,0.127147524930208,5
0.639999389648438,-0.111814916133881,2.92076706886292,1.18886017799377,-0.110424235525481,2.91830391678686,1.21080332699501,2154.625,2181.444,2212.16,2186.333,356.535949707031,44.972827911377,1.2555685043335,-0.218311414122581,-0.0943789333105087,0.221131503582001,-0.219761081350814,-0.0945570538913933,0.134248615293163,5
0.659999847412109,-0.116415321826935,2.91876983642578,1.19337451457977,-0.114937365519793,2.91636204303257,1.21356032768253,2150.416,2178.059,2213.581,2183.954,356.480834960938,44.9743804931641,1.28015649318695,-0.23002053797245,-0.0998613238334656,0.2257179915905,-0.231571827761751,-0.0996388881179631,0.141463615972542,5
0.680000305175781,-0.121253654360771,2.91666150093079,1.19797658920288,-0.119688496929273,2.91431776391831,1.21646271972064,2161.85,2176.367,2199.341,2182.079,356.453521728516,44.9762763977051,1.30300688743591,-0.241916343569756,-0.105413876473904,0.230105832219124,-0.243559016194652,-0.104796640417365,0.148786402329814,5
0.699996948242188,-0.126332208514214,2.91444206237793,1.20266354084015,-0.124680083855354,2.91217002351282,1.2195120022816,2180.182,2176.259,2178.19,2180.625,356.442718505859,44.9782638549805,1.32403326034546,-0.253928303718567,-0.110973097383976,0.234349057078362,-0.255710395848158,-0.11002503961202,0.1562094905416,5
0.719997406005859,-0.131652489304543,2.91211199760437,1.20743358135223,-0.129917262555645,2.90991661182791,1.22271131302505,2193.881,2176.831,2162.235,2179.706,356.431030273438,44.9800605773926,1.34359896183014,-0.266013950109482,-0.116504058241844,0.238499820232391,-0.26802079535749,-0.115321860608138,0.163729721501856,5
0.739997863769531,-0.137215957045555,2.90967178344727,1.21228528022766,-0.135402141159277,2.90755662179454,1.22606193977416,2196.575,2177.83,2158.403,2178.845,356.405426025391,44.981502532959,1.36232626438141,-0.278173506259918,-0.12201339751482,0.242588013410568,-0.280478211503383,-0.120681938755799,0.171339762631236,5
0.759998321533203,-0.143024802207947,2.90712094306946,1.21721851825714,-0.141137563960274,2.90508882959244,1.22956562006379,2187.186,2178.024,2168.235,2178.67,356.363037109375,44.9826354980469,1.38071429729462,-0.29044234752655,-0.127539098262787,0.246661797165871,-0.293073051970232,-0.126101146749576,0.179033754133825,5
0.779998779296875,-0.14908204972744,2.90445852279663,1.22223341464996,-0.147126184485884,2.90251209348295,1.2332239748923,2172.732,2177.725,2184.518,2178.81,356.312286376953,44.983642578125,1.39877438545227,-0.302862673997879,-0.133124262094498,0.250742524862289,-0.305795832832518,-0.131575403921268,0.186805902427515,5
0.799999237060547,-0.155391171574593,2.90168261528015,1.22733056545258,-0.153370467664426,2.8998253528763,1.23703851004595,2162.03,2177.341,2197.826,2179.336,356.266723632813,44.984748840332,1.4161411523819,-0.315456122159958,-0.138791307806969,0.254857659339905,-0.318637178554805,-0.1371006762399,0.194650480144012,5
0.819999694824219,-0.1619553565979,2.89879202842712,1.23251116275787,-0.159872691993147,2.89702762739878,1.24101061742316,2160.934,2177.562,2201.627,2180.075,356.236907958984,44.9860801696777,1.43232595920563,-0.328209608793259,-0.144529610872269,0.259029000997543,-0.331587821991737,-0.142672976311719,0.202561826128828,5
0.840000152587891,-0.168777018785477,2.89578604698181,1.23777687549591,-0.166634951706069,2.89411801595997,1.2451415763588,2169.596,2178.629,2195.309,2181.115,356.225006103516,44.9875793457031,1.44698178768158,-0.341082841157913,-0.150303810834885,0.263283282518387,-0.344638604388044,-0.148288363380199,0.210534345441289,5
0.859996795654297,-0.175857573747635,2.89266467094421,1.24312961101532,-0.173657794122436,2.89109628306371,1.24943172120167,2182.803,2180.52,2184.114,2182.306,356.224456787109,44.9891128540039,1.46006608009338,-0.354028731584549,-0.156073689460754,0.26763927936554,-0.357777960707973,-0.153941861333544,0.218560973181522,5
0.879997253417969,-0.183197900652885,2.88942837715149,1.24857199192047,-0.180945630646592,2.88796053060595,1.25388374680983,2193.19,2182.623,2175.8,2183.735,356.224456787109,44.9904708862305,1.4717880487442,-0.367016494274139,-0.161815673112869,0.272116541862488,-0.371001963495383,-0.159631780297098,0.226639310127856,5
0.899997711181641,-0.190798729658127,2.8860776424408,1.25410628318787,-0.188498701076517,2.88471065540831,1.25849779967213,2197.221,2185.085,2174.186,2184.891,356.216827392578,44.9915428161621,1.48256075382233,-0.380041390657425,-0.167531684041023,0.276715308427811,-0.384299280991351,-0.165353244531568,0.234762433885595,5
0.919998168945313,-0.198661163449287,2.88261270523071,1.25973546504974,-0.196318384305134,2.8813460641717,1.26327472213274,2193.231,2186.713,2181.356,2186.478,356.199035644531,44.992359161377,1.49275517463684,-0.393121719360352,-0.173243835568428,0.281459987163544,-0.397661187980262,-0.171102499820431,0.242925014356675,5
0.939998626708984,-0.206786781549454,2.87903308868408,1.26546239852905,-0.204405885800988,2.87786623821667,1.26821525059358,2185.667,2187.837,2192.733,2188.12,356.176025390625,44.993049621582,1.50235676765442,-0.40628120303154,-0.178978756070137,0.286347836256027,-0.411079067636589,-0.176875838584386,0.251121787656841,5
0.959999084472656,-0.215177416801453,2.87533807754517,1.27129006385803,-0.212762239776093,2.87427073255068,1.27332001683864,2179.922,2188.791,2202.557,2189.792,356.156127929688,44.9937553405762,1.51112163066864,-0.4195317029953,-0.184751063585281,0.291381359100342,-0.424544411524882,-0.18266959988136,0.259347556115652,5
0.979999542236328,-0.223834708333015,2.87152695655823,1.27722132205963,-0.221388311353785,2.87055917493534,1.27858954935826,2179.887,2189.966,2206.47,2191.493,356.146209716797,44.9945907592773,1.51872408390045,-0.432863652706146,-0.190555140376091,0.296564072370529,-0.438048819599778,-0.188480169406503,0.267597188276474,5
1,-0.232759699225426,2.86759948730469,1.28325927257538,-0.230284798736574,2.86673126495361,1.28402427467346,2185.865,2191.61,2203.89,2193.183,356.147979736328,44.9955215454102,1.52494585514069,-0.446249604225159,-0.196369245648384,0.301898717880249,-0.451584000205995,-0.194303979492187,0.275865618896484,5
1.01999664306641,-0.241952836513519,2.8635561466217,1.2894070148468,-0.239450461003889,2.86278753653895,1.28962343472523,2194.818,2193.676,2197.846,2194.854,356.157684326172,44.9964370727539,1.52978229522705,-0.459656924009323,-0.202167600393295,0.307387471199036,-0.465139182559269,-0.200136395770846,0.284146268271649,5
1.03999710083008,-0.251414060592651,2.85939741134644,1.29566764831543,-0.248889165986195,2.85872632547195,1.29538939231083,2202.019,2195.632,2193.346,2196.675,356.168731689453,44.9972305297852,1.53334605693817,-0.473062634468079,-0.207933962345123,0.313034236431122,-0.478711464817306,-0.205976169660809,0.292437363711796,5
1.05999755859375,-0.261143237352371,2.85512399673462,1.30204403400421,-0.258599401509697,2.85454828239877,1.3013212236669,2205.771,2198.001,2192.209,2197.977,356.175964355469,44.9978218078613,1.53592276573181,-0.486458837985992,-0.21366760134697,0.318820238113403,-0.492290296490434,-0.211818761581115,0.30073246008742,5
1.07999801635742,-0.271140307188034,2.85073637962341,1.30853927135468,-0.268581219802083,2.85025338484727,1.30741896069852,2204.067,2199.533,2196.823,2199.637,356.17724609375,44.9982261657715,1.53781247138977,-0.499853640794754,-0.219380915164948,0.324760377407074,-0.50586781946303,-0.217660790404144,0.309026756998312,5
1.09999847412109,-0.281405478715897,2.84623456001282,1.31515598297119,-0.278834517009062,2.84584167750307,1.31368253996271,2199.774,2200.636,2204.249,2201.179,356.175323486328,44.9985275268555,1.53900635242462,-0.513259172439575,-0.225090205669403,0.330838203430176,-0.519436284009554,-0.223498921639497,0.317315520258069,5
1.11999893188477,-0.291939109563828,2.84161853790283,1.32189691066742,-0.289359035362208,2.84131327127672,1.32011180399278,2196.218,2201.527,2210.942,2202.617,356.175384521484,44.9988288879395,1.53935384750366,-0.526681125164032,-0.230804935097694,0.337045878171921,-0.532988048794549,-0.229329867434001,0.325594081894103,5
1.13999938964844,-0.302741348743439,2.83688807487488,1.32876443862915,-0.300154365346813,2.83666834237095,1.32670650262257,2196.034,2202.442,2213.968,2203.988,356.181915283203,44.999195098877,1.53864479064941,-0.54011207818985,-0.236522063612938,0.343377590179443,-0.546515580872639,-0.235150386571708,0.333857840147634,5
1.15999984741211,-0.313812017440796,2.83204340934753,1.33576095104218,-0.311219947869739,2.83190713134792,1.33346629431082,2199.598,2203.593,2212.781,2205.219,356.196319580078,44.9996299743652,1.53674602508545,-0.553532540798187,-0.242227703332901,0.349825471639633,-0.560011455688534,-0.240957284473894,0.34210225947369,6
1.18000030517578,-0.325150400400162,2.82708525657654,1.34288859367371,-0.322555076427271,2.82702994219644,1.34039074746542,2205.18,2204.919,2209.09,2206.38,356.216552734375,45.0000495910645,1.53365755081177,-0.566919326782227,-0.247904986143112,0.356384724378586,-0.573468357077025,-0.246747413199059,0.350322870541114,6
1.19999694824219,-0.336755454540253,2.82201433181763,1.35014951229095,-0.334156660511822,2.8220381046756,1.34747797414352,2210.085,2206.262,2205.741,2207.453,356.238525390625,45.0003814697266,1.52949202060699,-0.580254316329956,-0.253542065620422,0.363047659397125,-0.58687652428584,-0.252516572968185,0.358513710658656,6
1.21999740600586,-0.34862607717514,2.81683158874512,1.35754573345184,-0.346028131869748,2.8169301422008,1.35473007074542,2211.717,2207.187,2205.598,2208.567,356.258575439453,45.0005912780762,1.5243501663208,-0.593529939651489,-0.259137064218521,0.369808346033096,-0.600233974716476,-0.258263910724523,0.366673568687828,6
1.23999786376953,-0.360761016607285,2.81153774261475,1.36507856845856,-0.358166167196084,2.81170748469733,1.36214500711597,2211.42,2208.435,2207.212,2209.115,356.275939941406,45.0006713867188,1.51839315891266,-0.606746971607208,-0.264696627855301,0.376642197370529,-0.613531154887641,-0.263985315871967,0.374796608555988,6
1.2599983215332,-0.373159229755402,2.80613303184509,1.37274980545044,-0.370569492049568,2.80637068052165,1.3697220047189,2208.578,2208.911,2211.469,2209.967,356.291442871094,45.0006828308105,1.51178622245789,-0.619910657405853,-0.27022984623909,0.383559226989746,-0.626761182173783,-0.269677827009021,0.382878625774588,6
1.27999877929688,-0.385819673538208,2.80061817169189,1.38056063652039,-0.383236695417198,2.80092033679326,1.37746020158837,2205.911,2209.198,2215.468,2210.612,356.308197021484,45.0006942749023,1.5044527053833,-0.633022606372833,-0.275742411613464,0.39053875207901,-0.639917282339435,-0.275338529371412,0.39091548206889,6
1.29999923706055,-0.398741185665131,2.79499363899231,1.388512134552,-0.396166231882091,2.79535711846185,1.38535865365334,2205.122,2209.359,2217.325,2211.221,356.329193115234,45.0007400512695,1.49625265598297,-0.646077394485474,-0.281232684850693,0.397573947906494,-0.652992789539212,-0.280964554832093,0.398903105377968,6
1.31999969482422,-0.41192239522934,2.7892599105835,1.3966052532196,-0.409356423791328,2.7896817473746,1.39341633606181,2206.649,2209.597,2216.503,2211.676,356.355560302734,45.0008354187012,1.48706042766571,-0.65906149148941,-0.286692053079605,0.404653459787369,-0.665981146317813,-0.286553081901244,0.406837489854705,6
1.34000015258789,-0.425361573696136,2.78341770172119,1.40484058856964,-0.422805463423808,2.78389500134342,1.40163214450516,2209.534,2209.963,2213.933,2211.969,356.38623046875,45.0009269714355,1.47685468196869,-0.671958208084106,-0.292109131813049,0.411768168210983,-0.678875903610019,-0.292101335726266,0.414714695865794,6
1.3599967956543,-0.439056634902954,2.77746820449829,1.41321873664856,-0.436508776648329,2.77799884848916,1.41000328471804,2212.164,2210.346,2211.302,2212.146,356.418884277344,45.0009765625,1.4657210111618,-0.68475353717804,-0.297475397586823,0.418910503387451,-0.691668290305691,-0.297605542343502,0.422529365276922,6
1.37999725341797,-0.453005433082581,2.77141237258911,1.42174029350281,-0.450469530727146,2.77199192602736,1.41853169153152,2212.682,2210.306,2210.654,2212.428,356.451141357422,45.0009574890137,1.4537011384964,-0.697439908981323,-0.30278816819191,0.426076322793961,-0.704356955827446,-0.303065120637236,0.430280673041441,6
1.39999771118164,-0.467205733060837,2.76525139808655,1.43040502071381,-0.464682951063699,2.76587628833354,1.42721444821907,2212.549,2210.788,2210.401,2212.04,356.482513427734,45.000846862793,1.44094657897949,-0.710014343261719,-0.308049947023392,0.433237582445145,-0.716933326165324,-0.308476381450513,0.437963381430462,6
1.41999816894531,-0.481655240058899,2.75898599624634,1.43921327590942,-0.47914673136562,2.75965292774086,1.43605014590267,2210.325,2210.481,2212.263,2212.088,356.512939453125,45.0007019042969,1.42763888835907,-0.722478270530701,-0.313265174627304,0.440410166978836,-0.729391385793766,-0.313836736470737,0.445573815653291,6
1.43999862670898,-0.496351897716522,2.75261735916138,1.44816470146179,-0.4938584461112,2.75332288788357,1.44503730286896,2207.955,2210.025,2214.192,2211.917,356.544189453125,45.0005531311035,1.41371846199036,-0.734831213951111,-0.318437129259109,0.447571218013763,-0.741725227577294,-0.31914364402254,0.453108367133042,6
1.45999908447266,-0.511293292045593,2.74614596366882,1.45725893974304,-0.508815552717244,2.74688726276417,1.45417436589355,2206.516,2209.412,2215.001,2211.719,356.578216552734,45.0004463195801,1.39907276630402,-0.747069180011749,-0.323565006256104,0.454714953899384,-0.753929052770513,-0.324394609067776,0.460563493506643,6
1.47999954223633,-0.526476860046387,2.73957300186157,1.46649551391602,-0.524015393706918,2.74034719582071,1.4634597115653,2206.453,2208.916,2214.186,2211.28,356.615966796875,45.000358581543,1.3836282491684,-0.759182691574097,-0.328643471002579,0.461828649044037,-0.76599717101811,-0.329587183205524,0.467935718624829,6
1.5,-0.541900038719177,2.73289966583252,1.47587370872498,-0.539455198877605,2.73370387899399,1.47289164761066,2207.432,2208.441,2212.018,2210.792,356.657135009766,45.0002899169922,1.36738121509552,-0.771160185337067,-0.333665072917938,0.468908816576004,-0.777924000354858,-0.334718964672088,0.475221632552146,6
1.51999664306641,-0.557559847831726,2.72612714767456,1.4853926897049,-0.555129074991064,2.72695984797977,1.48246657394236,2208.455,2207.934,2209.568,2210.229,356.700317382813,45.0001945495605,1.35037183761597,-0.782990634441376,-0.338623046875,0.475947797298431,-0.789701834723693,-0.339786637766398,0.482416527778586,6
1.53999710083008,-0.57345324754715,2.71925687789917,1.49505150318146,-0.571040013494911,2.72011381564173,1.49218631798906,2208.033,2207.078,2208.462,2209.749,356.743988037109,45.0000801086426,1.33258843421936,-0.794666886329651,-0.343514204025269,0.482941508293152,-0.801329803423436,-0.344789827850059,0.489519872406387,6
1.55999755859375,-0.589576900005341,2.71229004859924,1.50484883785248,-0.587181951496087,2.71316839067337,1.50204717602401,2207.848,2206.854,2206.848,2208.607,356.787841796875,44.9998931884766,1.31415677070618,-0.806184411048889,-0.348338633775711,0.489864528179169,-0.812800388649436,-0.349725300221754,0.496527073925997,6
1.57999801635742,-0.605927705764771,2.70522809028625,1.51478350162506,-0.603551689586986,2.70612494969039,1.51204719357901,2205.83,2205.955,2207.077,2207.895,356.831268310547,44.999698638916,1.29528152942657,-0.817542254924774,-0.353097975254059,0.496734857559204,-0.824108441976122,-0.354590839657789,0.503434987244577,6
1.59999847412109,-0.622502505779266,2.6980721950531,1.52485418319702,-0.620145926473056,2.69898491314762,1.52218435394475,2203.492,2204.859,2207.571,2207.094,356.875244140625,44.9995040893555,1.27591967582703,-0.82873946428299,-0.357794106006622,0.503535091876984,-0.835248923368005,-0.359384277571697,0.510240533483095,5
1.61999893188477,-0.639298021793365,2.69082355499268,1.5350593328476,-0.636961261140657,2.69174974440622,1.53245657949507,2201.514,2203.692,2207.607,2206.179,356.921020507813,44.9993324279785,1.25599348545074,-0.839773178100586,-0.362426787614822,0.510256767272949,-0.846216901179681,-0.364103492014234,0.516940699976329,5
1.63999938964844,-0.656310737133026,2.68348360061646,1.54539716243744,-0.653994195024907,2.68442094880091,1.54286173301126,2200.388,2202.547,2206.619,2205.152,356.969451904297,44.9991836547852,1.23544204235077,-0.850637257099152,-0.366992771625519,0.516893625259399,-0.857007552155828,-0.368746407673381,0.523532540272869,5
1.65999984741211,-0.673537194728851,2.67605376243591,1.5558660030365,-0.671241134177535,2.67700007270724,1.55339761900642,2200.082,2201.444,2204.607,2204.046,357.020660400391,44.9990425109863,1.2142505645752,-0.861323237419128,-0.371486872434616,0.523440778255463,-0.867616161431205,-0.373310995874343,0.530013174135115,5
1.67999649047852,-0.690973579883575,2.6685357093811,1.56646382808685,-0.688695041988866,2.66949014378176,1.56405993892551,2200.012,2200.342,2202.184,2202.874,357.073852539063,44.998908996582,1.19244813919067,-0.871822655200958,-0.375903725624084,0.529893398284912,-0.878036152828799,-0.377794427071868,0.536378584279145,5
1.69999694824219,-0.708616197109222,2.6609308719635,1.57718884944916,-0.706358800111611,2.66188992212981,1.57485045312518,2198.943,2198.876,2200.693,2201.874,357.127990722656,44.9987716674805,1.16999125480652,-0.88212913274765,-0.380239963531494,0.536251604557037,-0.888267004546665,-0.382196476749158,0.542628451944297,5
1.71999740600586,-0.726460874080658,2.65324091911316,1.58803856372833,-0.724225231782013,2.65420249571236,1.58576477743246,2198.645,2198.172,2198.199,2200.136,357.182891845703,44.9985885620117,1.14699983596802,-0.892237484455109,-0.384494364261627,0.542488515377045,-0.898302321135456,-0.386514393123025,0.548758870250362,5
1.73999786376953,-0.744503855705261,2.64546751976013,1.59901118278503,-0.742290383213093,2.64642956573347,1.59680049654058,2196.7,2196.797,2197.36,2198.943,357.237609863281,44.9983978271484,1.1236799955368,-0.902145862579346,-0.388666957616806,0.548628866672516,-0.908137821269591,-0.39074633405868,0.554767223802352,5
1.7599983215332,-0.762740910053253,2.63761234283447,1.61010432243347,-0.760550216073323,2.63857286977439,1.60795514349582,2194.311,2195.262,2196.951,2197.666,357.292633056641,44.9982147216797,1.09998893737793,-0.911853313446045,-0.392758786678314,0.554655194282532,-0.917769332013572,-0.394890504058555,0.560650963419089,4
1.77999877929688,-0.781168043613434,2.62967705726624,1.62131547927856,-0.779000609654483,2.63063418086074,1.61922620102184,2192.007,2193.693,2196.41,2196.286,357.348785400391,44.9980506896973,1.07586050033569,-0.921358168125153,-0.396769970655441,0.560560941696167,-0.927192788821983,-0.398945154262308,0.566407606133204,4
1.79999923706055,-0.799781143665314,2.62166309356689,1.63264238834381,-0.79763736303951,2.62261530652977,1.63061110284395,2190.231,2192.118,2195.24,2194.855,357.406890869141,44.9979019165039,1.05123519897461,-0.930656492710114,-0.400698751211166,0.566343069076538,-0.936404235539493,-0.402908582446823,0.572034735191139,4
1.81999969482422,-0.818576037883759,2.61357235908508,1.64408230781555,-0.816456197270346,2.61451808789761,1.64210723501345,2189.067,2190.624,2193.338,2193.303,357.467224121094,44.9977684020996,1.02610325813293,-0.93974232673645,-0.404541552066803,0.571996450424194,-0.945399824400851,-0.406779133026206,0.577530000053147,3
1.83999633789063,-0.837548077106476,2.60540652275085,1.65563273429871,-0.835449117627072,2.60634596486888,1.6537097136807,2188.276,2189.105,2190.934,2191.767,357.529388427734,44.9976501464844,1.00048410892487,-0.948609113693237,-0.408294260501862,0.577520668506622,-0.954174163352093,-0.410554485950274,0.582890106797601,3
1.8599967956543,-0.856693148612976,2.59716749191284,1.6672910451889,-0.854618942724365,2.59809772467243,1.66542026069341,2186.748,2187.316,2189.233,2190.352,357.5927734375,44.9975242614746,0.97433215379715,-0.957251250743866,-0.411953419446945,0.58291494846344,-0.962726969681477,-0.41423451957606,0.588114882720311,0
1.87999725341797,-0.876006364822388,2.58885717391968,1.67905414104462,-0.873957566090845,2.58977685529642,1.67723392393473,2186.405,2186.252,2186.154,2188.293,357.6572265625,44.9973602294922,0.947765171527863,-0.96566379070282,-0.415517270565033,0.588157415390015,-0.971053025860989,-0.417816988947023,0.593201140514831,0
1.89999771118164,-0.895483374595642,2.58047747612,1.69091963768005,-0.893460418296025,2.58138532283915,1.68914791201086,2184.531,2184.573,2184.626,2186.784,357.721557617188,44.9972152709961,0.920970678329468,-0.973844408988953,-0.418984711170197,0.593272864818573,-0.979148917665041,-0.421300425017273,0.598146794484026,0
1.91999816894531,-0.915119111537933,2.57203030586243,1.70288455486298,-0.913122862707269,2.57292512231409,1.7011593924753,2182.139,2182.762,2183.638,2185.209,357.785949707031,44.9970703125,0.893904507160187,-0.981792509555817,-0.422356307506561,0.598245739936829,-0.987011339258123,-0.424683405378145,0.60294982514457,0
1.93999862670898,-0.934909224510193,2.56351757049561,1.71494591236115,-0.932940197657643,2.56439827671719,1.71326549315307,2179.648,2180.968,2182.739,2183.521,357.851013183594,44.9969367980957,0.866514205932617,-0.989507496356964,-0.425632804632187,0.603070616722107,-0.99463709319481,-0.4279645542582,0.607608279226948,0
1.95999908447266,-0.954849004745483,2.55494141578674,1.72710084915161,-0.952907658613767,2.55580683609405,1.72546330346508,2177.414,2179.139,2181.525,2181.839,357.917419433594,44.9968185424805,0.838751435279846,-0.996987223625183,-0.428813368082047,0.607747554779053,-1.00202309041976,-0.431142542523221,0.612120269675456,0
1.97999954223633,-0.974933505058289,2.54630351066589,1.73934626579285,-0.973020420343666,2.54715287660719,1.73774987575242,2175.777,2177.341,2179.64,2180.111,357.985626220703,44.9967193603516,0.810572922229767,-1.00422763824463,-0.431895792484283,0.612273275852203,-1.00916635026771,-0.434216087676217,0.616483975648197,0
2,-0.995158016681671,2.53760600090027,1.75167918205261,-0.993273599084619,2.53843849960327,1.75012222660065,2174.552,2175.67,2177.273,2178.244,358.055572509766,44.9966163635254,0.782008707523346,-1.01122343540192,-0.434876590967178,0.61664342880249,-1.01606400046349,-0.437183953857422,0.620697642517089,0
2.01999664306641,-1.01551735401154,2.52885103225708,1.76409637928009,-1.01365835337184,2.52966750931758,1.76257495489689,2173.417,2173.93,2174.745,2176.456,358.126678466797,44.9965171813965,0.753109157085419,-1.01796996593475,-0.437752813100815,0.620861172676086,-1.02271203275434,-0.440044416427654,0.624758821703072,0
2.03999710083008,-1.03600656986237,2.52004051208496,1.77659487724304,-1.03417746715556,2.52083870789413,1.77510976131291,2171.335,2171.862,2173.17,2174.874,358.198394775391,44.9964332580566,0.723806381225586,-1.02446389198303,-0.440522432327271,0.624927699565887,-1.02911032850577,-0.442797424341804,0.628667440734183,0
2.05999755859375,-1.05662059783936,2.5111768245697,1.78917121887207,-1.05482201812353,2.5119559343546,1.78772119534738,2170.546,2170.625,2170.201,2172.51,358.270904541016,44.9963035583496,0.694228112697601,-1.0307023525238,-0.443184852600098,0.628817319869995,-1.03525504859546,-0.445441325732794,0.632421154350513,0
2.07999801635742,-1.07735443115234,2.50226211547852,1.80182254314423,-1.07558691007788,2.50302138145056,1.80040614381254,2168.329,2168.671,2168.661,2170.899,358.34326171875,44.9961929321289,0.66453218460083,-1.03668415546417,-0.445739358663559,0.632563889026642,-1.04114375428791,-0.447975071280863,0.63601847276659,0
2.09999847412109,-1.09820258617401,2.49329829216003,1.8145455121994,-1.09646699912883,2.4940372624541,1.8131614643864,2165.872,2166.671,2167.419,2169.139,358.415771484375,44.9961013793945,0.634636878967285,-1.04240918159485,-0.448186546564102,0.636147081851959,-1.04677411523768,-0.450397658303471,0.63945797241075,0
2.11999893188477,-1.11916017532349,2.48428773880005,1.82733678817749,-1.11745709586255,2.485005810225,1.82598398693703,2163.43,2164.767,2166.16,2167.247,358.488952636719,44.9960250854492,0.604494988918304,-1.04787695407867,-0.450526624917984,0.639563739299774,-1.0521439094894,-0.452708130755304,0.642738295925142,0
2.13999938964844,-1.14022183418274,2.47523260116577,1.84019315242767,-1.138551967509,2.47592927627801,1.83887051484687,2161.328,2162.809,2164.517,2165.431,358.563354492188,44.9959602355957,0.574070572853088,-1.05308568477631,-0.452758729457855,0.642817556858063,-1.05725102347782,-0.454905579228273,0.645858152165725,0
2.15999984741211,-1.16138243675232,2.46613502502441,1.85311126708984,-1.15974634010981,2.46680992985011,1.85181782633704,2159.696,2160.952,2162.37,2163.503,358.639129638672,44.9958877563477,0.543348968029022,-1.05803203582764,-0.454880803823471,0.645903289318085,-1.06209345202774,-0.456989140951513,0.648816316202266,0
2.17999649047852,-1.18263649940491,2.45699715614319,1.8660876750946,-1.18103083166728,2.45765180775279,1.86482019009156,2158.305,2159.116,2159.938,2161.579,358.716125488281,44.9958190917969,0.512360394001007,-1.06271231174469,-0.456890344619751,0.648822426795959,-1.06666845113384,-0.45895763525619,0.65161111176473,0
2.19999694824219,-1.20397901535034,2.44782137870789,1.87911927700043,-1.20240821395574,2.44845371736898,1.8778792993441,2156.179,2156.99,2158.236,2159.887,358.793792724609,44.9957695007324,0.481042265892029,-1.06712353229523,-0.458785265684128,0.6515793800354,-1.07097597819164,-0.460811043810786,0.654242512826705,0
2.21999740600586,-1.22540426254272,2.4386100769043,1.89220225811005,-1.22386905090202,2.43921971877738,1.89098938974483,2155.599,2155.622,2154.938,2157.473,358.872406005859,44.9956817626953,0.449518024921417,-1.07126307487488,-0.460564613342285,0.654150366783142,-1.07501345493598,-0.46254825725983,0.656708944366236,0
2.23999786376953,-1.24690699577332,2.42936563491821,1.90533363819122,-1.24540792547886,2.42995214277345,1.90414715211632,2153.612,2153.657,2153.031,2155.74,358.950714111328,44.99560546875,0.417943596839905,-1.07512938976288,-0.46222710609436,0.65656703710556,-1.07877930973132,-0.464168599372462,0.659009446295705,0
2.2599983215332,-1.26848149299622,2.42009019851685,1.91850984096527,-1.26701939030951,2.42065333321126,1.9173492587411,2151.252,2151.613,2151.571,2153.927,359.028747558594,44.995548248291,0.386254340410233,-1.07872319221497,-0.463773757219315,0.658812999725342,-1.08227207933222,-0.465671440555045,0.661143124741302,0
2.27999877929688,-1.29012227058411,2.41078615188599,1.93172752857208,-1.28869796983554,2.41132564607061,1.93059236468599,2148.706,2149.657,2150.318,2151.995,359.106964111328,44.9954986572266,0.354401886463165,-1.08204519748688,-0.465205490589142,0.660884857177734,-1.08549040888332,-0.467056197851165,0.663109152043028,0
2.29999923706055,-1.31182432174683,2.40145540237427,1.94498324394226,-1.31043816248474,2.40197144852433,1.94387310912637,2146.385,2147.715,2148.818,2150.08,359.185852050781,44.9954566955566,0.32236835360527,-1.08509516716003,-0.466522723436356,0.662785172462463,-1.08843305191934,-0.468322334941636,0.664906766754694,0
2.31999969482422,-1.3335816860199,2.39210104942322,1.95827353000641,-1.33223444283894,2.39259311800549,1.9571881166705,2144.377,2145.812,2146.989,2148.136,359.265838623047,44.9954109191895,0.290154695510864,-1.08787143230438,-0.467724293470383,0.664512634277344,-1.09109887036509,-0.469469362144493,0.666535273643923,0
2.33999633789063,-1.35538911819458,2.38272500038147,1.97159492969513,-1.35407709248145,2.38319483607731,1.97053145048929,2142.971,2143.892,2144.539,2146.234,359.346954345703,44.9953765869141,0.257761031389236,-1.09037137031555,-0.468808174133301,0.666068315505981,-1.09348640563071,-0.470496651869278,0.667993781680938,0
2.3599967956543,-1.37724089622498,2.37332963943481,1.98494398593903,-1.37596887940059,2.37377541175173,1.98390480150359,2140.873,2141.711,2142.791,2144.546,359.428771972656,44.9953689575195,0.225087553262711,-1.09259235858917,-0.469772279262543,0.667455971240997,-1.09559564748259,-0.471404199712748,0.669282284614185,0
2.37999725341797,-1.39913165569305,2.36391735076904,1.99831700325012,-1.39790005743958,2.36433903852774,1.99730221593832,2140.512,2140.403,2139.306,2142.006,359.511413574219,44.9953079223633,0.192288443446159,-1.09453225135803,-0.470615714788437,0.668649733066559,-1.09742530100382,-0.472191448508328,0.67039999139912,0
2.39999771118164,-1.42105543613434,2.35449028015137,2.01171088218689,-1.41986502747765,2.35488812555058,2.01072027337798,2138.619,2138.422,2137.291,2140.312,359.593566894531,44.9952621459961,0.159528329968452,-1.09618961811066,-0.471337139606476,0.669688761234283,-1.09897466165884,-0.47285809511406,0.671346471645978,0
2.41999816894531,-1.44300675392151,2.34505176544189,2.02512192726135,-1.44185817738692,2.34542508756209,2.02415554546122,2136.32,2136.492,2135.778,2138.391,359.675109863281,44.9952201843262,0.126781210303307,-1.09756600856781,-0.4719378054142,0.670550346374512,-1.10024313330221,-0.473403883025206,0.672121361178802,0
2.43999862670898,-1.46498000621796,2.33560347557068,2.0385468006134,-1.46387388420027,2.33595234396796,2.03760459720517,2133.838,2134.382,2134.47,2136.662,359.756408691406,44.9952087402344,0.0939610153436661,-1.0986635684967,-0.47241935133934,0.671241879463196,-1.10123022817855,-0.473828602374257,0.672724362035447,0
2.45999908447266,-1.48696959018707,2.32614779472351,2.05198192596436,-1.48590651627916,2.32647231790489,2.05106398832971,2131.374,2132.484,2133.177,2134.689,359.837982177734,44.9952011108398,0.0610095262527466,-1.09948301315308,-0.472782731056213,0.671753644943237,-1.10193556692257,-0.474132089930926,0.673155242467576,0
2.47999954223633,-1.50897014141083,2.31668734550476,2.06542372703552,-1.50795043548148,2.31698743530794,2.06453027458184,2129.343,2130.644,2131.42,2132.737,359.920379638672,44.9951858520508,0.0279498416930437,-1.10002386569977,-0.473027735948563,0.6720911860466,-1.10235887855907,-0.474314229102152,0.673413836940663,0
2.49999618530273,-1.53097581863403,2.30722427368164,2.0788688659668,-1.52999579362571,2.30750193357449,2.07799743986112,2127.789,2128.76,2129.184,2130.859,0.00366718671284616,44.995174407959,-0.0052021648734808,-1.10028457641602,-0.47315302491188,0.672256529331207,-1.10250000049778,-0.474374949929889,0.673500046130858,0
2.51999664306641,-1.55298089981079,2.29776120185852,2.09231400489807,-1.55204535801192,2.29801462201262,2.09146717466799,2125.756,2126.673,2127.43,2129.166,0.08757683634758,44.995174407959,359.961486816406,-1.1002631187439,-0.473156690597534,0.672252297401428,-1.10235893238473,-0.47431425226183,0.67341386982192,0
2.53999710083008,-1.57498002052307,2.28830051422119,2.1057550907135,-1.57408927882895,2.2885297387209,2.10493346190651,2125.583,2125.354,2123.879,2126.683,0.17222435772419,44.9951400756836,359.928131103516,-1.09995818138123,-0.473038017749786,0.672055244445801,-1.10193567455836,-0.474132136243598,0.673155308220598,0
2.55999755859375,-1.59696745872498,2.27884459495544,2.11918926239014,-1.59612191359838,2.27904971150017,2.11839285467467,2123.873,2123.395,2121.785,2125.051,0.256121873855591,44.9951095581055,359.894927978516,-1.09936821460724,-0.472795397043228,0.671703636646271,-1.10123038958312,-0.473828671822132,0.672724460634977,0
2.57999801635742,-1.61893737316132,2.26939582824707,2.13261270523071,-1.6181376241771,2.2695769662859,2.13184190871882,2121.707,2121.452,2120.258,2123.233,0.339100897312164,44.9951095581055,359.86181640625,-1.09849607944489,-0.472430557012558,0.671176075935364,-1.10024334841354,-0.473403975581601,0.672121492586955,0
2.59999847412109,-1.64088428020477,2.25995707511902,2.14602208137512,-1.64013077892511,2.26011392621545,2.14527718375796,2119.173,2119.55,2119.131,2121.395,0.421442747116089,44.9951210021973,359.828704833984,-1.09734451770782,-0.471945703029633,0.670474588871002,-1.09897493039424,-0.472858210743393,0.671346635812239,0
2.61999893188477,-1.66280245780945,2.25053024291992,2.15941405296326,-1.66209575487342,2.25066301069528,2.1586952448081,2116.775,2117.626,2117.876,2119.616,0.503767907619476,44.9951324462891,359.795562744141,-1.09591567516327,-0.471342653036118,0.669601857662201,-1.09742562325992,-0.472191587166126,0.670400188260345,0
2.63999938964844,-1.68468677997589,2.24111771583557,2.17278504371643,-1.68402693989188,2.24122663446822,2.17209266350648,2114.741,2115.891,2116.271,2117.673,0.586579084396362,44.9951400756836,359.762390136719,-1.09421002864838,-0.470621705055237,0.668553233146667,-1.09559602313537,-0.471404361345641,0.669282514094601,0
2.65999603271484,-1.70653128623962,2.23172187805176,2.18613171577454,-1.70591456353497,2.23180900148401,2.18546347124042,2113.161,2114.102,2114.205,2115.854,0.670063376426697,44.9951400756836,359.729248046875,-1.09222674369812,-0.469781756401062,0.667335689067841,-1.09348726343002,-0.470497020956359,0.667994305697154,0
2.67999649047852,-1.72833061218262,2.22234559059143,2.19945073127747,-1.72776139360717,2.22240892083372,2.19880935881846,2111.275,2112.097,2112.453,2114.245,0.754008591175079,44.9951553344727,359.696044921875,-1.08996474742889,-0.468821465969086,0.665952265262604,-1.09109935234628,-0.469469569527535,0.666535568078712,0
2.69999694824219,-1.75007891654968,2.21299076080322,2.21273827552795,-1.74955768413056,2.21303058593937,2.21212437257479,2111.239,2110.748,2108.982,2111.907,0.838474214076996,44.9951400756836,359.662933349609,-1.08742344379425,-0.46774023771286,0.66438090801239,-1.08843358680109,-0.468322565086308,0.664907093505606,0
2.71999740600586,-1.77177095413208,2.2036600112915,2.22599124908447,-1.77129788800495,2.2036763835632,2.22540512387247,2109.72,2108.985,2106.891,2110.229,0.921948254108429,44.9951324462891,359.630004882813,-1.08460187911987,-0.466536581516266,0.662654340267181,-1.08549099645889,-0.467056450668518,0.663109510983775,0
2.73999786376953,-1.79340100288391,2.19435572624207,2.23920655250549,-1.79297647980783,2.19434869114016,2.23864823731709,2107.671,2107.088,2105.426,2108.573,1.00417804718018,44.9951438903809,359.597290039063,-1.08150362968445,-0.465212672948837,0.660760760307312,-1.08227271937422,-0.465671715947234,0.661143515732969,0
2.7599983215332,-1.81496381759644,2.1850802898407,2.25238037109375,-1.81458795796224,2.18504987584512,2.25185035208115,2105.222,2105.269,2104.41,2106.833,1.08542132377625,44.9951705932617,359.564666748047,-1.07813262939453,-0.463771253824234,0.658697009086609,-1.07878000199166,-0.464168897232749,0.659009869186748,0
2.77999877929688,-1.83645367622375,2.17583608627319,2.26550960540771,-1.83612684690458,2.17578229366013,2.2650081232283,2102.801,2103.488,2103.379,2105.117,1.16630792617798,44.9952087402344,359.532104492188,-1.07449185848236,-0.462214678525925,0.656466245651245,-1.07501419914593,-0.462548577472581,0.656709398992482,0
2.79999923706055,-1.85786521434784,2.16662502288818,2.27859091758728,-1.85758769925251,2.16654828844162,2.27811822303765,2100.88,2101.833,2101.871,2103.31,1.24744987487793,44.9952392578125,359.499633789063,-1.07058274745941,-0.460543751716614,0.654066979885101,-1.07097677406178,-0.460811386251471,0.65424299901135,0
2.81999969482422,-1.87919330596924,2.1574501991272,2.29162096977234,-1.87896509797278,2.15735019098767,2.29117734232814,2099.448,2100.25,2099.889,2101.492,1.32902884483337,44.9952507019043,359.46728515625,-1.06640529632568,-0.458757966756821,0.651502072811127,-1.06666929835407,-0.458957999791384,0.651611629318345,0
2.83999633789063,-1.90043258666992,2.14831280708313,2.30459642410278,-1.90024960698239,2.14819206138118,2.30417971674389,2098.443,2098.488,2097.522,2099.878,1.41080391407013,44.9952735900879,359.435089111328,-1.06195914745331,-0.456856042146683,0.648777663707733,-1.06209435025759,-0.456989527434725,0.648816864916866,0
2.8599967956543,-1.92157745361328,2.13921594619751,2.31751418113708,-1.9214439980555,2.13907270700516,2.31712703951851,2096.588,2096.675,2096.02,2098.32,1.49217545986176,44.9953002929688,359.402984619141,-1.05724465847015,-0.45483735203743,0.645891547203064,-1.05725197237562,-0.454905987512489,0.645858731832587,0
2.87999725341797,-1.94262290000916,2.13016223907471,2.33037066459656,-1.94253888918396,2.12999616467562,2.3300135793296,2096.364,2095.442,2093.051,2096.108,1.57329702377319,44.9953079223633,359.371124267578,-1.05226385593414,-0.452703058719635,0.642827272415161,-1.05214490868305,-0.452708560680416,0.642738906316949,0
2.89999771118164,-1.96356308460236,2.1211531162262,2.34316301345825,-1.96352900640172,2.1209647036328,2.34283611439361,2094.64,2093.633,2091.45,2094.759,1.65295994281769,44.9953308105469,359.339538574219,-1.04701733589172,-0.450452923774719,0.639621615409851,-1.04677516433438,-0.450398109700476,0.639458613287558,0
2.91999816894531,-1.9843932390213,2.11219120025635,2.35588788986206,-1.98440911693069,2.11198057539494,2.35559144808806,2092.519,2092.09,2090.373,2092.996,1.73122048377991,44.9953575134277,359.308227539063,-1.04151034355164,-0.44809028506279,0.636248350143433,-1.04114485287423,-0.447975543971863,0.636019143875825,0
2.93999862670898,-2.00510811805725,2.10327887535095,2.36854243278503,-2.00517403134858,2.10304601282548,2.36827641027585,2090.207,2090.406,2089.488,2091.49,1.8085378408432,44.9954032897949,359.277160644531,-1.03574693202972,-0.445617824792862,0.632722198963165,-1.03525619623725,-0.445441819530995,0.632421855426973,0
2.95999908447266,-2.02570295333862,2.09441804885864,2.38112330436707,-2.02581860575671,2.0941632292003,2.38088785862954,2088.224,2088.785,2088.331,2089.915,1.88554072380066,44.9954452514648,359.246307373047,-1.0297304391861,-0.443037390708923,0.629038035869598,-1.02911152474823,-0.442797939051516,0.628668171500036,0
2.97999954223633,-2.04617214202881,2.08561110496521,2.39362716674805,-2.04633774394789,2.08533441727499,2.3934226799557,2086.677,2087.241,2086.773,2088.316,1.96259129047394,44.9954833984375,359.215667724609,-1.02346253395081,-0.440349400043488,0.625197768211365,-1.022713277122,-0.440044951844293,0.624759581867857,0
2.99999618530273,-2.06651067733765,2.07685995101929,2.40605115890503,-2.06672252359526,2.07656341607755,2.40587542374406,2085.712,2085.786,2084.692,2086.661,2.03968620300293,44.9955177307129,359.185272216797,-1.0169438123703,-0.437553405761719,0.621202230453491,-1.01606529245116,-0.437184509763622,0.620698431772196,0
3.01999664306641,-2.08671426773071,2.06816697120667,2.41839241981506,-2.08697572864857,2.06784902775215,2.41824779066609,2084.207,2084.129,2083.126,2085.299,2.11633467674255,44.9955596923828,359.155059814453,-1.01017498970032,-0.434648722410202,0.617061257362366,-1.00916768936771,-0.434216663853534,0.616484793683489,0
3.03999710083008,-2.10677766799927,2.05953407287598,2.43064761161804,-2.10708851762775,2.05919505654068,2.43053437959959,2084.098,2082.933,2080.38,2083.34,2.19250845909119,44.9955711364746,359.125213623047,-1.00315845012665,-0.431636452674866,0.612755537033081,-1.00202447609459,-0.431143138740389,0.612121116162586,0
3.05999755859375,-2.12669539451599,2.05096387863159,2.44281387329102,-2.12705600675913,2.05060360379452,2.44273220712343,2082.64,2081.431,2078.856,2081.975,2.26704502105713,44.9955978393555,359.095764160156,-0.995895624160767,-0.428516566753387,0.608313977718353,-0.994638524886308,-0.427965170275055,0.607609153824944,0
3.07999801635742,-2.14646339416504,2.04245805740356,2.45488834381104,-2.14687337079936,2.04207674568107,2.45483832557174,2080.932,2079.922,2077.698,2080.529,2.33991813659668,44.9956474304199,359.066680908203,-0.988391995429993,-0.425292402505875,0.603724658489227,-0.987012816387451,-0.424684040945629,0.602950727499826,0
3.09999847412109,-2.16607618331909,2.03401851654053,2.46686816215515,-2.16653584520328,2.033616532251,2.46684982435823,2078.768,2078.428,2077.018,2079.144,2.41136980056763,44.9957122802734,359.037963867188,-0.980652630329132,-0.421966969966888,0.598991394042969,-0.979150439632689,-0.421301079877433,0.598147724230312,0
3.11999893188477,-2.1855297088623,2.02564787864685,2.47875046730042,-2.18603872829175,2.02522498650551,2.47876383130049,2076.902,2077.13,2076.096,2077.597,2.48205375671387,44.9957656860352,359.009582519531,-0.972682178020477,-0.418543189764023,0.594111204147339,-0.971054592046769,-0.41781766283301,0.593202097273285,0
3.13999938964844,-2.20481967926025,2.01734733581543,2.49053239822388,-2.20537738341953,2.01690410346351,2.49057751394429,2075.469,2075.662,2074.764,2076.313,2.55238270759583,44.9958267211914,358.981536865234,-0.964483141899109,-0.415021926164627,0.589095771312714,-0.962728579444533,-0.414235212212131,0.588115866099442,0
3.15999603271484,-2.2239408493042,2.00911927223206,2.50221109390259,-2.22454360124808,2.00865741537402,2.50228585733282,2074.382,2074.359,2073.166,2074.857,2.62240266799927,44.9958724975586,358.953857421875,-0.956057786941528,-0.411403447389603,0.583937406539917,-0.95417746870157,-0.410555908149813,0.582892125984019,0
3.17999649047852,-2.24288868904114,2.00096559524536,2.51378393173218,-2.2435401949712,2.00048371179835,2.51389058000227,2073.171,2072.901,2071.699,2073.648,2.69188952445984,44.9959259033203,358.926452636719,-0.947407424449921,-0.40768763422966,0.578647255897522,-0.9454015193052,-0.406779862296197,0.577531035443764,0
3.19999694824219,-2.26165962219238,1.9928879737854,2.5252480506897,-2.2623590635174,1.99238647840124,2.5253867331345,2073.379,2071.997,2069.048,2071.749,2.76072978973389,44.9959449768066,358.899566650391,-0.938535273075104,-0.40387549996376,0.573205709457397,-0.936405971974636,-0.402909329586355,0.572035795952272,0
3.21999740600586,-2.28024816513062,1.98488879203796,2.53660106658936,-2.28099585204123,1.98436758895103,2.53677165642235,2072.142,2070.582,2067.671,2070.721,2.8276641368866,44.995979309082,358.873199462891,-0.929442524909973,-0.399966895580292,0.567650973796844,-0.927194566064376,-0.398945918960059,0.566408691822848,0
3.23999786376953,-2.29865121841431,1.97696948051453,2.54784035682678,-2.29944628156995,1.97642888457015,2.54804273590817,2070.743,2069.297,2066.63,2069.399,2.89263248443604,44.9960479736328,358.847351074219,-0.920136332511902,-0.395965486764908,0.561960518360138,-0.917771149318993,-0.394891285994308,0.560652073582612,0
3.2599983215332,-2.31686353683472,1.96913170814514,2.55896329879761,-2.31770615117141,1.96857217280235,2.55919740530806,2068.751,2067.95,2066.174,2068.282,2.95579171180725,44.9961204528809,358.821929931641,-0.910622119903564,-0.391874611377716,0.556146144866943,-0.908139677873146,-0.390747132903322,0.554768357972493,0
3.27999877929688,-2.33488130569458,1.96137809753418,2.56996726989746,-2.33577134012187,1.96079922667992,2.57023314733618,2067.073,2066.899,2065.483,2066.881,3.01781845092773,44.9961929321289,358.796966552734,-0.900905847549438,-0.387697905302048,0.550199806690216,-0.898304216251578,-0.386515208538549,0.548760027947228,0
3.29999923706055,-2.35270118713379,1.95370936393738,2.58084988594055,-2.35363781007389,1.95311178379095,2.5811474950291,2065.879,2065.681,2064.331,2065.772,3.07914471626282,44.9962577819824,358.7724609375,-0.890990793704987,-0.383436590433121,0.544136822223663,-0.888268937369113,-0.38219730838866,0.542629632675369,0
3.31999588012695,-2.37031888961792,1.94612753391266,2.59160900115967,-2.37129825777079,1.94551298652277,2.59193598694128,2064.92,2064.583,2063.019,2064.554,3.13979029655457,44.9963150024414,358.748474121094,-0.880880177021027,-0.379091501235962,0.537951231002808,-0.878040092225563,-0.377796122084242,0.536380990795156,0
3.33999633789063,-2.38773059844971,1.93863415718079,2.60224199295044,-2.38875555478454,1.93800159931817,2.60260037727124,2063.875,2063.332,2061.818,2063.57,3.19960069656372,44.9963722229004,358.724884033203,-0.870576500892639,-0.37466299533844,0.531652927398682,-0.867618167158097,-0.373311858882592,0.530014399402376,0
3.3599967956543,-2.40493226051331,1.9312310218811,2.61274647712708,-2.40600253440574,1.930580705812,2.61313628798802,2064.139,2062.577,2059.562,2061.95,3.25850701332092,44.9964027404785,358.701904296875,-0.860083878040314,-0.370152473449707,0.525224149227142,-0.85700959304645,-0.368747285811601,0.523533787021104,0
3.37999725341797,-2.42192029953003,1.92391991615295,2.62312054634094,-2.42303550945299,1.9232518924954,2.62354146665005,2063.374,2061.483,2058.196,2061.005,3.31539940834045,44.9964485168457,358.679565429688,-0.849404215812683,-0.365560084581375,0.518697798252106,-0.846218976345105,-0.364104384899943,0.516941967662506,0
3.39999771118164,-2.43869090080261,1.91670215129852,2.63336181640625,-2.43985088596004,1.91601670575165,2.63381371775943,2062.191,2060.35,2057.374,2060.022,3.37001419067383,44.9965133666992,358.657867431641,-0.83854466676712,-0.360889256000519,0.512062191963196,-0.835251031898626,-0.359385184813519,0.51024182155155,0
3.41999816894531,-2.45524120330811,1.90957927703857,2.64346814155579,-2.45644516534361,1.90887665092339,2.64395090408624,2060.657,2059.358,2056.953,2058.969,3.42251133918762,44.9965972900391,358.636779785156,-0.827512204647064,-0.356144040822983,0.505317986011505,-0.824110582941664,-0.354591760855451,0.503436295127018,0
3.43999862670898,-2.47156763076782,1.90255260467529,2.65343761444092,-2.47281494657125,1.90183319137989,2.6539509479928,2059.066,2058.347,2056.61,2058.053,3.47337698936462,44.9966773986816,358.6162109375,-0.816312909126282,-0.351327836513519,0.498473018407822,-0.812802561098952,-0.34972623496609,0.496528401041508,0
3.45999908447266,-2.48766660690308,1.89562368392944,2.66326808929443,-2.48895692832918,1.89488774758421,2.66381183275806,2057.904,2057.485,2055.917,2057.022,3.52316308021545,44.9967613220215,358.596252441406,-0.804952204227448,-0.346443325281143,0.491524815559387,-0.801332006385299,-0.344790775723006,0.489521218161412,0
3.47999572753906,-2.50353527069092,1.88879382610321,2.6729576587677,-2.50486489870395,1.88804299234919,2.67352976362102,2057.323,2056.672,2054.722,2056.008,3.57207608222961,44.9968147277832,358.576873779297,-0.793433725833893,-0.341491609811783,0.484479188919067,-0.789706299681989,-0.339788558913217,0.482419255351936,0
3.49999618530273,-2.51917028427124,1.88206422328949,2.68250465393066,-2.52054183223243,1.88129764581471,2.68310655767985,2056.576,2055.671,2053.702,2055.289,3.61984491348267,44.996883392334,358.55810546875,-0.781760573387146,-0.336473077535629,0.477345913648605,-0.777926261338517,-0.334719937510192,0.475223013751781,0
3.51999664306641,-2.53456926345825,1.87543666362762,2.69190669059753,-2.53598168290031,1.87465430941181,2.69253852151874,2057.026,2055.124,2051.769,2053.948,3.6663498878479,44.9969177246094,358.540069580078,-0.769937992095947,-0.331389576196671,0.470106780529022,-0.765999459475408,-0.329588167864767,0.467937116607681,0
3.53999710083008,-2.54972839355469,1.86891186237335,2.70116257667542,-2.55118156992615,1.86811422266028,2.70182389531326,2056.473,2054.132,2050.705,2053.397,3.7105450630188,44.9969787597656,358.522796630859,-0.757968664169312,-0.326241433620453,0.462796986103058,-0.753931367647136,-0.324395605094516,0.460564907628649,0
3.55999755859375,-2.56464576721191,1.86249113082886,2.71027040481567,-2.56613872308604,1.86167857751006,2.71096098677687,2055.584,2053.442,2050.131,2052.44,3.75220155715942,44.9970588684082,358.506195068359,-0.745861291885376,-0.321033030748367,0.455394387245178,-0.741727567798258,-0.319144650954242,0.45310979673751,0
3.57999801635742,-2.57931804656982,1.85617589950562,2.71922874450684,-2.58085048488145,1.85534851740854,2.71994817248517,2054.226,2052.63,2050.014,2051.798,3.79145908355713,44.9971542358398,358.490325927734,-0.733622431755066,-0.315768122673035,0.447917193174362,-0.72939375026341,-0.313837753835969,0.445575260070899,0
3.59999847412109,-2.59374356269836,1.84996676445007,2.72803592681885,-2.59531431270705,1.84912513636775,2.72878389920025,2053.111,2051.975,2049.757,2051.004,3.82886290550232,44.997241973877,358.475158691406,-0.721259713172913,-0.310450911521912,0.440359264612198,-0.716935713767317,-0.308477408768949,0.437964839979262,0
3.61999893188477,-2.60791921615601,1.84386515617371,2.73669052124023,-2.6095277810186,1.84300947803163,2.73746668519498,2052.145,2051.341,2049.375,2050.326,3.86479139328003,44.9973258972168,358.460693359375,-0.70877867937088,-0.305083870887756,0.432729661464691,-0.704359365424783,-0.303066157419654,0.430282145026854,0
3.63999938964844,-2.62184286117554,1.83787178993225,2.74519109725952,-2.6234885835008,1.83700253474321,2.74599512157732,2051.861,2050.777,2048.443,2049.58,3.899498462677,44.9973983764648,358.446960449219,-0.696184575557709,-0.299668818712234,0.425028145313263,-0.691670720740692,-0.297606588091786,0.422530849991739,0
3.65999603271484,-2.63551235198975,1.83198750019073,2.75353622436523,-2.63719194552437,1.83110636089208,2.75436629160077,2051.798,2050.231,2047.359,2048.901,3.93270516395569,44.9974594116211,358.434020996094,-0.683481574058533,-0.294206768274307,0.417261153459549,-0.678878353700696,-0.292102389931838,0.414716192587956,0
3.67999649047852,-2.64892578125,1.82621359825134,2.76172494888306,-2.65064103434641,1.825319593696,2.76258213009327,2051.392,2049.583,2046.654,2048.422,3.96395802497864,44.9975280761719,358.421875,-0.670674681663513,-0.288699209690094,0.409435629844666,-0.665983614869008,-0.28655414404986,0.40683899785411,0
3.69999694824219,-2.66208148002625,1.82055044174194,2.76975584030151,-2.66383127580226,1.81964420129024,2.77063984276899,2051.703,2049.167,2045.47,2047.612,3.99312448501587,44.9975891113281,358.410552978516,-0.657770872116089,-0.283149033784866,0.401542872190475,-0.65299527533123,-0.280965624398954,0.398904623909523,0
