t,x_s1,x_s2,x_s3,x_s_d1,x_s_d2,x_s_d3,propellers_rpms1,propellers_rpms2,propellers_rpms3,propellers_rpms4,rollRad,pitchRad,yawRad,v_s1,v_s2,v_s3,v_s_d1,v_s_d2,v_s_d3,insideCount
0,-0.0599999986588955,2.94000005722046,1.17999994754791,-0.0599999986588955,2.94000005722046,1.17999994754791,0,0,0,0,0,0,0,0,0,0,-1.06581410364015E-15,4.44089209850063E-16,4.44089209850063E-16,0
0.02001953125,-0.0599999986588955,2.94000005722046,1.17811644077301,-0.0600018744611685,2.93999925011514,1.18000110875888,0,0,0,0,-0.01635288,0.0001297794,-0.01587137,-1.10653664009419E-09,-7.76775763711157E-08,-0.0941759571433067,-0.000280531511337879,-0.000120704872184653,0.000173662369087018,5
0.03997802734375,-0.0599999986588955,2.94000005722046,1.17242503166199,-0.060014847005691,2.93999366839165,1.1800091393819,0,0,0,0,-0.03270202,0.0005238493,-0.03175127,-1.08383135799528E-09,-7.60859677484405E-08,-0.284568399190903,-0.00110975851463131,-0.000477498085781228,0.000686993385685745,5
0.05999755859375,-0.0599058791995049,2.93990302085876,1.16596531867981,-0.0600498857373401,2.93997859220429,1.18003083002592,1867.171,3252.586,3184.588,1722.885,-0.04941709,0.000328197,-0.01369238,0.00470605166628957,-0.00484959501773119,-0.322985053062439,-0.00247936261166862,-0.00106680046642749,0.00153484356504269,5
0.08001708984375,-0.0598203614354134,2.93960738182068,1.16000306606293,-0.0601176241590912,2.9399494462538,1.18007276333581,1926.338,2314.582,3251.154,2829.281,-0.07542125,-0.002135322,0.02094574,0.00427595200017095,-0.0147764608263969,-0.298115670681,-0.00437432711648753,-0.0018821507536715,0.00270791686320324,5
0.0999755859375,-0.0599374249577522,2.93904519081116,1.15498638153076,-0.0602280337026576,2.93990194011169,1.18014111210282,980.8305,1498.918,3914.575,3896.382,-0.1031874,-0.008060323,0.06330064,-0.00585309555754066,-0.0281126461923122,-0.250835418701172,-0.00677334142420609,-0.00291437958958193,0.00419302100058057,4
0.1199951171875,-0.0604638196527958,2.93818378448486,1.15081334114075,-0.0603918861403606,2.93983143898525,1.18024254456713,345.6255,979.967,4174.096,4613.36,-0.1214236,-0.0154197,0.1039954,-0.0263197217136621,-0.0430656969547272,-0.208649262785912,-0.00967801353495435,-0.00416417885169243,0.00599115140585487,4
0.1400146484375,-0.0615634694695473,2.93704152107239,1.14728283882141,-0.0606187761383957,2.93973381455767,1.18038300028418,353.4261,747.6968,3974.404,4854.705,-0.1253939,-0.02116414,0.1350981,-0.0549825355410576,-0.0571087971329689,-0.176524430513382,-0.0130687916036232,-0.00562313592726786,0.00809020455552005,4
0.15997314453125,-0.0633405670523643,2.93568134307861,1.14427483081818,-0.0609172730813211,2.93960537966217,1.18056778411123,821.4699,815.2535,3462.167,4692.214,-0.1184622,-0.02352051,0.1522613,-0.0888549536466599,-0.0680083483457565,-0.150400757789612,-0.0169203082141145,-0.00728033592584475,0.0104744768105937,3
0.17999267578125,-0.0658465474843979,2.93417286872864,1.14182579517365,-0.0612985250199726,2.93944133760391,1.18080379722281,1347.548,1082.304,3008.946,4255.235,-0.1079795,-0.02277961,0.1557769,-0.125299125909805,-0.0754286199808121,-0.122450411319733,-0.0212433804254414,-0.00914043312572283,0.0131506644458931,3
0.20001220703125,-0.0690844058990479,2.93255472183228,1.14006173610687,-0.0617708265342762,2.93923811945689,1.181096174359,1636.755,1381.677,2917.262,3666.566,-0.09982327,-0.02030021,0.150158,-0.161892890930176,-0.080912321805954,-0.0882024168968201,-0.0260142813927851,-0.0111932185284278,0.0161040794142088,3
0.219970703125,-0.0730095207691193,2.93082714080811,1.13903546333313,-0.0623411120546116,2.93899274152942,1.18144920826256,1642.38,1581.168,3146.921,3113.05,-0.09584344,-0.01735263,0.1421872,-0.196255624294281,-0.0863799899816513,-0.0513145439326763,-0.0312039351396938,-0.0134261815535814,0.0193167223010366,3
0.239990234375,-0.0775491818785667,2.92897462844849,1.13863360881805,-0.0630214373585105,2.93870001655724,1.18187036203406,1522.591,1622.998,3420.221,2777.788,-0.09475687,-0.01467934,0.1377364,-0.226983308792114,-0.0926216021180153,-0.0200931336730719,-0.0368316683029241,-0.015847637913056,0.022800557215184,3
0.260009765625,-0.0826378911733627,2.92699360847473,1.13863575458527,-0.0638185570309634,2.93835703823113,1.18236381708338,1439.264,1501.351,3532.105,2744.388,-0.09438403,-0.01258823,0.1393031,-0.254435658454895,-0.0990541130304337,0.00010562501847744,-0.0428699302682246,-0.0184457333472145,0.0265385290140116,3
0.27996826171875,-0.0882435664534569,2.92490196228027,1.13885200023651,-0.064737558267485,2.93796161767298,1.18293272262689,1401.984,1276.76,3475.02,2977.142,-0.0932133,-0.01110272,0.145677,-0.280283868312836,-0.104577399790287,0.0108110783621669,-0.0492862758204926,-0.0212065075864124,0.030510552563791,3
0.29998779296875,-0.0943692997097969,2.92273378372192,1.13920760154724,-0.0657918945890516,2.93750796620855,1.18358540703494,1348.835,1060.301,3348.119,3324.921,-0.09053203,-0.009936254,0.1533093,-0.30628690123558,-0.108403764665127,0.0177825409919024,-0.0561078595514081,-0.0241416444928383,0.0347334378503248,3
0.32000732421875,-0.101034387946129,2.92052698135376,1.13972532749176,-0.0669865614821475,2.93699393441958,1.18432496275165,1281.139,941.6393,3236.294,3590.819,-0.08597004,-0.008523181,0.1583594,-0.333254605531693,-0.110339447855949,0.0258892327547073,-0.0633036493784043,-0.0272377918282996,0.0391879745362408,3
0.3399658203125,-0.108249709010124,2.91831350326538,1.14046132564545,-0.0683246067173459,2.93641821093553,1.18515327649217,1255.061,945.2717,3168.875,3649.073,-0.07944955,-0.006288789,0.1584686,-0.360765844583511,-0.110672913491726,0.0368026569485664,-0.0708381612402705,-0.0304796817925674,0.0438521962973096,4
0.3599853515625,-0.116001203656197,2.91611647605896,1.1414532661438,-0.0698213312158394,2.93577421219747,1.18607982025561,1317.536,1045.606,3124.24,3498.41,-0.07155009,-0.002964631,0.1534747,-0.387574940919876,-0.109854809939861,0.0495975092053413,-0.0787457139191101,-0.0338820807988248,0.0487473480944833,4
0.3800048828125,-0.124249309301376,2.91395139694214,1.14270782470703,-0.0714797725314022,2.93506063123087,1.18710647443246,1455.182,1181.947,3089.564,3232.153,-0.06360694,0.001258036,0.1450415,-0.412405967712402,-0.108254551887512,0.0627273619174957,-0.0869921272359981,-0.0374302820709642,0.0538522707687797,4
0.4000244140625,-0.132940828800201,2.91182827949524,1.14421677589417,-0.0733065984369745,2.93427459907931,1.1882373666918,1582.197,1274.892,3102.323,2980.457,-0.05702041,0.005829845,0.1357392,-0.434576094150543,-0.106158964335918,0.0754464119672775,-0.0955658248284375,-0.0411193046236092,0.0591597980003546,4
0.41998291015625,-0.142021015286446,2.909752368927,1.14595746994019,-0.075301871434707,2.93341608884986,1.18947253572543,1631.515,1288.654,3159.299,2844.451,-0.0524696,0.01017631,0.1278487,-0.454009264707565,-0.103795558214188,0.0870350897312164,-0.104427768518458,-0.0449323514193797,0.064645763297398,4
0.44000244140625,-0.15144345164299,2.90772652626038,1.14789688587189,-0.077483988232608,2.93247718495301,1.19082336997196,1602.298,1236.313,3224.448,2844.163,-0.0496802,0.01396766,0.1224747,-0.471122056245804,-0.101293817162514,0.0969720333814621,-0.113620829717891,-0.048887868829098,0.0703367061060819,4
0.46002197265625,-0.161173969507217,2.90575361251831,1.14999735355377,-0.0798530997696509,2.93145782244394,1.19228996286983,1541.919,1158.566,3250.644,2939.126,-0.04788097,0.01718272,0.1193557,-0.486525863409042,-0.0986476019024849,0.105025991797447,-0.123107133063502,-0.0529695601420796,0.0762091797723108,4
0.47998046875,-0.171190589666367,2.90383791923523,1.15223813056946,-0.082406855753501,2.93035901258777,1.1938708594761,1479.448,1087.602,3244.479,3064.465,-0.04628627,0.01999154,0.1173747,-0.500831484794617,-0.0957802906632423,0.112041138112545,-0.132845337826091,-0.057159637597476,0.0822375924153778,5
0.5,-0.181478098034859,2.90198516845703,1.15461587905884,-0.085166398670376,2.92917165836334,1.1955791479969,1428.344,1044.757,3220.496,3170.792,-0.0443427,0.02263902,0.1152359,-0.51437509059906,-0.0926407352089882,0.118888027966022,-0.142884000065179,-0.0614789935111996,0.0884520025491718,5
0.52001953125,-0.192021235823631,2.90020060539246,1.15713429450989,-0.0881295333471192,2.92789670429234,1.19741346951549,1422.1,1045.012,3176.285,3212.74,-0.04192029,0.0253737,0.1118991,-0.527156889438629,-0.0892310589551926,0.125923648476601,-0.153182839569029,-0.0659102964334391,0.0948274748038155,5
0.53997802734375,-0.202801465988159,2.89848780632019,1.15980887413025,-0.0912913676125048,2.92653625533937,1.19937079554481,1449.871,1074.861,3146.127,3181.715,-0.03929654,0.02829207,0.1070379,-0.539012253284454,-0.0856394618749619,0.13372614979744,-0.16369851368286,-0.0704348972306956,0.101337178011302,5
0.55999755859375,-0.21379491686821,2.89684700965881,1.16265344619751,-0.094676112580471,2.92507989413848,1.20146611391775,1480.208,1112.641,3143.263,3114.916,-0.03689224,0.0313235,0.1010621,-0.549672484397888,-0.0820347964763641,0.142227321863174,-0.17448465888317,-0.0750758741803766,0.108014315705644,5
0.58001708984375,-0.224973171949387,2.89527535438538,1.16566777229309,-0.0982790918331175,2.92352963282165,1.20369652970884,1520.622,1148.883,3143.995,3036.685,-0.03511751,0.03434341,0.09465924,-0.558911979198456,-0.0785823985934258,0.150715872645378,-0.185498893714783,-0.0798149917263209,0.114832651747179,5
0.5999755859375,-0.236307770013809,2.8937668800354,1.16885030269623,-0.102092760004862,2.92188871794891,1.20605737197736,1546.575,1168.4,3160.215,2975.186,-0.03428553,0.03716765,0.08859847,-0.566730320453644,-0.0754200965166092,0.159127995371819,-0.196696165293826,-0.0846328648712294,0.121764296254622,5
0.6199951171875,-0.247773170471191,2.8923134803772,1.17219507694244,-0.106144683970236,2.92014528826426,1.20856570593183,1529.807,1166.056,3186.971,2965.724,-0.03443094,0.03962745,0.08346654,-0.573270499706268,-0.0726673528552055,0.167235895991325,-0.208134604141382,-0.0895545055543457,0.128845234789665,5
0.6400146484375,-0.259348332881927,2.89090585708618,1.17568671703339,-0.110427588881679,2.91830247393137,1.21121702809507,1505.223,1156.138,3193.12,2989.923,-0.03534281,0.04169399,0.07930841,-0.578759014606476,-0.0703849494457245,0.174582317471504,-0.21977002223474,-0.0945609009039674,0.136048112861281,5
0.65997314453125,-0.271018087863922,2.88953399658203,1.17931926250458,-0.114931182097002,2.91636470358665,1.21400496683125,1473.369,1145.527,3194.73,3026.656,-0.03677613,0.04339101,0.07588935,-0.583486974239349,-0.0685968324542046,0.181628689169884,-0.231555939228262,-0.0996320517258771,0.143344156921357,5
0.67999267578125,-0.28277114033699,2.88818740844727,1.18309020996094,-0.119686638739014,2.91431856344567,1.21694882102647,1423.48,1138.647,3195.491,3077.26,-0.03845551,0.0447707,0.07289558,-0.587654531002045,-0.0673279240727425,0.188549116253853,-0.243554411173546,-0.104794659005432,0.150771782621969,5
0.70001220703125,-0.294598072767258,2.88685584068298,1.18699181079865,-0.124683985757554,2.91216834463331,1.22004241688759,1403.183,1145.995,3175.182,3105.09,-0.04015994,0.04596375,0.06986827,-0.591347336769104,-0.0665788501501083,0.195082411170006,-0.255719729227087,-0.11002905550423,0.158302694011575,5
0.719970703125,-0.306490331888199,2.88552856445313,1.19102704524994,-0.129910105849058,2.90991969115882,1.22327763417886,1401.508,1164.101,3160.39,3101.046,-0.04191869,0.04702911,0.06660603,-0.594613075256348,-0.0663591623306274,0.201764434576035,-0.268004259419652,-0.115314745656047,0.165907403394098,5
0.739990234375,-0.31843888759613,2.88419437408447,1.19519984722137,-0.135400001298574,2.90755754251682,1.2266761409821,1385.583,1184.295,3158.739,3096.634,-0.04384096,0.04794725,0.0632286,-0.597426176071167,-0.0667110159993172,0.208637952804565,-0.280473432677602,-0.12067988256057,0.173626415629864,5
0.760009765625,-0.330433905124664,2.88284111022949,1.19950389862061,-0.141140917956636,2.9050873864615,1.23023004187122,1391.053,1207.215,3147.517,3077.944,-0.04599226,0.04873137,0.05982,-0.599752187728882,-0.0676632300019264,0.215203434228897,-0.293080296154222,-0.126104263719567,0.181430664670081,5
0.77996826171875,-0.342466682195663,2.88145613670349,1.20394062995911,-0.147116852635298,2.90251610871756,1.23392943011056,1396.248,1227.628,3147.916,3052.457,-0.04852492,0.04932797,0.05662213,-0.601638913154602,-0.0692521706223488,0.221834987401962,-0.305776327165692,-0.131567011177758,0.189290112662009,5
0.79998779296875,-0.354529738426208,2.88002562522888,1.20850920677185,-0.153366821193532,2.89982692185086,1.2377984583754,1366.328,1240.02,3159.336,3057.738,-0.05148636,0.04965537,0.0539461,-0.603151321411133,-0.0715204253792763,0.228428348898888,-0.318629798715703,-0.137097500901303,0.197247023847227,5
0.82000732421875,-0.366617441177368,2.87853622436523,1.21319794654846,-0.159875221826383,2.89702653888221,1.24182746840525,1351.278,1250.32,3154.08,3065.537,-0.05473808,0.04973671,0.0517694,-0.60438460111618,-0.0744674727320671,0.234439581632614,-0.331592781842754,-0.14267511039705,0.205271727915392,4
0.8399658203125,-0.378727108240128,2.87697434425354,1.2180050611496,-0.166623119864544,2.89412310687084,1.24600473873783,1336.364,1260.519,3152.729,3070.897,-0.05823375,0.04957038,0.05007283,-0.605485022068024,-0.0780922025442123,0.240355581045151,-0.344616121128287,-0.148278689461635,0.213333795320821,4
0.8599853515625,-0.390858173370361,2.87532663345337,1.22292900085449,-0.173653699721778,2.89109804476993,1.25035700258242,1291.957,1268.722,3157.043,3100.996,-0.06188654,0.04914595,0.04887595,-0.606554090976715,-0.0823914781212807,0.246198773384094,-0.357770416714212,-0.153938615363784,0.221476930914505,4
0.8800048828125,-0.403011381626129,2.87358021736145,1.22795915603638,-0.180948461186242,2.88795931270381,1.25487280742661,1275.865,1280.319,3143.068,3117.299,-0.06550364,0.04855175,0.04792943,-0.607659876346588,-0.0873212441802025,0.251509249210358,-0.371007022483504,-0.159633957038354,0.229671020432672,4
0.9000244140625,-0.415188908576965,2.87172293663025,1.23309659957886,-0.188508963212068,2.88470623989808,1.25955311833725,1269.888,1296.108,3135.549,3115.81,-0.06909305,0.04781792,0.04714654,-0.608877599239349,-0.0928604826331139,0.256870865821838,-0.384317079523421,-0.165360902742685,0.237910579786325,4
0.91998291015625,-0.42739325761795,2.86974310874939,1.2383406162262,-0.196312316554895,2.88134867495511,1.26438376578173,1245.95,1311.658,3132.514,3128.351,-0.07271442,0.04693537,0.04659863,-0.610218584537506,-0.098987303674221,0.262199699878693,-0.397650971463704,-0.171098103938772,0.246164894078718,4
0.94000244140625,-0.439627587795258,2.86762928962708,1.24369060993195,-0.204407453948074,2.87786556348678,1.26939504145298,1223.819,1325.368,3135.74,3134.574,-0.07624736,0.0459313,0.04627353,-0.611716747283936,-0.105685472488403,0.267502158880234,-0.411081631631503,-0.176876941799768,0.254479112513653,4
0.96002197265625,-0.451894998550415,2.86537146568298,1.24913728237152,-0.21277195700315,2.87426655149935,1.27457306730061,1227.717,1340.296,3123.107,3130.419,-0.07967485,0.04484499,0.04612829,-0.61337023973465,-0.112887337803841,0.272335797548294,-0.424559845004915,-0.182676240476657,0.262822768648136,3
0.97998046875,-0.464199751615524,2.86296010017395,1.25468277931213,-0.221379956358585,2.87056276985637,1.27990182895749,1230.412,1354.436,3120.391,3121.403,-0.08312152,0.04365423,0.04625069,-0.61523711681366,-0.120573975145817,0.277276068925858,-0.438035925118965,-0.188474621271639,0.271165104193453,3
1,-0.476546764373779,2.86038541793823,1.26032948493958,-0.230284798736574,2.86673126495361,1.28541435058594,1196.006,1363.576,3129.518,3141.765,-0.08661079,0.04231621,0.04680346,-0.617352724075317,-0.128731161355972,0.282333493232727,-0.451584000205995,-0.194303979492187,0.279552008056641,3
1.02001953125,-0.488941758871078,2.85763955116272,1.26606786251068,-0.239461107372567,2.86278295570393,1.29109492275982,1189.485,1371.545,3122.304,3150.96,-0.08996744,0.04089912,0.04762911,-0.619747936725616,-0.137289434671402,0.286919593811035,-0.465154707681581,-0.200143075797255,0.287952922446475,3
1.03997802734375,-0.501391589641571,2.85471510887146,1.27189970016479,-0.248880035413094,2.85873025410248,1.29692568790267,1190.141,1380.975,3120.851,3148.542,-0.09320372,0.03941481,0.04869686,-0.622495532035828,-0.146222144365311,0.291590094566345,-0.478698517198992,-0.205970598662363,0.296337185718871,3
1.05999755859375,-0.513903975486755,2.85160517692566,1.27782714366913,-0.258599401509697,2.85454828239877,1.30294243851408,1159.438,1387.508,3128.245,3171.156,-0.0963228,0.0378405,0.05009768,-0.62561559677124,-0.155495300889015,0.296375185251236,-0.492290296490434,-0.211818761581115,0.30475114456651,3
1.08001708984375,-0.526486158370972,2.84830474853516,1.28384160995483,-0.268590868588476,2.85024923324404,1.30912763259543,1161.424,1394.228,3118.052,3178.456,-0.09918624,0.03625594,0.05163514,-0.629109978675842,-0.165018647909164,0.300725609064102,-0.505880764601332,-0.21766636033551,0.313164291730931,3
1.0999755859375,-0.539146780967712,2.84480929374695,1.28994715213776,-0.278822628233634,2.845846792911,1.31546157922208,1169.829,1402.861,3115.783,3172.863,-0.1018696,0.03466953,0.05328614,-0.633027493953705,-0.174767211079597,0.30527463555336,-0.519420764586993,-0.223492244065532,0.321546196721701,3
1.1199951171875,-0.551893949508667,2.84111499786377,1.29614853858948,-0.289357002179081,2.84131414609862,1.32198285851614,1143.733,1407.971,3125.852,3192.498,-0.1044124,0.03304831,0.05517476,-0.63736093044281,-0.184715017676353,0.310071974992752,-0.532985466132485,-0.229328756186667,0.329943393154705,3
1.1400146484375,-0.564735651016235,2.83721947669983,1.30243849754333,-0.300162704591434,2.83666475422696,1.32867210305637,1150.713,1412.795,3118.577,3196.304,-0.1066841,0.03146651,0.0571337,-0.642083883285522,-0.194771394133568,0.314495205879211,-0.54652589017629,-0.235154822377061,0.338325560657667,3
1.15997314453125,-0.57768040895462,2.83312106132507,1.30882143974304,-0.311204994190806,2.83191356549821,1.33550780633558,1164.705,1418.797,3118.827,3187.601,-0.1087704,0.02992339,0.05916768,-0.647237002849579,-0.204915702342987,0.319148421287537,-0.559993461530388,-0.240949542090342,0.346662628875245,3
1.17999267578125,-0.590736567974091,2.82881855964661,1.31530320644379,-0.322550701230474,2.8270318247214,1.34253133946411,1142.812,1420.466,3131.466,3206.106,-0.1107199,0.02837527,0.06142225,-0.652808606624603,-0.215125799179077,0.324086844921112,-0.573463232144024,-0.246745208083563,0.355001058539242,3
1.20001220703125,-0.603911936283112,2.82431244850159,1.32187676429749,-0.334165615614823,2.82203425154496,1.34972152476313,1152.593,1422.006,3125.473,3211.059,-0.1124088,0.02689232,0.06372938,-0.658766984939575,-0.225309446454048,0.328675895929337,-0.586886736182789,-0.252520966862155,0.363310846989412,3
1.219970703125,-0.617215096950531,2.81960344314575,1.32854747772217,-0.346012104131023,2.81693703848901,1.35705506548116,1168.063,1424.742,3126.802,3204.77,-0.1139199,0.02547329,0.06607531,-0.665158569812775,-0.235452398657799,0.333534777164459,-0.600216179640808,-0.2582562540006,0.371562407459373,3
1.239990234375,-0.630654394626617,2.81469249725342,1.33532226085663,-0.358161486344149,2.81170949873715,1.36457611182642,1147.248,1423.295,3141.374,3224.792,-0.1152856,0.02407609,0.06858277,-0.671968877315521,-0.245541423559189,0.338739991188049,-0.613526094901141,-0.263983138701136,0.379801879044709,2
1.260009765625,-0.644237339496613,2.80958271026611,1.34219479560852,-0.37057666480527,2.80636759428526,1.37226169871082,1159.354,1422.968,3135.931,3229.913,-0.1163775,0.02277657,0.07106571,-0.679148077964783,-0.255485415458679,0.343624651432037,-0.626768731761373,-0.26968107538565,0.387999702095469,2
1.27996826171875,-0.657972037792206,2.80427718162537,1.34917092323303,-0.383217166996937,2.80092873932693,1.38008677171809,1178.695,1424.21,3137.385,3222.27,-0.1172872,0.02157386,0.073503,-0.686734020709991,-0.265274852514267,0.348805099725723,-0.639897267894095,-0.27532991771472,0.396126891360527,2
1.29998779296875,-0.671866118907928,2.79877901077271,1.35625851154327,-0.396158759015336,2.79536033382764,1.388098233671,1161.832,1421.101,3153.238,3239.819,-0.118059,0.02042005,0.07602738,-0.694700837135315,-0.274906247854233,0.354381918907166,-0.652985332144132,-0.280961346123326,0.404229026602261,2
1.32000732421875,-0.685925722122192,2.79309320449829,1.36345183849335,-0.409361504843077,2.78967956113998,1.39627136227237,1176.97,1419.735,3148.437,3243.204,-0.1185863,0.01938555,0.07847054,-0.702980041503906,-0.284294843673706,0.359664767980576,-0.6659860834168,-0.286555206197011,0.41227711095171,2
1.3399658203125,-0.700157821178436,2.78722429275513,1.37075710296631,-0.422782156447859,2.78390502968405,1.40457938493002,1198.706,1419.563,3150.942,3234.194,-0.1189682,0.01846298,0.08082385,-0.711607098579407,-0.293440192937851,0.365266054868698,-0.678853852630301,-0.292091847805726,0.42024287307172,2
1.3599853515625,-0.714568972587585,2.78117728233337,1.37818288803101,-0.436500861174643,2.77800225429635,1.41307191666844,1183.308,1414.483,3168.887,3250.508,-0.1192457,0.01759702,0.08323263,-0.720553517341614,-0.302351266145706,0.371291071176529,-0.69166099897751,-0.297602405088682,0.428171106749628,2
1.3800048828125,-0.729163706302643,2.77495837211609,1.38572311401367,-0.450474904562636,2.77198961381608,1.4217225152016,1199.358,1411.865,3164.53,3253.804,-0.1193133,0.01685544,0.08553419,-0.7297403216362,-0.310949355363846,0.377009868621826,-0.704361775018035,-0.303067194200314,0.436033492140578,2
1.4000244140625,-0.743947923183441,2.76857352256775,1.39338397979736,-0.464702095472036,2.76586805102946,1.43052982410961,1222.299,1410.403,3167.194,3244.561,-0.1192702,0.01622959,0.08771534,-0.73920738697052,-0.319240778684616,0.383040994405746,-0.716950039288891,-0.308483572640673,0.443826227386424,2
1.41998291015625,-0.758926212787628,2.76202893257141,1.40117144584656,-0.479135601808478,2.75965771647838,1.43946485209513,1218.489,1406.183,3177.996,3255.789,-0.1192074,0.01567094,0.08988953,-0.748914957046509,-0.327229857444763,0.389375805854797,-0.729381927869995,-0.313832666990362,0.451522158631107,2
1.44000244140625,-0.774103105068207,2.75533056259155,1.40909028053284,-0.493861275572861,2.75332167044526,1.4485807456364,1208.574,1398.069,3196.198,3267.356,-0.1189565,0.01519323,0.09202886,-0.758844256401062,-0.33492437005043,0.395944446325302,-0.741727567798258,-0.319144650954242,0.459164697851088,2
1.46002197265625,-0.789481222629547,2.74848580360413,1.41713261604309,-0.50883280894277,2.74687983789241,1.45784883798541,1234.861,1396.436,3186.069,3264.417,-0.1184888,0.01485796,0.09398166,-0.768906354904175,-0.34223660826683,0.402117252349854,-0.753942941956197,-0.324400585196357,0.466726596353819,2
1.47998046875,-0.80506420135498,2.74150204658508,1.4253054857254,-0.524000783579472,2.74035348215039,1.46723853683636,1260.545,1395.196,3186.157,3254.488,-0.1179945,0.01463265,0.09577182,-0.779148936271667,-0.349183112382889,0.408646166324615,-0.76598572865452,-0.329582259876133,0.474181654997567,2
1.5,-0.820855140686035,2.73438572883606,1.43361937999725,-0.539455198877605,2.73370387899399,1.4768055561018,1241.947,1387.405,3207.807,3271.688,-0.1175077,0.01444819,0.09755906,-0.789547562599182,-0.355812400579453,0.415695875883102,-0.777924000354858,-0.334718964672088,0.481572013878822,1
1.52001953125,-0.836854994297028,2.72714424133301,1.44206762313843,-0.555147149984933,2.72695207081487,1.48651962134853,1254.597,1383.852,3205.281,3275.048,-0.1168845,0.0143787,0.09917818,-0.799996018409729,-0.362072497606277,0.422410309314728,-0.789715229532175,-0.33979240117828,0.488871346433721,1
1.53997802734375,-0.853065669536591,2.7197847366333,1.45065450668335,-0.571024729446907,2.7201203919406,1.49634859938949,1279.145,1381.841,3207.713,3262.156,-0.1161959,0.01441964,0.1006108,-0.810530483722687,-0.367978185415268,0.429346650838852,-0.801318788528229,-0.344785088448372,0.496054502206448,1
1.55999755859375,-0.869488060474396,2.71231341362,1.45938742160797,-0.587181951496087,2.71316839067337,1.50635068951315,1267.158,1374.337,3226.223,3273.727,-0.1154848,0.01450211,0.1020233,-0.821122884750366,-0.37356248497963,0.436647266149521,-0.812800388649436,-0.349725300221754,0.503162159625937,1
1.58001708984375,-0.886121690273285,2.70473790168762,1.46825850009918,-0.603567408310176,2.70611818636293,1.51649406782863,1284.255,1371.551,3219.079,3275.4,-0.1146858,0.01468519,0.1032736,-0.83167564868927,-0.378770619630814,0.443553596735001,-0.824119146742882,-0.35459544561987,0.510169010073001,0
1.5999755859375,-0.902966558933258,2.69706535339355,1.47727310657501,-0.620126809287134,2.69899313873865,1.52674512586702,1305.954,1369.335,3220.927,3265.018,-0.1139039,0.01495081,0.1043528,-0.842245697975159,-0.383632093667984,0.45073327422142,-0.835236272052476,-0.359378834064062,0.517051040221759,0
1.6199951171875,-0.920022785663605,2.68930125236511,1.48643934726715,-0.636958033083316,2.69175113334911,1.53716445517924,1287.291,1361.009,3242.078,3279.548,-0.1131444,0.01523384,0.1054173,-0.852810621261597,-0.388199955224991,0.458314210176468,-0.846214826007804,-0.364102599125749,0.523847288101157,0
1.6400146484375,-0.937287986278534,2.68145275115967,1.4957480430603,-0.654007271984653,2.68441532215046,1.54771874622704,1301.21,1358.45,3235.371,3281.317,-0.1122885,0.01560688,0.1063047,-0.863261222839355,-0.3924261033535,0.465433150529861,-0.857015715678588,-0.368749920209162,0.530533553325099,0
1.65997314453125,-0.95476096868515,2.67352604866028,1.50520277023315,-0.671217966514002,2.67701004110563,1.55837298599979,1325.043,1357.23,3235.133,3267.727,-0.1114362,0.01605834,0.106998,-0.873651146888733,-0.396332859992981,0.472734212875366,-0.86760212115283,-0.373304954734798,0.537087042614082,0
1.67999267578125,-0.972440242767334,2.66552662849426,1.51481068134308,-0.688691692550512,2.66949158495151,1.56919005480539,1308.38,1349.839,3254.212,3279.662,-0.1106224,0.01651502,0.1076722,-0.88396167755127,-0.399972438812256,0.480393081903458,-0.878034183119987,-0.377793579561193,0.543544985919778,0
1.70001220703125,-0.99032199382782,2.6574604511261,1.52456200122833,-0.706372354049449,2.66188409024902,1.58013522651994,1321.366,1348.089,3246.027,3281.364,-0.1097569,0.01704193,0.1081805,-0.89408677816391,-0.40330383181572,0.487568765878677,-0.888274735793774,-0.382199803288802,0.549884375850026,0
1.719970703125,-1.00840365886688,2.64933323860168,1.53446054458618,-0.724201244699276,2.65421281668394,1.59117215914002,1342.541,1347.185,3246.18,3267.858,-0.1089313,0.01762569,0.1085101,-0.904088914394379,-0.406357735395432,0.494926750659943,-0.898289055119065,-0.386508685126782,0.556083716560567,0
1.739990234375,-1.02668261528015,2.64114952087402,1.54451262950897,-0.74228345468553,2.64643254688532,1.60236590849663,1322.628,1339.931,3265.879,3280.115,-0.1081579,0.01819518,0.1088381,-0.913950860500336,-0.409191459417343,0.502607047557831,-0.908134108040217,-0.390744736359816,0.562178273303667,0
1.760009765625,-1.04515397548676,2.63291430473328,1.55470716953278,-0.760560719141003,2.63856835059778,1.61368040586141,1334.696,1338.804,3256.336,3281.263,-0.1073339,0.01882019,0.1090106,-0.923566102981567,-0.41176363825798,0.509726583957672,-0.91777478390713,-0.394892849856044,0.568146310914365,0
1.77996826171875,-1.06381416320801,2.62463235855103,1.56504678726196,-0.778972314193065,2.6306463556073,1.62507806026454,1356.094,1338.684,3254.746,3266.539,-0.1065568,0.01948804,0.109013,-0.93300449848175,-0.41410157084465,0.516980469226837,-0.927178570605173,-0.398939036560826,0.573967702844936,0
1.79998779296875,-1.08265912532806,2.61630702018738,1.57553744316101,-0.797626646773287,2.62261991743975,1.63662598076079,1334.528,1332.072,3273.501,3278.891,-0.10585,0.0201238,0.1090294,-0.94225549697876,-0.416264176368713,0.524535298347473,-0.936399026186941,-0.402906341007953,0.579675604081262,0
1.82000732421875,-1.1016833782196,2.60794281959534,1.58616733551025,-0.816463410111527,2.61451498441355,1.64828683458664,1344.486,1331.586,3263.128,3280.399,-0.1051054,0.0207987,0.1089037,-0.951216042041779,-0.41821426153183,0.531497299671173,-0.94540321420156,-0.406780591562751,0.585249625391268,0
1.8399658203125,-1.12088263034821,2.59954333305359,1.5969386100769,-0.835419998744244,2.60635849391067,1.66002186597783,1364.349,1332.158,3260.924,3265.196,-0.1044119,0.02150278,0.1086178,-0.959959447383881,-0.419979095458984,0.53856348991394,-0.954160941629351,-0.41054879701235,0.590671075857483,0
1.8599853515625,-1.14025211334229,2.59111070632935,1.6078565120697,-0.854607925216182,2.59810246519841,1.67190010651166,1341.227,1326.324,3278.985,3277.114,-0.1037898,0.02216174,0.1083592,-0.968477249145508,-0.42161700129509,0.545894920825958,-0.962722140342816,-0.41423244164655,0.595970865687568,0
1.8800048828125,-1.1597855091095,2.58264923095703,1.61890816688538,-0.873964974649439,2.58977366760063,1.68388304221498,1350.41,1326.621,3267.331,3278.063,-0.1031298,0.02284829,0.1079715,-0.976669073104858,-0.423089623451233,0.552585303783417,-0.971056158224177,-0.417818336715394,0.601130019760457,0
1.9000244140625,-1.17947769165039,2.57416081428528,1.63009512424469,-0.893486564535158,2.58137407284289,1.69596783629653,1369.672,1327.956,3263.989,3262.156,-0.1025264,0.02355154,0.1074384,-0.984612822532654,-0.42442187666893,0.559350252151489,-0.979159571260204,-0.421305008961645,0.606146418448853,0
1.91998291015625,-1.19932341575623,2.5656476020813,1.64141929149628,-0.91310780215452,2.5729316024492,1.70811431707208,1357.128,1326.014,3271.462,3269.246,-0.1020715,0.02420801,0.1069147,-0.992287814617157,-0.42565655708313,0.566207587718964,-0.98700543065471,-0.424680863071164,0.611003379164165,0
1.94000244140625,-1.21931743621826,2.55711102485657,1.65288031101227,-0.932943991899774,2.5643966441608,1.72039386345315,1335.849,1320.081,3287.237,3277.767,-0.1015554,0.02483119,0.1063991,-0.999693036079407,-0.426833689212799,0.573049485683441,-0.994638524886308,-0.427965170275055,0.615728628108227,0
1.96002197265625,-1.23945212364197,2.5485532283783,1.66446232795715,-0.952930593197372,2.55579696798345,1.73276652175022,1355.57,1322.871,3267.532,3271.677,-0.1009407,0.0254919,0.1057307,-1.00673854351044,-0.427884638309479,0.579100906848907,-1.00203140433628,-0.431146119769234,0.620305172659443,0
1.97998046875,-1.25972247123718,2.53997659683228,1.6761679649353,-0.973001172086935,2.54716115859433,1.74519116617712,1376.835,1325.905,3260.537,3254.706,-0.1004278,0.02615234,0.1049371,-1.01351833343506,-0.428830772638321,0.585279703140259,-1.0091596546337,-0.434213206731958,0.624717899159203,0
2,-1.28012323379517,2.53138160705566,1.68800365924835,-0.993273599084619,2.53843849960327,1.7577407641983,1344.236,1321.343,3279.319,3270.948,-0.1000496,0.02672875,0.104229,-1.02003693580627,-0.42974516749382,0.591785550117493,-1.01606400046349,-0.437183953857422,0.628992018127441,0
2.02001953125,-1.30064725875854,2.52276968955994,1.69995558261871,-1.01368176147806,2.52965743746343,1.77037438889544,1345.692,1322.271,3268.979,3273.725,-0.09962406,0.0273108,0.1034255,-1.02619755268097,-0.430598318576813,0.597597360610962,-1.0227194988233,-0.440047628868552,0.633112088657522,0
2.03997802734375,-1.32128858566284,2.51414155960083,1.71202313899994,-1.03415783849082,2.52084715356021,1.78305005597715,1364.238,1324.975,3264.721,3254.242,-0.09919902,0.02790192,0.1024965,-1.03207457065582,-0.431405007839203,0.603380620479584,-1.02910434715509,-0.442794850733705,0.637064613927399,0
2.05999755859375,-1.34204196929932,2.50549745559692,1.72420907020569,-1.05482201812353,2.5119559343546,1.79584216754118,1340.037,1321.931,3278.42,3263.927,-0.09882245,0.02842474,0.1016511,-1.03766405582428,-0.432204216718674,0.609298884868622,-1.03525504859546,-0.445441325732794,0.640872191117535,0
2.08001708984375,-1.36289966106415,2.49683856964111,1.73649859428406,-1.07560676837143,2.50301283698163,1.80870891805959,1347.932,1323.915,3262.455,3264.389,-0.0984102,0.02894836,0.1007351,-1.04288613796234,-0.432947635650635,0.614474833011627,-1.0411492471255,-0.447977434695423,0.644520980787238,0
2.0999755859375,-1.38385629653931,2.48816537857056,1.74889302253723,-1.09644304044274,2.49404757120739,1.82160756304102,1363.611,1326.589,3257.707,3247.994,-0.09806132,0.02946062,0.09973386,-1.04783606529236,-0.433658748865128,0.619718670845032,-1.04676782045836,-0.450394949835787,0.647999145330045,0
2.1199951171875,-1.40490674972534,2.47947764396667,1.76139628887177,-1.11745308225396,2.48500753716864,1.83461377976925,1330.841,1323.109,3274.14,3262.811,-0.09778541,0.02988927,0.098845,-1.05251526832581,-0.434390932321548,0.625165164470673,-1.0521429102862,-0.45270770082608,0.651326581984514,0
2.1400146484375,-1.42604351043701,2.47077584266663,1.77399277687073,-1.13856809990831,2.47592233495728,1.84768498154507,1335.226,1324.869,3259.583,3263.925,-0.09742589,0.0303235,0.09788004,-1.05683839321136,-0.435095846652985,0.629825353622437,-1.05725481901126,-0.454907212340279,0.654491096999312,0
2.15997314453125,-1.44726121425629,2.46206021308899,1.78668224811554,-1.15971797923886,2.46682213274057,1.86077776435915,1354.105,1328.306,3253.111,3244.012,-0.09706796,0.0307598,0.09681363,-1.06089055538177,-0.435783684253693,0.634475827217102,-1.06208716414724,-0.456986435452193,0.657482548835001,0
2.17999267578125,-1.46855473518372,2.45333027839661,1.7994681596756,-1.18102676265167,2.45765355853653,1.8739689163698,1324.951,1326.004,3266.565,3256.409,-0.09676809,0.03111916,0.09586016,-1.06467139720917,-0.436494946479797,0.639293372631073,-1.06666760390386,-0.458957270716794,0.660318059240953,0
2.20001220703125,-1.48991680145264,2.44458675384521,1.81233513355255,-1.20242455577657,2.44844668594002,1.88721516963236,1329.863,1327.987,3251.1,3257.325,-0.09640217,0.03148108,0.09484654,-1.06810462474823,-0.437180638313293,0.643349766731262,-1.07097916161324,-0.460812413548163,0.662987118851036,0
2.219970703125,-1.51134240627289,2.43582963943481,1.82528376579285,-1.22384034501537,2.43923207011845,1.90047256334669,1346.163,1331.184,3245.633,3238.642,-0.09605277,0.03183958,0.09375308,-1.07127785682678,-0.437856554985046,0.647433936595917,-1.07500824518964,-0.462546015651526,0.665481313516697,0
2.239990234375,-1.53282606601715,2.42705821990967,1.83831739425659,-1.24539969505118,2.42995568409656,1.91381882803312,1314.307,1328.787,3259.85,3252.186,-0.09575236,0.03212092,0.09278788,-1.07418942451477,-0.438563287258148,0.651680588722229,-1.07877792518082,-0.464168003639063,0.667814925005999,0
2.260009765625,-1.55436158180237,2.41827344894409,1.85142004489899,-1.26703177594152,2.42064800401982,1.92721011658316,1319.565,1330.528,3244.134,3252.362,-0.09535661,0.03241092,0.09176618,-1.07676434516907,-0.439246356487274,0.655129969120026,-1.08227399942825,-0.465672266718726,0.669979161506271,0
2.27996826171875,-1.57594323158264,2.40947508811951,1.86459171772003,-1.28866484336891,2.41133989946375,1.94060201584662,1337.449,1333.764,3237.529,3232.585,-0.09495714,0.03270316,0.09066797,-1.07908844947815,-0.439914971590042,0.658585131168365,-1.08548570791771,-0.467054175156991,0.671967362056137,0
2.29998779296875,-1.59756648540497,2.40066289901733,1.87783586978912,-1.31042570636616,2.40197680804417,1.95407302665558,1306.019,1331.623,3250.627,3246.149,-0.0946056,0.03292155,0.0897051,-1.0811619758606,-0.440605670213699,0.662207186222076,-1.08843144721369,-0.468321644481621,0.673790915005368,0
2.32000732421875,-1.61922478675842,2.39183759689331,1.89113688468933,-1.33224276726637,2.39258953623693,1.96757882664355,1310.452,1333.011,3234.999,3246.971,-0.09415712,0.03315028,0.08869155,-1.08291459083557,-0.441264659166336,0.665048539638519,-1.09109983431736,-0.469469776906228,0.675442773735451,0
2.3399658203125,-1.64091324806213,2.38299965858459,1.90449500083923,-1.354043721977,2.38320919447311,1.98107465613292,1327.728,1335.975,3228.834,3227.1,-0.0936948,0.03338572,0.08760335,-1.08442974090576,-0.441902071237564,0.667907655239105,-1.09348297402779,-0.470495175346408,0.676918050740891,0
2.3599853515625,-1.66262745857239,2.37414860725403,1.91791343688965,-1.37595634130987,2.37378080654189,1.99463961134278,1296.029,1333.905,3241.513,3240.735,-0.0932671,0.03355402,0.08665085,-1.08570349216461,-0.442550748586655,0.670921921730042,-1.09559452046326,-0.471403714787811,0.678225198571351,0
2.3800048828125,-1.68436074256897,2.36528563499451,1.93137645721436,-1.39790843013262,2.36433543599182,2.00822900004707,1301.559,1334.99,3225.644,3240.568,-0.09272807,0.03374002,0.08564486,-1.0866687297821,-0.443154364824295,0.673150837421417,-1.09742594550583,-0.472191725819537,0.679358937915576,0
2.4000244140625,-1.70610904693604,2.35641121864319,1.94488441944122,-1.41989437329222,2.3548754988664,2.02183934619858,1319.636,1337.739,3219.149,3220.106,-0.09216774,0.03393769,0.08456621,-1.08740532398224,-0.443721145391464,0.675400674343109,-1.09897654259203,-0.472858904427064,0.68031883137712,0
2.41998291015625,-1.72786664962769,2.34752583503723,1.95843744277954,-1.4418413890156,2.34543231112926,2.03542559441269,1301.187,1338.023,3221.886,3228.444,-0.09170755,0.0340843,0.08358818,-1.08789491653442,-0.444267779588699,0.677649974822998,-1.10024227275454,-0.473403512755585,0.681102378642803,0
2.44000244140625,-1.74962973594666,2.33862924575806,1.97203361988068,-1.46387808506052,2.33595053645515,2.04906735901791,1276.097,1333.859,3233.156,3236.724,-0.09112698,0.03420322,0.08268351,-1.08815371990204,-0.444813191890717,0.679811537265778,-1.10123038958312,-0.473828671822132,0.681714070030222,0
2.46002197265625,-1.77139210700989,2.32972407341003,1.9856561422348,-1.48593173759011,2.32646146587939,2.06271962049488,1294.468,1335.903,3211.608,3228.162,-0.09036212,0.03436867,0.08167925,-1.08811783790588,-0.445276528596878,0.681126296520233,-1.10193621258339,-0.474132367740737,0.682151008090402,0
2.47998046875,-1.79314947128296,2.32081079483032,1.99930667877197,-1.50792940965705,2.3169964821328,2.07633722739875,1315.214,1339.028,3202.26,3207.991,-0.08961803,0.03454664,0.08060848,-1.08786392211914,-0.445662587881088,0.68252831697464,-1.10235860927677,-0.474314113237503,0.682412491765153,0
2.5,-1.81489729881287,2.31189036369324,2.01299071311951,-1.52999999932945,2.30750012397766,2.08999997377396,1279.323,1336.484,3215.958,3225.001,-0.08896236,0.03465906,0.07968716,-1.08739399909973,-0.446016162633896,0.684202551841736,-1.10250000050292,-0.474374949932098,0.682500019669533,0
2.52001953125,-1.83663010597229,2.30296444892883,2.02669358253479,-1.55207058900185,2.29800376582252,2.10366272014916,1280.147,1335.879,3203.561,3226.688,-0.08818738,0.03479775,0.0787107,-1.08664488792419,-0.446293562650681,0.685141444206238,-1.10235860927677,-0.474314113237503,0.682412491765153,0
2.53997802734375,-1.85834383964539,2.29403448104858,2.04041481018066,-1.57406826106879,2.28853878207593,2.11728032705303,1299.245,1337.607,3197.991,3204.013,-0.0873389,0.03496855,0.07764487,-1.08568036556244,-0.446498841047287,0.686061382293701,-1.10193621258339,-0.474132367740737,0.682151008090402,0
2.55999755859375,-1.88003349304199,2.28510141372681,2.05415654182434,-1.59612191359838,2.27904971150017,2.13093258853001,1272.298,1335.497,3207.752,3214.739,-0.08649521,0.03509787,0.07670527,-1.0844886302948,-0.4466492831707,0.687088847160339,-1.10123038958312,-0.473828671822132,0.681714070030222,0
2.58001708984375,-1.90169394016266,2.27616763114929,2.06790375709534,-1.6181586096433,2.26956793682606,2.14457435313522,1281.29,1334.953,3191.076,3212.837,-0.0855386,0.03525965,0.07571381,-1.08301675319672,-0.446688622236252,0.687360644340515,-1.10024227275454,-0.473403512755585,0.681102378642802,0
2.5999755859375,-1.92332065105438,2.26723504066467,2.08165788650513,-1.64010562536668,2.26012474908893,2.15816060134934,1298.997,1336.053,3185.12,3193.04,-0.08457347,0.03544237,0.07465935,-1.08133792877197,-0.446628659963608,0.687710821628571,-1.09897654259203,-0.472858904427064,0.680318831377119,0
2.6199951171875,-1.94490945339203,2.25830507278442,2.09542274475098,-1.66209156852628,2.2506648119635,2.17177094750084,1265.661,1333.032,3197.24,3208.411,-0.08365202,0.03557631,0.07374343,-1.07944583892822,-0.446500569581985,0.688247859477997,-1.09742594550583,-0.472191725819537,0.679358937915576,0
2.6400146484375,-1.96645534038544,2.24937963485718,2.1091833114624,-1.68404365734903,2.24121944141343,2.18536033620513,1271.339,1331.529,3182.776,3207.699,-0.08258995,0.03574935,0.07275915,-1.0772864818573,-0.446254909038544,0.688027262687683,-1.09559452046326,-0.471403714787811,0.678225198571351,0
2.65997314453125,-1.98795390129089,2.24046182632446,2.12293982505798,-1.70588953556828,2.23181977031887,2.19888397548635,1291.895,1332.522,3176.268,3184.991,-0.08147036,0.03595838,0.07168247,-1.07492077350616,-0.445895910263062,0.687831521034241,-1.09348983658457,-0.470498128112872,0.676922298990445,0
2.67999267578125,-2.0094006061554,2.23155307769775,2.13669562339783,-1.72775723139253,2.2224107117184,2.21242112090437,1263.286,1329.998,3185.812,3197.56,-0.08038165,0.03613019,0.07072575,-1.07233607769012,-0.445445209741592,0.687786281108856,-1.09109983431736,-0.469469776906228,0.675442773735451,0
2.70001220703125,-2.03079032897949,2.22265577316284,2.15043616294861,-1.74957429229274,2.21302343991116,2.22592692089233,1270.893,1328.283,3170.811,3195.814,-0.07917738,0.03634173,0.06970035,-1.06948506832123,-0.444857329130173,0.687023758888245,-1.08843144721369,-0.468321644481621,0.673790915005369,0
2.719970703125,-2.05211877822876,2.21377325057983,2.1641628742218,-1.77126890221328,2.20368885533958,2.23935691789074,1289.553,1328.731,3165.362,3174.373,-0.07794593,0.036585,0.0685932,-1.06642699241638,-0.444142818450928,0.686330735683441,-1.08549510920706,-0.467058220269158,0.671973181902092,0
2.739990234375,-2.0733814239502,2.20490670204163,2.17787885665894,-1.79296822271738,2.1943522439355,2.25278983096475,1259.143,1325.753,3175.771,3187.882,-0.0767539,0.03679112,0.06760883,-1.06314945220947,-0.44332680106163,0.68579375743866,-1.08227399942825,-0.465672266718727,0.669979161506271,0
2.760009765625,-2.0945737361908,2.19605922698975,2.19156932830811,-1.81460030360772,2.18504456385877,2.26618111951479,1266.875,1323.375,3161.408,3185.511,-0.07543457,0.03703998,0.06655166,-1.05960822105408,-0.442366659641266,0.68452924489975,-1.07877792518082,-0.464168003639063,0.667814925005998,0
2.77996826171875,-2.1156907081604,2.18723440170288,2.20523548126221,-1.83609403998392,2.17579640956157,2.27948676622032,1286.931,1323.497,3155.305,3163.251,-0.07407849,0.03732391,0.0654081,-1.05585706233978,-0.441268682479858,0.683310866355896,-1.0750201524698,-0.462551139021528,0.665488684690339,0
2.79998779296875,-2.13672828674316,2.17843294143677,2.21888041496277,-1.85757544288233,2.1665535620153,2.29278477791556,1258.111,1320.547,3164.474,3176.18,-0.07276981,0.03757309,0.06438226,-1.0518844127655,-0.440055727958679,0.682245194911957,-1.07097916161324,-0.460812413548163,0.662987118851036,0
2.82000732421875,-2.15768146514893,2.16965913772583,2.23249006271362,-1.87897323600723,2.1573466894188,2.30603103117811,1265.384,1317.735,3150.581,3174.05,-0.07134768,0.03786302,0.0632837,-1.04765200614929,-0.438691407442093,0.680486738681793,-1.06666760390385,-0.458957270716794,0.660318059240952,0
2.8399658203125,-2.17854595184326,2.16091513633728,2.24606561660767,-1.90021719432543,2.14820600764196,2.31918205336715,1284.28,1317.491,3144.842,3152.561,-0.06989626,0.03818697,0.06209699,-1.04320859909058,-0.437183678150177,0.678779542446136,-1.06210153574728,-0.456992619150195,0.65749144554004,0
2.8599853515625,-2.19931650161743,2.15220427513123,2.25961017608643,-1.92143189875059,2.13907791299805,2.33231496600284,1255.915,1314.534,3153.974,3164.682,-0.06848904,0.0384789,0.06101957,-1.0385422706604,-0.435555756092072,0.677224814891815,-1.05725481901126,-0.454907212340279,0.654491096999312,0
2.8800048828125,-2.21998882293701,2.1435284614563,2.27310943603516,-1.94254691640495,2.12999271078668,2.34538616777867,1263.61,1311.464,3139.725,3162.39,-0.06697104,0.03881266,0.05986432,-1.033616065979,-0.433773040771484,0.674964547157288,-1.0521429102862,-0.45270770082608,0.651326581984514,0
2.9000244140625,-2.24055814743042,2.13489174842834,2.28656482696533,-1.96355695821617,2.12095267674793,2.3583923845069,1283.672,1311.054,3134.149,3139.48,-0.06542588,0.03918079,0.05861697,-1.02847671508789,-0.431844115257263,0.672771334648132,-1.04676782045836,-0.450394949835786,0.647999145330045,0
2.91998291015625,-2.26102018356323,2.126296043396,2.29997634887695,-1.98439323028747,2.1119874109737,2.37129102948832,1267.364,1309.598,3134.715,3146.866,-0.06399097,0.03952444,0.05744724,-1.02310085296631,-0.429781585931778,0.67057204246521,-1.0411492471255,-0.447977434695422,0.644520980787238,0
2.94000244140625,-2.28137063980103,2.11774396896362,2.31334257125854,-2.00517798053537,2.10304431360073,2.38415778000673,1246.939,1303.966,3143.109,3152.493,-0.06246551,0.03986638,0.05631324,-1.01750826835632,-0.427606582641602,0.668308138847351,-1.03525504859546,-0.445441325732794,0.640872191117535,0
2.96002197265625,-2.3016037940979,2.10923862457275,2.32664895057678,-2.02584216016808,2.09415309439512,2.39694989157076,1265.355,1301.925,3124.883,3142.249,-0.06077973,0.04026426,0.05506194,-1.01166021823883,-0.425271064043045,0.665317177772522,-1.02910434715508,-0.442794850733705,0.637064613927399,0
2.97998046875,-2.32171559333801,2.10078310966492,2.33989763259888,-2.04631823718085,2.08534281049189,2.40962555865248,1286.855,1302.073,3116.892,3120.036,-0.05911366,0.04068866,0.05372978,-1.00559163093567,-0.422778338193893,0.662428796291351,-1.0227194988233,-0.440047628868552,0.633112088657521,0
3,-2.34170150756836,2.09237957000732,2.35309267044067,-2.06672639957428,2.07656174835205,2.42225918334961,1255.709,1299.247,3125.758,3134.78,-0.05756423,0.04107044,0.05251817,-0.999296069145203,-0.420159727334976,0.659755527973175,-1.01606400046349,-0.437183953857422,0.628992018127441,0
3.02001953125,-2.36155652999878,2.08403182029724,2.36622166633606,-2.08699882657197,2.06783908936099,2.4348087813708,1258.557,1295.162,3114.89,3134.123,-0.05592958,0.04148489,0.05123343,-0.992752313613892,-0.417401552200317,0.656446933746338,-1.0091596546337,-0.434213206731958,0.624717899159203,0
3.03997802734375,-2.38127636909485,2.07574129104614,2.37928485870361,-2.10706940546153,2.05920327997188,2.4472334257977,1277.184,1294.264,3110.058,3111.141,-0.05424912,0.04193327,0.04984966,-0.98599249124527,-0.414510279893875,0.653155386447906,-1.00203140433628,-0.431146119769234,0.620305172659443,0
3.05999755859375,-2.40085649490356,2.06751155853271,2.39228391647339,-2.12705600675913,2.05060360379452,2.45960608409476,1253.179,1291.966,3116.331,3120.011,-0.05261501,0.04235375,0.04856217,-0.97900116443634,-0.411500602960587,0.649953782558441,-0.994638524886308,-0.427965170275055,0.615728628108227,0
3.08001708984375,-2.42029190063477,2.05934429168701,2.40520548820496,-2.14689219650438,2.04206864550612,2.47188563047583,1262.244,1288.163,3102.101,3116.383,-0.0508978,0.0428065,0.04720579,-0.97175931930542,-0.408349812030792,0.646084427833557,-0.987005430654711,-0.424680863071165,0.611003379164165,0
3.0999755859375,-2.43957757949829,2.0512433052063,2.41805148124695,-2.16651343412374,2.03362617511243,2.48403211125138,1280.848,1287.181,3096.818,3094.323,-0.04918592,0.0432804,0.0457745,-0.964302599430084,-0.405066579580307,0.642304480075836,-0.979159571260203,-0.421305008961644,0.606146418448853,0
3.1199951171875,-2.45871019363403,2.04320979118347,2.43082451820374,-2.18603502400946,2.02522658035469,2.49611690533293,1251.67,1284.729,3103.723,3107.721,-0.04756725,0.04371436,0.04445872,-0.956620991230011,-0.401672601699829,0.638653695583344,-0.971056158224178,-0.417818336715394,0.601130019760458,0
3.1400146484375,-2.47768425941467,2.03524661064148,2.44351196289063,-2.20539207344272,2.01689778275692,2.50809984103626,1257.396,1280.419,3091.791,3105.079,-0.04585804,0.04417782,0.0430687,-0.948704719543457,-0.39815554022789,0.634367406368256,-0.962722140342815,-0.41423244164655,0.595970865687568,0
3.15997314453125,-2.49649548530579,2.02735614776611,2.45611429214478,-2.22452176174551,2.00866681230185,2.51994202936911,1275.971,1279.572,3086.317,3082.453,-0.04412325,0.04466623,0.04159021,-0.940579116344452,-0.394519358873367,0.630120694637299,-0.954187384555097,-0.410560174664568,0.590687445288169,0
3.17999267578125,-2.51514005661011,2.01954054832458,2.4686336517334,-2.24353658854737,2.00048526354177,2.53171311296128,1251.011,1277.753,3091.375,3092.661,-0.04246197,0.04512068,0.0402109,-0.9322310090065,-0.3907790184021,0.625968515872955,-0.945403214201559,-0.406780591562751,0.585249625391267,0
3.20001220703125,-2.53361368179321,2.01180219650269,2.48105764389038,-2.26237335188561,1.99238033051557,2.54337396678712,1258.135,1273.689,3078.741,3089.216,-0.04072879,0.04560078,0.03876304,-0.923653483390808,-0.386923402547836,0.621201753616333,-0.93639902618694,-0.402906341007952,0.579675604081262,0
3.219970703125,-2.55191087722778,2.00414276123047,2.4933876991272,-2.2809710931091,1.98437824202785,2.55488685453773,1275.291,1272.818,3073.739,3067.577,-0.03899507,0.04609836,0.03724072,-0.914870500564575,-0.382958441972733,0.616505682468414,-0.927207006545169,-0.398951271751399,0.573985306046387,0
3.239990234375,-2.57002830505371,1.9965648651123,2.50562596321106,-2.2994392795179,1.97643189735754,2.5663195416865,1248.878,1271.111,3079.09,3078.641,-0.03734924,0.04655777,0.03582562,-0.90587192773819,-0.378901243209839,0.611909627914429,-0.917774783907129,-0.394892849856044,0.568146310914365,0
3.260009765625,-2.58796119689941,1.98907005786896,2.51776003837585,-2.31771654397337,1.96856770107001,2.57763403905129,1254.988,1266.829,3067.151,3075.476,-0.03562883,0.04703968,0.03434625,-0.896656692028046,-0.374744385480881,0.606701970100403,-0.908134108040216,-0.390744736359816,0.562178273303667,0
3.27996826171875,-2.60570621490479,1.98165988922119,2.52979111671448,-2.33574392582143,1.96081102228753,2.58879384717852,1272.691,1265.986,3062.006,3053.177,-0.03389885,0.04753775,0.03279376,-0.887244462966919,-0.370491176843643,0.601551353931427,-0.898319376918855,-0.386521731750139,0.556102487199064,0
3.29998779296875,-2.62325882911682,1.97433710098267,2.54172086715698,-2.35362764460945,1.95311615770631,2.59986472102797,1247.256,1264.654,3066.259,3063.938,-0.0322594,0.04799678,0.03135043,-0.877625107765198,-0.366155177354813,0.596487581729889,-0.888274735793772,-0.382199803288803,0.549884375850026,0
3.32000732421875,-2.64061498641968,1.96710228919983,2.55353760719299,-2.37130830610839,1.94550866300381,2.61080989274252,1253.2,1260.333,3054.476,3060.873,-0.03055338,0.04847454,0.02984791,-0.867803156375885,-0.361731886863708,0.590836584568024,-0.878034183119985,-0.377793579561194,0.543544985919778,0
3.3399658203125,-2.65777087211609,1.95995795726776,2.56524276733398,-2.38872907693451,1.93801299199733,2.62159417975029,1269.802,1259.558,3049.715,3039.173,-0.02884363,0.04896443,0.02827872,-0.857795000076294,-0.357224524021149,0.585257291793823,-0.867634212728789,-0.373318762843399,0.537106908828335,0
3.3599853515625,-2.67472267150879,1.95290493965149,2.57683777809143,-2.40599272667425,1.93058492580486,2.63228120132087,1244.447,1258.531,3053.234,3050.209,-0.02722709,0.0494151,0.02681792,-0.847591042518616,-0.352645426988602,0.579748690128326,-0.857015715678588,-0.368749920209162,0.530533553325099,0
3.3800048828125,-2.69146633148193,1.94594526290894,2.58831143379211,-2.42304196557559,1.92324911460621,2.64283549236868,1250.564,1254.249,3042.207,3046.226,-0.02554344,0.04988234,0.02529952,-0.837200880050659,-0.347993105649948,0.573685050010681,-0.846214826007803,-0.364102599125748,0.523847288101157,0
3.4000244140625,-2.70799899101257,1.93907976150513,2.59966492652893,-2.43987318937177,1.91600710921667,2.65325482168089,1266.323,1253.6,3037.223,3025.42,-0.02385766,0.05035912,0.02372229,-0.826635420322418,-0.343268543481827,0.567678809165955,-0.835236272052476,-0.359378834064062,0.51705104022176,0
3.41998291015625,-2.72431683540344,1.93231010437012,2.61089754104614,-2.45643259034873,1.90888206159239,2.66350587971929,1251.736,1253.116,3035.13,3031.187,-0.02229492,0.05080269,0.02222708,-0.815884530544281,-0.338479936122894,0.561632990837097,-0.824119146742881,-0.354595445619869,0.510169010073001,0
3.44000244140625,-2.74041628837585,1.9256374835968,2.62200784683228,-2.47281804716281,1.90183185728196,2.67364925803476,1236.188,1249.298,3038.586,3034.285,-0.02069915,0.05123232,0.02076708,-0.804974019527435,-0.333644270896912,0.555510461330414,-0.812800388649434,-0.349725300221754,0.503162159625937,0
3.46002197265625,-2.75629425048828,1.91906237602234,2.63298511505127,-2.48897526921199,1.89487985601472,2.68365134815842,1249.307,1246.501,3025.145,3024.675,-0.01900538,0.05168437,0.01923118,-0.793900609016418,-0.328747808933258,0.54886269569397,-0.801318788528228,-0.344785088448372,0.496054502206447,0
3.47998046875,-2.77194738388062,1.91258668899536,2.64383125305176,-2.50485284867397,1.88804817714046,2.69348032619939,1264.533,1246.486,3019.092,3005.399,-0.01734144,0.05213809,0.01765782,-0.782664358615875,-0.323786467313766,0.542301535606384,-0.789715229532172,-0.33979240117828,0.488871346433721,0
3.5,-2.78737282752991,1.90621113777161,2.65454792976379,-2.5205447997813,1.88129636896134,2.70319439144611,1239.892,1245.856,3021.604,3016.813,-0.01580266,0.05254919,0.01619967,-0.771263837814331,-0.318773537874222,0.535833418369293,-0.777924000354857,-0.334718964672089,0.481572013878822,0
3.52001953125,-2.80256724357605,1.89993691444397,2.66512584686279,-2.53599921507943,1.87464676580493,2.71276141071155,1242.576,1241.622,3012.879,3014.308,-0.01421968,0.05296805,0.01470078,-0.759720385074615,-0.313717007637024,0.528901278972626,-0.765985728654519,-0.329582259876133,0.474181654997567,0
3.53997802734375,-2.81752777099609,1.89376473426819,2.67556619644165,-2.55116718971613,1.86812041006291,2.72215110956251,1255.383,1241.049,3008.985,2995.276,-0.01262658,0.05339299,0.01315461,-0.748038291931152,-0.308616995811462,0.522018194198608,-0.753942941956194,-0.324400585196356,0.466726596353819,0
3.55999755859375,-2.83225250244141,1.88769483566284,2.68586945533752,-2.56613872308604,1.86167857751006,2.73141920191151,1235.045,1240.832,3010.172,3003.156,-0.01110858,0.05378422,0.01170687,-0.736210942268372,-0.303478717803955,0.515160083770752,-0.741727567798258,-0.319144650954242,0.459164697851087,0
3.58001708984375,-2.84673714637756,1.88172888755798,2.69602632522583,-2.58086439685043,1.85534253147694,2.74053509545279,1241.492,1236.861,3000.26,2998.272,-0.009538378,0.05418388,0.0102233,-0.724257171154022,-0.298304498195648,0.507839381694794,-0.729381927869994,-0.313832666990361,0.451522158631107,0
3.5999755859375,-2.86098074913025,1.87586712837219,2.70603799819946,-2.59529790318687,1.84913219692586,2.7494701234383,1254.646,1236.338,2995.566,2980.201,-0.007982559,0.0545837,0.008711149,-0.712178230285645,-0.293091773986816,0.500587224960327,-0.716950039288888,-0.308483572640672,0.443826227386424,0
3.6199951171875,-2.87498021125793,1.87011003494263,2.7159059047699,-2.60952509409627,1.84301063413925,2.75827743234631,1232.968,1236.148,2996.831,2989.764,-0.006529538,0.0549451,0.007309178,-0.699972808361053,-0.287847846746445,0.493397057056427,-0.704361775018033,-0.303067194200314,0.436033492140578,0
3.6400146484375,-2.88873386383057,1.86445832252502,2.72562170028687,-2.62349913748426,1.83699799365897,2.76692803087948,1236.464,1232.098,2988.332,2986.717,-0.005032309,0.05531157,0.005877881,-0.687665641307831,-0.282579928636551,0.48578667640686,-0.691660998977508,-0.297602405088683,0.428171106749629,0
3.65997314453125,-2.9022388458252,1.8589129447937,2.73518633842468,-2.63717640706374,1.8311130466576,2.77539491228788,1248.264,1231.613,2984.286,2969.355,-0.003531884,0.05567966,0.00441427,-0.67525577545166,-0.277285188436508,0.478237956762314,-0.678893054168409,-0.29210871513241,0.420267140691237,0
3.67999267578125,-2.91549396514893,1.8534734249115,2.74460077285767,-2.65063849381582,1.82532068681534,2.78372858527554,1229.491,1231.701,2984.377,2977.157,-0.002115082,0.05601551,0.003046954,-0.662739753723145,-0.271967262029648,0.470718860626221,-0.665986083416798,-0.286555206197011,0.41227711095171,0
3.70001220703125,-2.92849683761597,1.84814071655273,2.75385713577271,-2.66384123964357,1.81963991412768,2.79190171387692,1234.611,1227.971,2976.003,2972.627,-0.0006572682,0.05635651,0.001652051,-0.650140762329102,-0.266632348299026,0.462820261716843,-0.65298533214413,-0.280961346123326,0.404229026602262,0
3.719970703125,-2.94124579429626,1.84291529655457,2.76295709609985,-2.67674377421065,1.81408831395855,2.7998889974069,1245.399,1227.612,2972.013,2956.557,0.0007866754,0.05669593,0.0002386091,-0.637455344200134,-0.261277228593826,0.454994082450867,-0.639937296597115,-0.275347140947358,0.396151671034529,0
3.739990234375,-2.95373964309692,1.83779728412628,2.77190113067627,-2.68942333385363,1.80863265367006,2.80773824883709,1227.002,1227.664,2972.153,2964.405,0.002139536,0.05700266,-0.001074319,-0.624683558940887,-0.255906462669373,0.447207391262054,-0.62676873176137,-0.26968107538565,0.387999702095468,0
3.760009765625,-2.96597671508789,1.8327864408493,2.78068256378174,-2.70183851231475,1.80329074921818,2.81542383572149,1231.043,1223.944,2964.583,2960.569,0.003526203,0.0573124,-0.002406965,-0.611851334571838,-0.25052797794342,0.439072728157043,-0.613526094901139,-0.263983138701136,0.379801879044709,0
3.77996826171875,-2.97795581817627,1.82788383960724,2.78930282592773,-2.71395125899829,1.79807897271122,2.82292220292874,1241.046,1223.557,2961.018,2945.205,0.004903094,0.05761975,-0.003752927,-0.598954200744629,-0.245138242840767,0.431013196706772,-0.600256853941589,-0.258273755015919,0.371587586789143,0
3.79998779296875,-2.98967552185059,1.82308876514435,2.79776239395142,-2.72583438304408,1.79296599641037,2.83027842278479,1224.127,1223.668,2960.49,2952.6,0.006194553,0.05789699,-0.005002482,-0.585992693901062,-0.239740207791328,0.422979861497879,-0.586886736182787,-0.252520966862155,0.36331084698941,0
3.82000732421875,-3.00113534927368,1.81840229034424,2.80605530738831,-2.73744929742843,1.78796842323393,2.8374686080838,1228.693,1220.104,2953.427,2948.167,0.007516146,0.05817635,-0.006267483,-0.572992742061615,-0.234341740608215,0.41464039683342,-0.573463232144022,-0.246745208083563,0.355001058539243,0
3.8399658203125,-3.01233434677124,1.81382322311401,2.8141827583313,-2.7487608239245,1.78310138939013,2.8444709818276,1237.437,1219.777,2949.734,2934.589,0.008819106,0.05845192,-0.007538344,-0.559948444366455,-0.228938907384872,0.406375110149384,-0.560034590932614,-0.240967238923098,0.346688089934488,0
3.8599853515625,-3.02327156066895,1.8093523979187,2.82214593887329,-2.75983729406747,1.77833549372837,2.85132784449154,1222.006,1219.919,2949.396,2940.816,0.01003812,0.05869928,-0.008717059,-0.546862006187439,-0.223534911870956,0.39815554022789,-0.546525890176286,-0.235154822377061,0.338325560657667,0
3.8800048828125,-3.0339469909668,1.8049898147583,2.82993912696838,-2.77064299647982,1.77368610185671,2.85801708903178,1225.371,1216.569,2942.792,2937.454,0.01127859,0.05894711,-0.009903763,-0.533759295940399,-0.218138262629509,0.389654874801636,-0.532985466132484,-0.229328756186666,0.329943393154704,0
3.89996337890625,-3.04435968399048,1.80073475837708,2.83756375312805,-2.78114566623477,1.76916709647178,2.86451874192163,1234.055,1216.174,2939.458,2924.115,0.01250309,0.05919154,-0.01109473,-0.520634233951569,-0.212745115160942,0.381233692169189,-0.519462149665189,-0.223510050908514,0.32157181605655,0
3.91998291015625,-3.05450940132141,1.79658782482147,2.84502077102661,-2.79140913007042,1.76475101471128,2.87087231495249,1220.127,1216.407,2938.638,2929.797,0.01364341,0.05940932,-0.01219568,-0.507488965988159,-0.207357779145241,0.372855007648468,-0.505880764601328,-0.217666360335509,0.313164291730931,0
