t,x_s1,x_s2,x_s3,x_s_d1,x_s_d2,x_s_d3,propellers_rpms1,propellers_rpms2,propellers_rpms3,propellers_rpms4,rollRad,pitchRad,yawRad,v_s1,v_s2,v_s3,v_s_d1,v_s_d2,v_s_d3,insideCount
0,-0.0599999986588955,2.94000005722046,1.17999994754791,-0.0599999986588955,2.94000005722046,1.17999994754791,0,0,0,0,0,45.0048027038574,0,0,0,0,-1.06581410364015E-15,4.44089209850063E-16,4.44089209850063E-16,0
0.0200004577636719,-0.0599999986588955,2.94000005722046,1.17705690860748,-0.0600018691155303,2.93999925241522,1.18000110544967,0,0,0,0,0.937003672122955,44.8630027770996,-0.00115976633969694,3.71994488546079E-08,3.50004931704007E-08,-0.147149950265884,-0.000279999361409376,-0.000120475902936966,0.000173332942931458,5
0.0399971008300781,-0.0599999986588955,2.94000005722046,1.17018985748291,-0.0600148681826738,2.93999365927978,1.18000915249146,0,0,0,0,1.87400352954865,44.7211418151855,-0.00311126722954214,3.70364325874561E-08,3.5142885934647E-08,-0.343349903821945,-0.00111080915396111,-0.000477950146533378,0.000687643781479785,6
0.05999755859375,-0.0599062219262123,2.94009447097778,1.16346526145935,-0.0600498857373401,2.93997859220429,1.18003083002592,3197.432,2848.815,1517.367,2782.438,1.40361189842224,44.7413673400879,0.0288765635341406,0.00468880916014314,0.00471898214891553,-0.336232781410217,-0.00247936261166862,-0.00106680046642749,0.00153484356504269,6
0.0799980163574219,-0.0597377717494965,2.94026732444763,1.1572380065918,-0.0601175407449857,2.93994948214456,1.18007271169851,2865.784,2651.892,2344.775,2562.366,0.339624375104904,44.8158378601074,0.0997710525989532,0.00842255633324385,0.00864489283412695,-0.311360716819763,-0.00437227586895222,-0.00188126815916228,0.00270664704326441,6
0.0999984741210938,-0.0595562718808651,2.94046425819397,1.15152084827423,-0.0602281887669101,2.93990187339187,1.18014120809498,2240.099,2528.321,3138.224,2508.773,359.321594238281,44.9191284179688,0.17850299179554,0.00907493662089109,0.00984920468181372,-0.285860657691956,-0.00677637982016689,-0.00291568692648091,0.00419490191241918,5
0.119998931884766,-0.059424351900816,2.94063234329224,1.14657151699066,-0.0603919230601972,2.93983142309968,1.18024256742227,2124.083,2455.028,3352.087,2464.694,358.75,44.9999122619629,0.253289222717285,0.00659600831568241,0.0083983913064003,-0.247469320893288,-0.00967861374975049,-0.00416443710735115,0.00599152296740588,5
0.139999389648438,-0.0593829229474068,2.94074034690857,1.14257490634918,-0.0606185767455666,2.93973390035084,1.18038287685052,2312.538,2456.896,3069.476,2463.674,358.636199951172,45.0326995849609,0.326336443424225,0.00207144021987915,0.00539851048961282,-0.199831232428551,-0.0130660253322238,-0.00562194567796536,0.00808849210174802,5
0.159999847412109,-0.0594432726502419,2.94078588485718,1.13953101634979,-0.0609177249752248,2.93960518522485,1.18056806385509,2536.91,2487.092,2635.849,2492.239,358.757049560547,45.0250396728516,0.398150831460953,-0.00301751401275396,0.00227892864495516,-0.152193814516068,-0.0169257706321904,-0.00728268625174051,0.0104778583075938,5
0.180000305175781,-0.0595999844372272,2.94078183174133,1.13731896877289,-0.0612986871007165,2.9394412678651,1.18080389755851,2666.89,2506.424,2302.964,2513.607,358.864379882813,44.9986000061035,0.467283457517624,-0.00783552043139935,-0.000198493711650372,-0.1106036901474,-0.0212451141043368,-0.00914117907931815,0.0131517376757159,5
0.199996948242188,-0.0598475411534309,2.94073987007141,1.13577473163605,-0.0617704296168641,2.93923829023936,1.18109592864822,2653.962,2500.569,2183.749,2508.983,358.817199707031,44.9744491577148,0.532795667648315,-0.0123778861016035,-0.00209245947189629,-0.0772141069173813,-0.0260104776919234,-0.0111915819022102,0.0161017247421801,5
0.219997406005859,-0.0601894706487656,2.94066214561462,1.13476371765137,-0.0623419453860714,2.93899238297017,1.18144972413443,2540.72,2470.931,2246.29,2479.415,358.612762451172,44.9637489318848,0.594422519207001,-0.0170965753495693,-0.00388249871321023,-0.050549253821373,-0.0312111627562649,-0.0134292913950757,0.0193211965399932,5
0.239997863769531,-0.0606387294828892,2.9405415058136,1.13421738147736,-0.0630217183703222,2.93869989564571,1.18187053599376,2412.389,2430.241,2374.586,2437.791,358.335083007813,44.9659652709961,0.652505099773407,-0.0224630013108253,-0.00603321334347129,-0.0273159239441156,-0.0368338920540454,-0.0158485947310391,0.02280193382306,5
0.259998321533203,-0.0612130984663963,2.94036602973938,1.13412117958069,-0.063818066443955,2.93835724931701,1.18236351338666,2330.254,2392.545,2463.01,2399.102,358.076843261719,44.9739303588867,0.707613408565521,-0.0287184771150351,-0.0087700504809618,-0.00480940751731396,-0.04286636357961,-0.0184441987007453,0.0265363210638542,4
0.279998779296875,-0.061929639428854,2.94012498855591,1.13447892665863,-0.0647390625194898,2.93796097043536,1.18293365383054,2306.309,2365.654,2470.646,2371.269,357.887573242188,44.9803848266602,0.760378181934357,-0.0358271412551403,-0.0120578557252884,0.0178883038461208,-0.0492963837173861,-0.0212108567320638,0.030516809833474,4
0.299999237060547,-0.0628011971712112,2.93981075286865,1.13528335094452,-0.065792536715479,2.93750768991949,1.18358580454179,2318.06,2348.837,2416.371,2354.082,357.765563964844,44.9818649291992,0.811093330383301,-0.0435779206454754,-0.0157080311328173,0.0402214974164963,-0.0561118672418845,-0.0241433688900884,0.0347359188016424,4
0.319999694824219,-0.063836045563221,2.93942022323608,1.13650619983673,-0.0669860785243584,2.93699414222283,1.18432466377777,2335.428,2337.144,2343.387,2342.266,357.679260253906,44.9789237976074,0.859798014163971,-0.0517423078417778,-0.0195258371531963,0.0611434727907181,-0.0633008373176985,-0.0272365818771378,0.0391862337367069,4
0.340000152587891,-0.065039724111557,2.93895220756531,1.13810431957245,-0.0683270389802989,2.93641716440073,1.1851547821788,2338.537,2325.41,2287.44,2330.709,357.595092773438,44.9742126464844,0.906314969062805,-0.0601840354502201,-0.0234060939401388,0.0799050331115723,-0.0708514254995047,-0.0304853890327553,0.0438604075056398,4
0.359996795654297,-0.066417284309864,2.93840527534485,1.14003145694733,-0.0698222324154443,2.93577382443646,1.1860803781411,2322.956,2311.291,2262.419,2316.637,357.495300292969,44.9703559875488,0.950516223907471,-0.0688781887292862,-0.0273443609476089,0.0963555872440338,-0.0787503322603694,-0.0338840679420472,0.0487502070677249,4
0.379997253417969,-0.0679746270179749,2.93777751922607,1.14224827289581,-0.0714791088463715,2.935060916796,1.18710606357981,2296.039,2295.019,2261.877,2300.323,357.380645751953,44.968635559082,0.992361605167389,-0.0778669938445091,-0.0313917398452759,0.110842116177082,-0.0869889214763108,-0.0374289027221294,0.0538502862508218,4
0.399997711181641,-0.069718636572361,2.93706560134888,1.14472675323486,-0.0733040467096699,2.93427569701629,1.18823578705104,2269.538,2278.64,2269.144,2283.53,357.262603759766,44.968822479248,1.03203308582306,-0.0872006490826607,-0.035600870847702,0.123921431601048,-0.0955541759940907,-0.0411142924556206,0.059152586816983,4
0.419998168945313,-0.0716565549373627,2.93626570701599,1.14744675159454,-0.0753034649285836,2.93341540321397,1.18947352217404,2249.833,2263.729,2271.694,2268.486,357.153045654297,44.9699668884277,1.06962847709656,-0.0968961343169212,-0.0399917662143707,0.136002466082573,-0.104434660908044,-0.0449353170220673,0.0646500300148815,4
0.439998626708984,-0.0737952068448067,2.93537473678589,1.15039253234863,-0.0774835548069347,2.93247737144397,1.19082310166083,2238.679,2251.344,2264.317,2255.881,357.058013916016,44.9711036682129,1.10528838634491,-0.10693247616291,-0.0445504710078239,0.147288605570793,-0.113619049702587,-0.0488871029382406,0.0703356041918149,4
0.459999084472656,-0.076140508055687,2.93438982963562,1.15354824066162,-0.0798502821969742,2.93145903476675,1.19228821865812,2233.051,2241.24,2249.571,2245.666,356.976745605469,44.9717559814453,1.13908421993256,-0.117265194654465,-0.0492436178028584,0.157788291573524,-0.123096124252221,-0.0529648233581361,0.0762023647937057,4
0.479999542236328,-0.0786974802613258,2.93330907821655,1.15689694881439,-0.0824093896672336,2.93035792231548,1.19387242808941,2228.794,2232.747,2233.353,2236.985,356.904663085938,44.9719696044922,1.17109513282776,-0.127848625183105,-0.0540382638573647,0.16743803024292,-0.13285477482153,-0.0571636980729742,0.0822434343651008,4
0.5,-0.0814705044031143,2.93213081359863,1.16042125225067,-0.085166398670376,2.92917165836334,1.1955791479969,2223.3,2225.013,2220.37,2229.162,356.836975097656,44.9720726013184,1.20134019851685,-0.138651341199875,-0.058914165943861,0.176214277744293,-0.142884000065179,-0.0614789935111996,0.0884520025491718,5
0.520000457763672,-0.0844636708498001,2.93085360527039,1.1641047000885,-0.0881266117110474,2.92789796139072,1.19741166088358,2216.016,2217.715,2212.347,2221.732,356.771240234375,44.9723815917969,1.22985899448395,-0.149658307433128,-0.0638651847839355,0.184170126914978,-0.153172907027918,-0.0659060227384819,0.0948213260877149,5
0.539997100830078,-0.0876809656620026,2.92947578430176,1.16793310642242,-0.0912944900108037,2.92653491185861,1.1993727284581,2207.995,2210.836,2208.21,2214.722,356.707366943359,44.9730529785156,1.25669860839844,-0.160864904522896,-0.0688929110765457,0.191422328352928,-0.163708678212627,-0.0704392707438901,0.101343470339432,5
0.55999755859375,-0.0911263227462769,2.9279956817627,1.17189502716064,-0.094676112580471,2.92507989413848,1.20146611391775,2200.42,2204.494,2206.007,2208.409,356.646942138672,44.9740447998047,1.28184807300568,-0.172267749905586,-0.073999211192131,0.198099106550217,-0.17448465888317,-0.0750758741803766,0.108014315705644,5
0.579998016357422,-0.0948035344481468,2.9264121055603,1.17598176002502,-0.0982755538235842,2.92353115512831,1.2036943395124,2195.142,2199.344,2202.923,2202.673,356.59130859375,44.9751815795898,1.30556726455688,-0.183860763907433,-0.0791827067732811,0.204339161515236,-0.185488294752812,-0.0798104312890852,0.11482609048482,5
0.599998474121094,-0.098716139793396,2.92472338676453,1.18018567562103,-0.102097262171133,2.92188678079254,1.20606015903275,2191.027,2194.75,2199.426,2198.262,356.540893554688,44.9763603210449,1.32778561115265,-0.195630475878716,-0.0844359546899796,0.2101930975914,-0.196709126405959,-0.0846384416756885,0.121772319800455,5
0.619998931884766,-0.102867394685745,2.92292833328247,1.18450009822845,-0.106145477944935,2.92014494663912,1.20856619743999,2188.169,2191.146,2195.538,2194.494,356.495422363281,44.9774971008301,1.34857594966888,-0.207562655210495,-0.0897508785128593,0.215718910098076,-0.208136802817102,-0.0895554515830839,0.128846595874672,5
0.639999389648438,-0.107260257005692,2.92102599143982,1.1889191865921,-0.110424235525481,2.91830391678686,1.21121495220784,2185.986,2188.222,2191.902,2191.438,356.454193115234,44.9785919189453,1.36799502372742,-0.219643294811249,-0.0951194316148758,0.220956176519394,-0.219761081350814,-0.0945570538913933,0.136042578028218,5
0.659999847412109,-0.111897468566895,2.91901516914368,1.1934380531311,-0.114937365519793,2.91636204303257,1.21400879466451,2184.089,2185.824,2189.085,2188.972,356.416381835938,44.9796867370605,1.38607037067413,-0.231860280036926,-0.100535571575165,0.225943922996521,-0.231571827761751,-0.0996388881179631,0.143353992680462,5
0.680000305175781,-0.116781547665596,2.91689538955688,1.19805252552032,-0.119688496929273,2.91431776391831,1.21694997133476,2182.321,2183.955,2187.315,2186.905,356.381530761719,44.9807929992676,1.40288400650024,-0.244204133749008,-0.105994932353497,0.230725899338722,-0.243559016194652,-0.104796640417365,0.150774633349401,5
0.699996948242188,-0.121914893388748,2.91466546058655,1.20275962352753,-0.124680083855354,2.91217002351282,1.22004000142426,2180.891,2182.405,2186.306,2185.375,356.349548339844,44.98193359375,1.4184273481369,-0.256667256355286,-0.111494772136211,0.235354423522949,-0.255710395848158,-0.11002503961202,0.158296916205407,5
0.719997406005859,-0.127299711108208,2.91232490539551,1.20755696296692,-0.129917262555645,2.90991661182791,1.22328206452116,2179.477,2181.238,2186.229,2184.24,356.320526123047,44.9831237792969,1.43268489837646,-0.269241482019424,-0.1170319840312,0.239865884184837,-0.26802079535749,-0.115321860608138,0.165917639927336,5
0.739997863769531,-0.132938131690025,2.90987277030945,1.21244370937347,-0.135402141159277,2.90755662179454,1.22667746565781,2179.511,2180.834,2185.415,2183.253,356.294494628906,44.9842681884766,1.44591331481934,-0.281920909881592,-0.122604496777058,0.244336649775505,-0.280478211503383,-0.120681938755799,0.173629373950669,5
0.759998321533203,-0.138832032680511,2.90730857849121,1.21741890907288,-0.141137563960274,2.90508882959244,1.2302279655877,2179.166,2180.464,2185.439,2183.017,356.271209716797,44.985408782959,1.4580512046814,-0.294695138931274,-0.128207206726074,0.248759716749191,-0.293073051970232,-0.126101146749576,0.181426180175103,5
0.779998779296875,-0.144983187317848,2.90463185310364,1.22248256206512,-0.147126184485884,2.90251209348295,1.23393520697061,2179.373,2180.45,2185.614,2183.012,356.250610351563,44.986515045166,1.46909749507904,-0.307557493448257,-0.133837327361107,0.253181278705597,-0.305795832832518,-0.131575403921268,0.189302187598958,5
0.799999237060547,-0.151393190026283,2.90184211730957,1.22763502597809,-0.153370467664426,2.8998253528763,1.23780071571459,2179.855,2180.775,2185.988,2183.259,356.232513427734,44.9875907897949,1.4790848493576,-0.320500195026398,-0.139491632580757,0.25762540102005,-0.318637178554805,-0.1371006762399,0.197251592319181,5
0.819999694824219,-0.158063501119614,2.89893889427185,1.23287725448608,-0.159872691993147,2.89702762739878,1.24182590231796,2180.561,2181.359,2186.577,2183.747,356.216827392578,44.9886245727539,1.48805522918701,-0.333515673875809,-0.145166993141174,0.262113898992538,-0.331587821991737,-0.142672976311719,0.205268657531342,5
0.840000152587891,-0.164995431900024,2.89592170715332,1.2382105588913,-0.166634951706069,2.89411801595997,1.24601206321137,2181.448,2182.155,2187.374,2184.448,356.203399658203,44.9896278381348,1.49604845046997,-0.346596837043762,-0.150860607624054,0.266666263341904,-0.344638604388044,-0.148288363380199,0.213347713529636,5
0.859996795654297,-0.17219015955925,2.8927903175354,1.24363648891449,-0.173657794122436,2.89109628306371,1.25035953721147,2182.474,2183.126,2188.379,2185.325,356.192108154297,44.990592956543,1.5031054019928,-0.359736710786819,-0.156569823622704,0.27129915356636,-0.357777960707973,-0.153941861333544,0.221481601006014,5
0.879997253417969,-0.179648712277412,2.88954448699951,1.24915683269501,-0.180945630646592,2.88796053060595,1.25487105518773,2183.296,2184.037,2189.911,2186.502,356.183074951172,44.9915351867676,1.50911056995392,-0.372927993535995,-0.162291750311852,0.276018768548965,-0.371001963495383,-0.159631780297098,0.229667888678032,5
0.899997711181641,-0.187372028827667,2.88618397712708,1.25477433204651,-0.188498701076517,2.88471065540831,1.25954676558649,2185.301,2185.638,2190.421,2187.373,356.176086425781,44.9923896789551,1.51438128948212,-0.386165738105774,-0.168024897575378,0.280873835086823,-0.384299280991351,-0.165353244531568,0.237899561647111,5
0.919998168945313,-0.195360839366913,2.88270878791809,1.26049089431763,-0.196318384305134,2.8813460641717,1.26438752200817,2186.45,2186.834,2191.816,2188.857,356.170837402344,44.9932022094727,1.51879024505615,-0.39944064617157,-0.173764958977699,0.285826504230499,-0.397661187980262,-0.171102499820431,0.246171218589148,5
0.939998626708984,-0.203615814447403,2.87911868095398,1.26630902290344,-0.204405885800988,2.87786623821667,1.26939407069523,2187.838,2188.177,2193.303,2190.25,356.167327880859,44.9939918518066,1.52231454849243,-0.412747979164124,-0.179510444402695,0.290904372930527,-0.411079067636589,-0.176875838584386,0.254477525278661,5
0.959999084472656,-0.212137430906296,2.87541341781616,1.27223134040833,-0.212762239776093,2.87427073255068,1.27456705187416,2189.26,2189.648,2194.85,2191.625,356.165618896484,44.9947319030762,1.52499830722809,-0.426081597805023,-0.185259476304054,0.296113401651382,-0.424544411524882,-0.18266959988136,0.262813214588797,5
0.979999542236328,-0.220926150679588,2.87159323692322,1.27826046943665,-0.221388311353785,2.87055917493534,1.27990700109753,2190.748,2191.177,2196.366,2193.03,356.165710449219,44.9954299926758,1.52689278125763,-0.439435333013535,-0.191009774804115,0.301458865404129,-0.438048819599778,-0.188480169406503,0.271173086491326,5
1,-0.22998221218586,2.86765813827515,1.28439939022064,-0.230284798736574,2.86673126495361,1.28541435058594,2192.338,2192.644,2197.77,2194.556,356.167572021484,44.9960708618164,1.52797436714172,-0.452802956104279,-0.196758985519409,0.306944400072098,-0.451584000205995,-0.194303979492187,0.279552008056641,5
1.01999664306641,-0.239305764436722,2.86360812187195,1.29065072536469,-0.239450461003889,2.86278753653895,1.29108833215045,2193.917,2194.184,2199.133,2196.033,356.171142578125,44.9966659545898,1.52826976776123,-0.46617779135704,-0.202504605054855,0.312568128108978,-0.465139182559269,-0.200136395770846,0.2879433116562,5
1.03999710083008,-0.248896807432175,2.85944318771362,1.29701709747314,-0.248889165986195,2.85872632547195,1.29693134016237,2195.04,2195.49,2200.964,2197.636,356.176513671875,44.9972343444824,1.52764999866486,-0.479552775621414,-0.208243995904922,0.318316638469696,-0.478711464817306,-0.205976169660809,0.296345200911388,5
1.05999755859375,-0.258755266666412,2.85516357421875,1.30350172519684,-0.258599401509697,2.85454828239877,1.30294243851408,2197.334,2197.418,2201.498,2198.708,356.183471679688,44.9977035522461,1.52648615837097,-0.492923736572266,-0.213976085186005,0.324230223894119,-0.492290296490434,-0.211818761581115,0.30475114456651,5
1.07999801635742,-0.268880903720856,2.85076975822449,1.31010675430298,-0.268581219802083,2.85025338484727,1.30912165953701,2198.493,2198.67,2202.929,2200.373,356.191772460938,44.9981460571289,1.52459669113159,-0.506281435489655,-0.219696596264839,0.330251514911652,-0.50586781946303,-0.217660790404144,0.31315627807366,5
1.09999847412109,-0.279273331165314,2.84626173973083,1.31683480739594,-0.278834517009062,2.84584167750307,1.31546893894041,2199.798,2199.961,2204.345,2201.78,356.201416015625,44.9985580444336,1.52193236351013,-0.519622027873993,-0.225404560565948,0.336399853229523,-0.519436284009554,-0.223498921639497,0.321555803983559,5
1.11999893188477,-0.289932161569595,2.84163975715637,1.32368814945221,-0.289359035362208,2.84131327127672,1.32198411715334,2201,2201.315,2205.738,2203.007,356.212585449219,44.9989242553711,1.51854765415192,-0.532939732074738,-0.231098353862762,0.342670172452927,-0.532988048794549,-0.229329867434001,0.329944991945551,5
1.13999938964844,-0.300856739282608,2.83690428733826,1.33066928386688,-0.300154365346813,2.83666834237095,1.3286669406667,2202.2,2202.568,2206.981,2204.215,356.225280761719,44.9992752075195,1.5144624710083,-0.546228766441345,-0.236775904893875,0.349059581756592,-0.546515580872639,-0.235150386571708,0.338319178707607,5
1.15999984741211,-0.312046408653259,2.83205556869507,1.33778059482574,-0.311219947869739,2.83190713134792,1.33551706337518,2203.432,2203.742,2207.992,2205.387,356.239532470703,44.9995727539063,1.50967729091644,-0.559483110904694,-0.242435023188591,0.355563223361969,-0.560011455688534,-0.240957284473894,0.346673768116318,6
1.17999649047852,-0.323500335216522,2.82709407806396,1.34502398967743,-0.322552888823985,2.82703088346102,1.34253269368871,2204.554,2204.87,2208.908,2206.463,356.255310058594,44.999828338623,1.50421476364136,-0.572696328163147,-0.248073190450668,0.362170279026031,-0.573465794611364,-0.246746310641672,0.355002644828593,6
1.19999694824219,-0.335217535495758,2.8220202922821,1.35240113735199,-0.334156660511822,2.8220381046756,1.34971598112778,2205.125,2205.637,2210.259,2207.637,356.272766113281,45.000072479248,1.49789834022522,-0.585861504077911,-0.253687709569931,0.368860274553299,-0.58687652428584,-0.252516572968185,0.36330452533874,6
1.21999740600586,-0.347197026014328,2.81683468818665,1.35991454124451,-0.346028131869748,2.8169301422008,1.35706498741494,2206.987,2207.063,2210.065,2208.14,356.291656494141,45.0002212524414,1.49112868309021,-0.598974823951721,-0.259277582168579,0.375673115253448,-0.600233974716476,-0.258263910724523,0.371573423458908,6
1.23999786376953,-0.359437555074692,2.81153798103333,1.36756527423859,-0.358166167196084,2.81170748469733,1.36457900949675,2207.465,2207.702,2210.892,2209.24,356.311706542969,45.000358581543,1.48370265960693,-0.612026870250702,-0.264838367700577,0.382537364959717,-0.613531154887641,-0.263985315871967,0.379805011417393,6
1.2599983215332,-0.371937870979309,2.8061306476593,1.3753547668457,-0.370569492049568,2.80637068052165,1.37225725843336,2208.069,2208.356,2211.686,2209.983,356.332977294922,45.00048828125,1.47558307647705,-0.625014185905457,-0.270369350910187,0.389471888542175,-0.626761182173783,-0.269677827009021,0.387995028541113,6
1.27999877929688,-0.384696453809738,2.80061316490173,1.38328409194946,-0.383236695417198,2.80092033679326,1.3800988607405,2208.555,2208.996,2212.403,2210.55,356.355621337891,45.0005950927734,1.46680045127869,-0.637931525707245,-0.275868982076645,0.39646914601326,-0.639917282339435,-0.275338529371412,0.396139281255613,6
1.29999923706055,-0.397711902856827,2.79498648643494,1.39135456085205,-0.396166231882091,2.79535711846185,1.3881028597315,2209.024,2209.555,2212.924,2211.014,356.379791259766,45.0006828308105,1.4573962688446,-0.650773167610168,-0.281335264444351,0.403523206710815,-0.652992789539212,-0.280964554832093,0.404233643085061,6
1.31999969482422,-0.410982608795166,2.78925108909607,1.39956712722778,-0.409356423791328,2.7896817473746,1.39626821685929,2209.501,2209.949,2213.181,2211.483,356.405426025391,45.0007362365723,1.44733929634094,-0.663533329963684,-0.286765694618225,0.410626292228699,-0.665981146317813,-0.286553081901244,0.412274054652251,6
1.34000015258789,-0.424506694078445,2.78340792655945,1.40792238712311,-0.422805463423808,2.78389500134342,1.4045938130584,2209.853,2210.318,2213.325,2211.795,356.432556152344,45.0007591247559,1.43665266036987,-0.67620575428009,-0.292157888412476,0.41776567697525,-0.678875903610019,-0.292101335726266,0.4202565236786,6
1.3599967956543,-0.438282370567322,2.77745771408081,1.41642105579376,-0.436508776648329,2.77799884848916,1.41307681672372,2210.138,2210.566,2213.33,2212.032,356.461090087891,45.0007514953613,1.42534208297729,-0.688784599304199,-0.297509551048279,0.424933075904846,-0.691668290305691,-0.297605542343502,0.428175620429107,6
1.37999725341797,-0.452307641506195,2.77140140533447,1.42506313323975,-0.450469530727146,2.77199192602736,1.42171918854144,2209.715,2210.441,2213.913,2212.341,356.491180419922,45.0007705688477,1.41321802139282,-0.701263129711151,-0.302817940711975,0.432102352380753,-0.704356955827446,-0.303065120637236,0.436030508832034,6
1.39999771118164,-0.466580390930176,2.76523971557617,1.43384957313538,-0.464682951063699,2.76587628833354,1.43051797280888,2210.784,2211.011,2212.763,2211.918,356.522674560547,45.0006942749023,1.40071260929108,-0.713638126850128,-0.308082342147827,0.439320653676987,-0.716933326165324,-0.308476381450513,0.44381588116678,6
1.41999816894531,-0.481098383665085,2.7589738368988,1.4427797794342,-0.47914673136562,2.75965292774086,1.43947174182117,2210.305,2210.769,2212.76,2212.125,356.555267333984,45.0006217956543,1.38762819766998,-0.72590035200119,-0.313298225402832,0.446508646011353,-0.729391385793766,-0.313836736470737,0.451528013536465,6
1.43999862670898,-0.495859324932098,2.75260448455811,1.45185351371765,-0.4938584461112,2.75332288788357,1.44857899406484,2210.009,2210.508,2212.695,2212.006,356.589050292969,45.0005531311035,1.373903632164,-0.738047003746033,-0.318464875221252,0.453689098358154,-0.741725227577294,-0.31914364402254,0.459163249142831,6
1.45999908447266,-0.510860741138458,2.74613285064697,1.46107053756714,-0.508815552717244,2.74688726276417,1.45783815555978,2209.597,2210.275,2212.563,2211.675,356.624206542969,45.0004959106445,1.35958027839661,-0.750072956085205,-0.323580682277679,0.460853964090347,-0.753929052770513,-0.324394609067776,0.466717998286247,6
1.47999954223633,-0.526100218296051,2.73955988883972,1.4704304933548,-0.524015393706918,2.74034719582071,1.46724758120123,2209.239,2209.922,2212.169,2211.31,356.660827636719,45.0004081726074,1.34466516971588,-0.761973083019257,-0.328643709421158,0.467999666929245,-0.76599717101811,-0.329587183205524,0.474188738365705,6
1.5,-0.541575133800507,2.73288679122925,1.47993278503418,-0.539455198877605,2.73370387899399,1.4768055561018,2208.813,2209.505,2211.609,2210.867,356.698913574219,45.000316619873,1.32916915416718,-0.773741602897644,-0.333651423454285,0.475115656852722,-0.777924000354858,-0.334718964672088,0.481572013878822,6
1.51999664306641,-0.557282507419586,2.72611474990845,1.48957669734955,-0.555129074991064,2.72695984797977,1.48650843206629,2208.358,2208.991,2210.882,2210.365,356.738433837891,45.0002021789551,1.31308698654175,-0.785372972488403,-0.338601440191269,0.482194095849991,-0.789701834723693,-0.339786637766398,0.488863054409188,6
1.53999710083008,-0.573219776153564,2.71924495697021,1.49936091899872,-0.571040013494911,2.72011381564173,1.49635806094328,2207.236,2208.142,2210.699,2209.943,356.779571533203,45.000114440918,1.29623484611511,-0.796860694885254,-0.343490988016129,0.489210069179535,-0.801329803423436,-0.344789827850059,0.496061320951293,6
1.55999755859375,-0.589383780956268,2.71227860450745,1.50928521156311,-0.587181951496087,2.71316839067337,1.50635068951315,2207.678,2208.025,2208.75,2208.784,356.822052001953,44.9999351501465,1.27906346321106,-0.808201730251312,-0.348319232463837,0.496212273836136,-0.812800388649436,-0.349725300221754,0.503162159625937,6
1.57999801635742,-0.605771481990814,2.70521688461304,1.5193475484848,-0.603551689586986,2.70612494969039,1.51648433719019,2206.494,2207.075,2208.047,2208.325,356.865509033203,44.9997749328613,1.26135718822479,-0.819387435913086,-0.353081822395325,0.503119826316833,-0.824108441976122,-0.354590839657789,0.510162383312438,6
1.59999847412109,-0.622379779815674,2.69806122779846,1.5295467376709,-0.620145926473056,2.69898491314762,1.52675696031579,2205.467,2206.174,2207.393,2207.48,356.910095214844,44.999641418457,1.24309194087982,-0.830415427684784,-0.357778131961823,0.509957313537598,-0.835248923368005,-0.359384277571697,0.517058871988737,5
1.61999893188477,-0.639205455780029,2.6908130645752,1.53988122940063,-0.636961261140657,2.69174974440622,1.53716645350051,2204.425,2205.223,2206.619,2206.545,356.955993652344,44.99951171875,1.22426247596741,-0.841281473636627,-0.362406730651855,0.516722321510315,-0.846216901179681,-0.364103492014234,0.523848572731403,5
1.63999938964844,-0.656244993209839,2.68347382545471,1.55034947395325,-0.653994195024907,2.68442094880091,1.54771065096602,2203.414,2204.236,2205.635,2205.542,357.003295898438,44.9993896484375,1.20487475395203,-0.851980745792389,-0.366965740919113,0.523410737514496,-0.857007552155828,-0.368746407673381,0.530528499715628,5
1.65999984741211,-0.673495233058929,2.67604470252991,1.56094980239868,-0.671241134177535,2.67700007270724,1.55838732788714,2202.438,2203.235,2204.427,2204.459,357.052032470703,44.9992446899414,1.18496596813202,-0.862508177757263,-0.371452867984772,0.530016422271729,-0.867616161431205,-0.373310995874343,0.537095734215228,5
1.67999649047852,-0.690952360630035,2.66852736473083,1.5716804265976,-0.688695041988866,2.66949014378176,1.56919212826729,2201.337,2202.141,2203.184,2203.361,357.102111816406,44.9990921020508,1.16453695297241,-0.87285852432251,-0.375865787267685,0.536528944969177,-0.878036152828799,-0.377794427071868,0.543546205263364,5
1.69999694824219,-0.708612859249115,2.66092324256897,1.5825389623642,-0.706358800111611,2.66188992212981,1.58012683598675,2199.631,2200.694,2202.487,2202.4,357.153747558594,44.9989700317383,1.14337754249573,-0.883026242256165,-0.380202114582062,0.542928755283356,-0.888267004546665,-0.382196476749158,0.549879589839776,5
1.71999740600586,-0.726473152637482,2.65323400497437,1.59352433681488,-0.724225231782013,2.65420249571236,1.5911870082869,2199.638,2200.105,2199.925,2200.619,357.206634521484,44.9987678527832,1.1220029592514,-0.893008470535278,-0.384460747241974,0.549268841743469,-0.898302321135456,-0.386514393123025,0.556091928856661,5
1.73999786376953,-0.744529008865356,2.64546132087708,1.6046336889267,-0.742290383213093,2.64642956573347,1.60237019758524,2197.909,2198.545,2198.727,2199.745,357.260437011719,44.9985961914063,1.10011506080627,-0.90279757976532,-0.388637602329254,0.555464923381805,-0.908137821269591,-0.39074633405868,0.562180571969536,5
1.7599983215332,-0.762776792049408,2.63760662078857,1.61586463451385,-0.760550216073323,2.63857286977439,1.61367390396219,2196.447,2197.192,2197.536,2198.361,357.315216064453,44.9984397888184,1.07772755622864,-0.912391722202301,-0.392732471227646,0.561547458171844,-0.917769332013572,-0.394890504058555,0.568142935932543,4
1.77999877929688,-0.781212568283081,2.6296718120575,1.62721490859985,-0.779000609654483,2.63063418086074,1.62509557650306,2194.868,2195.796,2196.37,2196.925,357.371185302734,44.9983024597168,1.054856300354,-0.921787202358246,-0.396744012832642,0.567511737346649,-0.927192788821983,-0.398945154262308,0.57397650459845,4
1.79999923706055,-0.799832165241241,2.62165832519531,1.6386821269989,-0.79763736303951,2.62261530652977,1.63663261464007,2193.417,2194.323,2194.966,2195.497,357.428436279297,44.9981689453125,1.03148472309113,-0.930980145931244,-0.40067058801651,0.573359668254852,-0.936404235539493,-0.402908582446823,0.579678828918647,4
1.81999969482422,-0.8186314702034,2.61356806755066,1.65026378631592,-0.816456197270346,2.61451808789761,1.64828236949435,2191.983,2192.92,2193.389,2193.955,357.487030029297,44.9980392456055,1.00767147541046,-0.939966082572937,-0.404510289430618,0.579085171222687,-0.945399824400851,-0.406779133026206,0.585247526943151,3
1.83999633789063,-0.837606251239777,2.60540294647217,1.66195750236511,-0.835449117627072,2.60634596486888,1.66003989195343,2190.562,2191.406,2191.682,2192.462,357.546844482422,44.9978981018066,0.98340779542923,-0.948740720748901,-0.408260941505432,0.584683179855347,-0.954174163352093,-0.410554485950274,0.590679260733698,3
1.8599967956543,-0.856752216815948,2.59716463088989,1.67376005649567,-0.854618942724365,2.59809772467243,1.67190692687406,2188.424,2189.535,2190.646,2191.169,357.608093261719,44.9977874755859,0.958444833755493,-0.957299053668976,-0.411920160055161,0.590130507946014,-0.962726969681477,-0.41423451957606,0.595973855278252,0
1.87999725341797,-0.876064956188202,2.58885478973389,1.68566977977753,-0.873957566090845,2.58977685529642,1.6838784559643,2188.166,2188.626,2187.668,2188.958,357.670440673828,44.9975967407227,0.933343946933746,-0.96563857793808,-0.415487349033356,0.595486760139465,-0.971053025860989,-0.417816988947023,0.601128080678429,0
1.89999771118164,-0.895539939403534,2.58047556877136,1.69768309593201,-0.893460418296025,2.58138532283915,1.69595165052899,2186.042,2186.791,2186.178,2187.687,357.733520507813,44.9974365234375,0.907859563827515,-0.973752975463867,-0.418958783149719,0.600664675235748,-0.979148917665041,-0.421300425017273,0.606139823365946,0
1.91999816894531,-0.915172755718231,2.57202887535095,1.70979702472687,-0.913122862707269,2.57292512231409,1.70812364027167,2184.238,2185.019,2184.718,2186.065,357.797424316406,44.9973030090332,0.881927669048309,-0.981641232967377,-0.422334253787994,0.605698823928833,-0.987011339258123,-0.424683405378145,0.611007036871143,0
1.93999862670898,-0.934958815574646,2.56351661682129,1.72200882434845,-0.932940197657643,2.56439827671719,1.72039151463653,2182.403,2183.304,2183.226,2184.337,357.862365722656,44.9971961975098,0.855554699897766,-0.989300429821014,-0.425612986087799,0.610588073730469,-0.99463709319481,-0.4279645542582,0.615727741822989,0
1.95999908447266,-0.954893410205841,2.55494070053101,1.73431551456451,-0.952907658613767,2.55580683609405,1.73275232415044,2180.654,2181.611,2181.563,2182.56,357.928436279297,44.9970855712891,0.828776597976685,-0.996727228164673,-0.428793668746948,0.615332901477814,-1.00202309041976,-0.431142542523221,0.620300025949072,0
1.97999954223633,-0.97497171163559,2.54630327224731,1.74671411514282,-0.973020420343666,2.54715287660719,1.74520308176496,2178.979,2179.908,2179.716,2180.78,357.995635986328,44.9969711303711,0.801627278327942,-1.00391817092896,-0.431874543428421,0.619930565357208,-1.00916635026771,-0.434216087676217,0.62472204407561,0
1.99999618530273,-0.995189070701599,2.53760623931885,1.75920164585114,-0.993269723110518,2.53844016732665,1.7577383647857,2177.336,2178.156,2177.743,2179.031,358.063903808594,44.9968605041504,0.774105191230774,-1.01086974143982,-0.434853881597519,0.624377071857452,-1.01606270846678,-0.437183397947334,0.628991218319934,0
2.01999664306641,-1.015540599823,2.52885174751282,1.77177464962006,-1.01365835337184,2.52966750931758,1.77035989816261,2174.89,2176.069,2176.553,2177.499,358.133422851563,44.9967727661133,0.745971858501434,-1.01757788658142,-0.437729746103287,0.628647983074188,-1.02271203275434,-0.440044416427654,0.633107466805174,0
2.03999710083008,-1.03602135181427,2.52004170417786,1.78443086147308,-1.03417746715556,2.52083870789413,1.78306220705567,2174.515,2174.927,2173.32,2175.053,358.203826904297,44.9966087341309,0.71778792142868,-1.02404057979584,-0.440501689910889,0.632809638977051,-1.02911032850577,-0.442797424341804,0.637068316668402,0
2.05999755859375,-1.05662643909454,2.51117849349976,1.79716634750366,-1.05482201812353,2.5119559343546,1.79584216754118,2172.172,2172.887,2171.638,2173.603,358.274749755859,44.9964752197266,0.689297139644623,-1.0302529335022,-0.443166524171829,0.636771619319916,-1.03525504859546,-0.445441325732794,0.640872191117535,0
2.07999801635742,-1.07735085487366,2.50226402282715,1.80997776985168,-1.07558691007788,2.50302138145056,1.8086966248299,2170.176,2170.911,2170.018,2171.81,358.346313476563,44.9963722229004,0.660421371459961,-1.03621470928192,-0.445724308490753,0.640570878982544,-1.04114375428791,-0.447975071280863,0.644517580459114,0
2.09999847412109,-1.09818935394287,2.49330043792725,1.82286190986633,-1.09646699912883,2.4940372624541,1.82162239460902,2168.149,2169.063,2168.396,2169.869,358.418670654297,44.9962882995605,0.631200611591339,-1.04192364215851,-0.448174744844437,0.64420747756958,-1.04677411523768,-0.450397658303471,0.648003042098304,0
2.11999893188477,-1.11913681030273,2.48429012298584,1.83581554889679,-1.11745709586255,2.485005810225,1.83461626438416,2166.278,2167.241,2166.562,2167.903,358.492004394531,44.9962120056152,0.601696848869324,-1.04737734794617,-0.450516790151596,0.647684693336487,-1.0521439094894,-0.452708130755304,0.651327200538896,0
2.13999938964844,-1.14018821716309,2.47523522377014,1.84883558750153,-1.138551967509,2.47592927627801,1.8476749948214,2164.504,2165.344,2164.535,2166.035,358.566223144531,44.9961318969727,0.571898639202118,-1.05257332324982,-0.452749013900757,0.651000082492828,-1.05725102347782,-0.454905579228273,0.654488747383304,0
2.15999984741211,-1.16133832931519,2.46613788604736,1.86191856861115,-1.15974634010981,2.46680992985011,1.86079532108929,2162.681,2163.452,2162.491,2164.159,358.641265869141,44.9960403442383,0.541798830032349,-1.0575088262558,-0.454870045185089,0.654147684574127,-1.06209345202774,-0.456989140951513,0.657486441332569,0
2.17999649047852,-1.18258202075958,2.45700025558472,1.87506103515625,-1.18103083166728,2.45765180775279,1.8739714352843,2160.838,2161.593,2160.454,2162.226,358.717041015625,44.9959564208984,0.511428594589233,-1.06218147277832,-0.456878781318665,0.65712583065033,-1.06666845113384,-0.45895763525619,0.660318583716675,0
2.19999694824219,-1.20391380786896,2.44782471656799,1.88825929164886,-1.20240821395574,2.44845371736898,1.88720505326679,2158.209,2159.372,2159.224,2160.568,358.793792724609,44.995906829834,0.480546832084656,-1.06658887863159,-0.458774089813232,0.659914195537567,-1.07097597819164,-0.460811043810786,0.662985148161421,0
2.21999740600586,-1.22532820701599,2.43861365318298,1.9015109539032,-1.22386905090202,2.43921971877738,1.90049033365798,2157.771,2158.115,2155.9,2157.958,358.871185302734,44.9957656860352,0.449733227491379,-1.07072925567627,-0.460555583238602,0.662581741809845,-1.07501345493598,-0.46254825725983,0.665484538597853,0
2.23999786376953,-1.24682021141052,2.4293692111969,1.91481173038483,-1.24540792547886,2.42995214277345,1.91382392305993,2155.364,2155.95,2154.075,2156.448,358.948822021484,44.995677947998,0.418706148862839,-1.07459986209869,-0.462220907211304,0.66503894329071,-1.07877930973132,-0.464168599372462,0.667815782108711,0
2.2599983215332,-1.26838433742523,2.42009377479553,1.92815816402435,-1.26701939030951,2.42065333321126,1.92720244928693,2153.207,2153.898,2152.446,2154.55,359.026824951172,44.9956092834473,0.387400716543198,-1.07820069789886,-0.463770568370819,0.667319416999817,-1.08227207933222,-0.465671440555045,0.66997797287536,0
2.27999877929688,-1.29001498222351,2.41078948974609,1.94154679775238,-1.28869796983554,2.41132564607061,1.9406225227075,2151.152,2151.963,2150.726,2152.531,359.105407714844,44.9955673217773,0.35585230588913,-1.08153092861176,-0.465204536914825,0.66942948102951,-1.08549040888332,-0.467056197851165,0.67197027217779,0
2.29999923706055,-1.31170678138733,2.40145921707153,1.95497417449951,-1.31043816248474,2.40197144852433,1.95408073758635,2149.204,2150.075,2148.837,2150.502,359.184661865234,44.9955215454102,0.3241226375103,-1.08458888530731,-0.466522216796875,0.671369850635529,-1.08843305191934,-0.468322334941636,0.673791908394614,0
2.31999969482422,-1.33345437049866,2.3921046257019,1.96843695640564,-1.33223444283894,2.39259311800549,1.96757367342642,2147.415,2148.079,2146.726,2148.617,359.264556884766,44.9954681396484,0.292163252830505,-1.08737289905548,-0.467722654342651,0.673140823841095,-1.09109887036509,-0.469469362144493,0.675442177003072,0
2.33999633789063,-1.35525178909302,2.38272881507874,1.98193168640137,-1.35407709248145,2.38319483607731,1.98109531406483,2145.489,2146.248,2144.697,2146.591,359.344970703125,44.9954109191895,0.260057508945465,-1.0898814201355,-0.468804985284805,0.67473429441452,-1.09348640563071,-0.470496651869278,0.67692017506657,0
2.3599967956543,-1.37709403038025,2.37333345413208,1.99545443058014,-1.37596887940059,2.37377541175173,1.99464737301821,2143.026,2143.961,2143.237,2144.963,359.426147460938,44.9953918457031,0.227523609995842,-1.09211301803589,-0.469768434762955,0.676137983798981,-1.09559564748259,-0.471404199712748,0.678225896250009,0
2.37999725341797,-1.39897537231445,2.36392116546631,2.00900268554688,-1.39790005743958,2.36433903852774,2.00822381695123,2142.444,2142.703,2140.014,2142.301,359.507659912109,44.9952774047852,0.195161789655685,-1.0940660238266,-0.470612704753876,0.677407741546631,-1.09742530100382,-0.472191448508328,0.679358538938131,0
2.39999771118164,-1.42089033126831,2.35449433326721,2.02257204055786,-1.41986502747765,2.35488812555058,2.02182117974142,2139.998,2140.502,2138.236,2140.795,359.589172363281,44.9952163696289,0.162674441933632,-1.09573972225189,-0.471336305141449,0.678464472293854,-1.09897466165884,-0.47285809511406,0.680317666989874,0
2.41999816894531,-1.44283306598663,2.34505558013916,2.03615880012512,-1.44185817738692,2.34542508756209,2.03543598721428,2137.897,2138.462,2136.561,2138.871,359.670837402344,44.9951782226563,0.130011692643166,-1.09713459014893,-0.471940010786057,0.679343044757843,-1.10024313330221,-0.473403883025206,0.681102911362803,0
2.43999862670898,-1.46479797363281,2.33560705184937,2.04975986480713,-1.46387388420027,2.33595234396796,2.0490647584853,2135.904,2136.54,2134.78,2136.853,359.752807617188,44.9951553344727,0.0972154438495636,-1.09825038909912,-0.4724240899086,0.68004846572876,-1.10123022817855,-0.473828602374257,0.681713970113108,0
2.45999908447266,-1.48677980899811,2.3261513710022,2.06337141990662,-1.48590651627916,2.32647231790489,2.06270400730194,2133.95,2134.659,2132.912,2134.842,359.835144042969,44.9951400756836,0.0643411502242088,-1.09908664226532,-0.472788333892822,0.680579781532288,-1.10193556692257,-0.474132089930926,0.682150608395601,0
2.47999954223633,-1.50877261161804,2.31669068336487,2.07699012756348,-1.50795043548148,2.31698743530794,2.07635024338568,2132.083,2132.667,2130.932,2132.977,359.917816162109,44.9951133728027,0.0313345491886139,-1.09964263439178,-0.473032265901566,0.680937349796295,-1.10235887855907,-0.474314229102152,0.682412658463722,0
2.49999618530273,-1.5307708978653,2.30722761154175,2.09061241149902,-1.52999579362571,2.30750193357449,2.089997370243,2130.282,2130.86,2128.865,2130.954,0.000799701374489814,44.9950866699219,-0.00171258777845651,-1.09991776943207,-0.473155617713928,0.681120336055756,-1.10250000049778,-0.474374949929889,0.682500019666355,0
2.51999664306641,-1.55276906490326,2.29776453971863,2.10423469543457,-1.55204535801192,2.29801462201262,2.10364710096447,2127.729,2128.622,2127.532,2129.364,0.0842787623405457,44.9950981140137,359.964935302734,-1.0999116897583,-0.473157823085785,0.681108772754669,-1.10235893238473,-0.47431425226183,0.68241269178437,0
2.53999710083008,-1.57476139068604,2.2883038520813,2.11785411834717,-1.57408927882895,2.2885297387209,2.11729333804778,2127.342,2127.332,2124.256,2126.754,0.167842850089073,44.9950065612793,359.931793212891,-1.09962296485901,-0.473038792610168,0.680967509746552,-1.10193567455836,-0.474132136243598,0.68215067502728,0
2.55999755859375,-1.59674251079559,2.27884793281555,2.13146638870239,-1.59612191359838,2.27904971150017,2.13093258853001,2124.908,2125.231,2122.516,2125.263,0.251120924949646,44.9949531555176,359.898681640625,-1.09905254840851,-0.472797900438309,0.680611193180084,-1.10123038958312,-0.473828671822132,0.681714070030222,0
2.57999801635742,-1.61870658397675,2.26939916610718,2.14506793022156,-1.6181376241771,2.2695769662859,2.14456136213196,2122.828,2123.225,2120.925,2123.397,0.334262251853943,44.9949417114258,359.865478515625,-1.09820151329041,-0.472436100244522,0.680076420307159,-1.10024334841354,-0.473403975581601,0.681103044526962,0
2.59999847412109,-1.64064788818359,2.25996017456055,2.15865540504456,-1.64013077892511,2.26011392621545,2.15817617260023,2120.845,2121.377,2119.257,2121.406,0.41744002699852,44.994945526123,359.832244873047,-1.09707045555115,-0.471954166889191,0.679369151592255,-1.09897493039424,-0.472858210743393,0.680317833349887,0
2.61999893188477,-1.6625611782074,2.25053310394287,2.1722252368927,-1.66209575487342,2.25066301069528,2.17177353904914,2119.023,2119.506,2117.401,2119.493,0.500722408294678,44.9949493408203,359.799041748047,-1.09565985202789,-0.471352130174637,0.67849212884903,-1.09742562325992,-0.472191587166126,0.67935873843001,0
2.63999938964844,-1.68444061279297,2.2411208152771,2.18577408790588,-1.68402693989188,2.24122663446822,2.18534998730279,2117.18,2117.64,2115.521,2117.637,0.584102749824524,44.9949531555176,359.765838623047,-1.09396994113922,-0.47063010931015,0.677441537380219,-1.09559602313537,-0.471404361345641,0.67822612879697,0
2.65999603271484,-1.7062805891037,2.23172473907471,2.199298620224,-1.70591456353497,2.23180900148401,2.19889946898997,2115.521,2115.793,2113.474,2115.783,0.667484223842621,44.9949378967285,359.732604980469,-1.09200084209442,-0.469787925481796,0.676220953464508,-1.09348726343002,-0.470497020956359,0.676920706085208,0
2.67999649047852,-1.72807562351227,2.2223482131958,2.2127947807312,-1.72776139360717,2.22240892083372,2.2124236975135,2112.952,2113.837,2112.28,2114.089,0.751096963882446,44.9949722290039,359.699279785156,-1.08975350856781,-0.468825936317444,0.674806356430054,-1.09109935234628,-0.469469569527535,0.67544247537239,0
2.69999694824219,-1.74982011318207,2.21299338340759,2.2262601852417,-1.74955768413056,2.21303058593937,2.22591663964878,2112.715,2112.43,2109.087,2111.699,0.834519267082214,44.9948997497559,359.666290283203,-1.0872266292572,-0.467743664979935,0.673267185688019,-1.08843358680109,-0.468322565086308,0.673792239511893,0
2.71999740600586,-1.77150845527649,2.20366263389587,2.23969054222107,-1.77129788800495,2.2036763835632,2.23937486147656,2110.369,2110.449,2107.42,2110.276,0.917378842830658,44.9948692321777,359.633361816406,-1.08442306518555,-0.466541588306427,0.671517491340637,-1.08549099645889,-0.467056450668518,0.671970635915057,0
2.73999786376953,-1.79313540458679,2.19435811042786,2.2530825138092,-1.79297647980783,2.19434869114016,2.25279494249708,2108.419,2108.591,2105.883,2108.446,0.999799370765686,44.994873046875,359.600463867188,-1.08134424686432,-0.465220838785172,0.669594585895538,-1.08227271937422,-0.465671715947234,0.669978369091845,0
2.7599983215332,-1.81469523906708,2.18508243560791,2.26643252372742,-1.81458795796224,2.18504987584512,2.26617347697213,2106.452,2106.797,2104.389,2106.595,1.08196997642517,44.9949035644531,359.567687988281,-1.07799184322357,-0.463782459497452,0.667501449584961,-1.07878000199166,-0.464168897232749,0.667816210650842,0
2.77999877929688,-1.8361828327179,2.17583799362183,2.27973747253418,-1.83612684690458,2.17578229366013,2.27950707526701,2104.747,2105.019,2102.649,2104.772,1.16398358345032,44.9949226379395,359.535003662109,-1.07436692714691,-0.462227135896683,0.665245831012726,-1.07501419914593,-0.462548577472581,0.665484999299265,0
2.79999923706055,-1.8575918674469,2.16662693023682,2.29299402236938,-1.85758769925251,2.16654828844162,2.29279236519255,2103.053,2103.249,2100.836,2103.031,1.24582123756409,44.9949493408203,359.502410888672,-1.07047080993652,-0.460555136203766,0.662823975086212,-1.07097677406178,-0.460811386251471,0.662985640842947,0
2.81999588012695,-1.87891817092896,2.15745162963867,2.30619883537292,-1.87896102895071,2.15735194177419,2.30602347442862,2101.522,2101.664,2098.879,2101.136,1.32735800743103,44.9949378967285,359.470031738281,-1.06630432605743,-0.45876681804657,0.660238146781921,-1.06667014556453,-0.458958364322378,0.660319632649988,0
2.83999633789063,-1.90015530586243,2.14831447601318,2.31934809684753,-1.90024960698239,2.14819206138118,2.31920211834584,2099.068,2099.534,2097.791,2099.859,1.40881383419037,44.9949913024902,359.437530517578,-1.06186985969543,-0.456862777471542,0.657465100288391,-1.06209435025759,-0.456989527434725,0.657486997379635,0
2.8599967956543,-1.92129862308502,2.13921761512756,2.332439661026,-1.9214439980555,2.13907270700516,2.33232245604895,2098.933,2098.48,2094.778,2097.315,1.48976767063141,44.9949378967285,359.405517578125,-1.05716598033905,-0.454843044281006,0.654573321342468,-1.05725197237562,-0.454905987512489,0.654489334796247,0
2.87999725341797,-1.94234251976013,2.13016319274902,2.3454692363739,-1.94253888918396,2.12999616467562,2.34538119854648,2096.634,2096.539,2093.313,2096.108,1.56990730762482,44.9949378967285,359.373687744141,-1.05219769477844,-0.452708750963211,0.65147864818573,-1.05214490868305,-0.452708560680416,0.651327819087361,0
2.89999771118164,-1.96328186988831,2.12115430831909,2.35843372344971,-1.96352900640172,2.1209647036328,2.35837508100222,2094.834,2094.833,2091.911,2094.367,1.64937853813171,44.9949531555176,359.342041015625,-1.04696679115295,-0.450461119413376,0.648221075534821,-1.04677516433438,-0.450398109700476,0.648003691539142,0
2.91999816894531,-1.98411178588867,2.11219215393066,2.37132978439331,-1.98440911693069,2.11198057539494,2.37130086407726,2093.182,2093.041,2090.377,2092.772,1.72829127311707,44.9949836730957,359.310516357422,-1.04147553443909,-0.448101460933685,0.644806444644928,-1.04114485287423,-0.447975543971863,0.644518260536375,0
2.93999862670898,-2.00482606887817,2.10327982902527,2.38415431976318,-2.00517403134858,2.10304601282548,2.38415533527198,2091.389,2091.547,2088.943,2090.979,1.80676174163818,44.9950408935547,359.279235839844,-1.03572607040405,-0.445631086826324,0.641230463981628,-1.03525619623725,-0.445441819530995,0.640872901562472,0
2.95999908447266,-2.02542042732239,2.09441876411438,2.39690446853638,-2.02581860575671,2.0941632292003,2.39693531026807,2090.107,2089.955,2087.08,2089.287,1.884721159935,44.9950714111328,359.248260498047,-1.02972006797791,-0.443050444126129,0.63750684261322,-1.02911152474823,-0.442797939051516,0.637069057199471,0
2.97999954223633,-2.04588961601257,2.08561134338379,2.40957689285278,-2.04633774394789,2.08533441727499,2.40963763427052,2088.434,2088.371,2085.496,2087.724,1.96208477020264,44.9950904846191,359.217529296875,-1.0234602689743,-0.440360397100449,0.633619546890259,-1.022713277122,-0.440044951844293,0.633108237128031,0
2.99999618530273,-2.06622862815857,2.07686042785645,2.42216849327087,-2.06672252359526,2.07656341607755,2.42225678393395,2086.98,2086.783,2083.837,2086.134,2.03879809379578,44.9951171875,359.187072753906,-1.01694869995117,-0.437561810016632,0.629579067230225,-1.01606529245116,-0.437184509763622,0.628992817929355,0
3.01999664306641,-2.08643221855164,2.06816720962524,2.43467593193054,-2.08697572864857,2.06784902775215,2.4347944826559,2084.938,2084.922,2082.725,2084.905,2.11502861976624,44.9951782226563,359.156646728516,-1.01018857955933,-0.43465593457222,0.625371813774109,-1.00916768936771,-0.434216663853534,0.624722873042298,0
3.03999710083008,-2.10649609565735,2.05953431129456,2.447096824646,-2.10708851762775,2.05919505654068,2.44724525713902,2084.651,2084.044,2080.187,2082.543,2.19041037559509,44.9951591491699,359.126831054688,-1.00317966938019,-0.431643277406693,0.621046960353851,-1.00202447609459,-0.431143138740389,0.620300883747801,0
3.05999755859375,-2.12641429901123,2.05096387863159,2.45942759513855,-2.12705600675913,2.05060360379452,2.45960608409476,2082.626,2082.193,2078.892,2081.564,2.26471972465515,44.9951705932617,359.097320556641,-0.995928108692169,-0.428525537252426,0.616540968418121,-0.994638524886308,-0.427965170275055,0.615728628108227,0
3.07999801635742,-2.14618301391602,2.04245781898499,2.47166538238525,-2.14687337079936,2.04207674568107,2.47187397646763,2081.187,2080.769,2077.503,2079.907,2.33802199363708,44.9952087402344,359.068145751953,-0.988436102867126,-0.425304174423218,0.611889898777008,-0.987012816387451,-0.424684040945629,0.611007951284564,0
3.09999847412109,-2.16579723358154,2.03401827812195,2.48380708694458,-2.16653584520328,2.033616532251,2.4840459847772,2079.509,2079.202,2076.312,2078.511,2.41044211387634,44.9952697753906,359.039276123047,-0.98070752620697,-0.421980977058411,0.607088625431061,-0.979150439632689,-0.421301079877433,0.606140765536421,0
3.11999893188477,-2.18525242805481,2.02564692497253,2.49585008621216,-2.18603872829175,2.02522498650551,2.49611919846012,2078.122,2077.779,2074.927,2076.989,2.48206663131714,44.9953308105469,359.0107421875,-0.972744882106781,-0.418557286262512,0.602148592472076,-0.971054592046769,-0.41781766283301,0.601129050222034,0
3.13999938964844,-2.2045431137085,2.01734638214111,2.50779151916504,-2.20537738341953,2.01690410346351,2.50809074721212,2076.745,2076.423,2073.499,2075.497,2.55289173126221,44.9953804016113,358.982604980469,-0.964551389217377,-0.415034383535385,0.597067594528198,-0.962728579444533,-0.414235212212131,0.595974851798267,0
3.15999603271484,-2.22366571426392,2.00911784172058,2.51962852478027,-2.22454360124808,2.00865741537402,2.51995554906156,2075.672,2075.055,2071.826,2074.048,2.62276196479797,44.9954071044922,358.954895019531,-0.956129848957062,-0.411413162946701,0.591852188110352,-0.95417746870157,-0.410555908149813,0.590681306902481,0
3.17999649047852,-2.24261569976807,2.00096392631531,2.53135800361633,-2.2435401949712,2.00048371179835,2.53171534550942,2073.596,2073.483,2071.034,2072.972,2.69185566902161,44.995491027832,358.927398681641,-0.947485029697418,-0.407695591449738,0.586477398872375,-0.9454015193052,-0.406779862296197,0.585248576169681,0
3.19999694824219,-2.26138806343079,1.99288630485535,2.54297804832458,-2.2623590635174,1.99238647840124,2.54336512160655,2073.573,2072.455,2068.698,2071.077,2.75983285903931,44.9954872131348,358.900482177734,-0.938616752624512,-0.403881877660751,0.58100414276123,-0.936405971974636,-0.402909329586355,0.579679903854719,0
3.21999740600586,-2.27997875213623,1.98488700389862,2.55448532104492,-2.28099585204123,1.98436758895103,2.55490218149615,2071.873,2071.113,2067.465,2069.98,2.82641363143921,44.9955024719238,358.874053955078,-0.92953222990036,-0.399974703788757,0.575369477272034,-0.927194566064376,-0.398945918960059,0.573977604796153,0
3.23999786376953,-2.2983832359314,1.97696757316589,2.56587743759155,-2.29944628156995,1.97642888457015,2.56632387629027,2070.476,2069.709,2066.386,2068.73,2.89167046546936,44.9955673217773,358.848052978516,-0.920234858989716,-0.395975798368454,0.569600760936737,-0.917771149318993,-0.394891285994308,0.568144060931169,0
3.2599983215332,-2.3165979385376,1.96912956237793,2.57715153694153,-2.31770615117141,1.96857217280235,2.57762760541179,2069.129,2068.51,2065.318,2067.333,2.95572209358215,44.9956398010254,358.822540283203,-0.910728752613068,-0.391887217760086,0.563703954219818,-0.908139677873146,-0.390747132903322,0.562181721295578,0
3.27999877929688,-2.33461809158325,1.96137547492981,2.58830523490906,-2.33577134012187,1.96079922667992,2.58881081793642,2067.797,2067.223,2064.258,2066.11,3.01868414878845,44.995719909668,358.797515869141,-0.901018083095551,-0.387710750102997,0.557681560516357,-0.898304216251578,-0.386515208538549,0.556093102023818,0
3.29999923706055,-2.35244035720825,1.95370626449585,2.59933614730835,-2.35363781007389,1.95311178379095,2.59987101393471,2066.866,2065.997,2062.866,2064.862,3.08049893379211,44.995777130127,358.77294921875,-0.891106247901917,-0.383447706699371,0.551543831825256,-0.888268937369113,-0.38219730838866,0.549880786348944,0
3.31999588012695,-2.37005996704102,1.94612455368042,2.61024165153503,-2.37129825777079,1.94551298652277,2.61080367234288,2065.626,2064.871,2061.704,2063.664,3.14109992980957,44.9958419799805,358.748931884766,-0.880997836589813,-0.379100024700165,0.545279443264008,-0.878040092225563,-0.377796122084242,0.54354864393762,0
3.33999633789063,-2.38747406005859,1.93863117694855,2.62101936340332,-2.38875555478454,1.93800159931817,2.62161057080077,2064.287,2063.532,2060.748,2062.692,3.20056462287903,44.9959182739258,358.725250244141,-0.87069708108902,-0.374669313430786,0.538891673088074,-0.867618167158097,-0.373311858882592,0.53709697585572,0
3.3599967956543,-2.4046778678894,1.93122792243958,2.63166761398315,-2.40600253440574,1.930580705812,2.63228727277387,2064.047,2062.77,2058.931,2061.068,3.25857782363892,44.9959335327148,358.702301025391,-0.860206067562103,-0.370156913995743,0.532408952713013,-0.85700959304645,-0.368747285811601,0.530529763124145,0
3.37999725341797,-2.42166876792908,1.92391669750214,2.64218354225159,-2.42303550945299,1.9232518924954,2.64283149572124,2062.697,2061.646,2057.906,2060.133,3.31493735313416,44.9959754943848,358.679992675781,-0.849532246589661,-0.365565478801727,0.525793492794037,-0.846218976345105,-0.364104384899943,0.523849857357654,0
3.39999771118164,-2.43844246864319,1.91669869422913,2.65256476402283,-2.43985088596004,1.91601670575165,2.65324101480657,2061.47,2060.339,2057.093,2059.261,3.36972904205322,44.9960441589355,358.658142089844,-0.83868020772934,-0.360897034406662,0.519063711166382,-0.835251031898626,-0.359385184813519,0.517060177269636,0
3.41999816894531,-2.45499563217163,1.90957570075989,2.66280937194824,-2.45644516534361,1.90887665092339,2.66351366424015,2060.438,2059.452,2056.192,2058.007,3.42304992675781,44.9961242675781,358.636901855469,-0.827654242515564,-0.356154024600983,0.512230098247528,-0.824110582941664,-0.354591760855451,0.510163708672097,0
3.43999862670898,-2.4713249206543,1.90254878997803,2.67291522026062,-2.47281494657125,1.90183319137989,2.67364733862088,2059.499,2058.411,2055.205,2057.008,3.47491669654846,44.9962043762207,358.616271972656,-0.816459357738495,-0.351338505744934,0.505295097827911,-0.812802561098952,-0.34972623496609,0.503163504475677,0
3.45999908447266,-2.4874267578125,1.89561986923218,2.68288040161133,-2.48895692832918,1.89488774758421,2.68363999427827,2058.561,2057.496,2054.237,2055.976,3.52530932426453,44.996280670166,358.596282958984,-0.805100440979004,-0.346452474594116,0.498259097337723,-0.801332006385299,-0.344790775723006,0.496062684689628,0
3.47999572753906,-2.50329852104187,1.88878965377808,2.69270300865173,-2.50486489870395,1.88804299234919,2.69348778574196,2057.837,2056.526,2053.142,2055.037,3.57411646842957,44.9963340759277,358.576904296875,-0.793582260608673,-0.341497808694839,0.491128504276276,-0.789706299681989,-0.339788558913217,0.488865818431069,0
3.49999618530273,-2.51893663406372,1.88206028938293,2.70238065719604,-2.52054183223243,1.88129764581471,2.703192554392,2056.404,2055.518,2052.682,2054.305,3.62148976325989,44.9964294433594,358.558074951172,-0.781911075115204,-0.336477160453796,0.483888238668442,-0.777926261338517,-0.334719937510192,0.481573413535413,0
3.51999664306641,-2.53433847427368,1.87543249130249,2.71191239356995,-2.53598168290031,1.87465430941181,2.7127505574575,2056.676,2054.879,2050.98,2052.965,3.66710567474365,44.9964637756348,358.540069580078,-0.77008855342865,-0.331391483545303,0.476586818695068,-0.765999459475408,-0.329588167864767,0.474190155029786,0
3.53999710083008,-2.54950094223022,1.86890733242035,2.72129583358765,-2.55118156992615,1.86811422266028,2.72216001159753,2055.387,2053.989,2050.325,2052.369,3.71078300476074,44.996524810791,358.522735595703,-0.758124232292175,-0.326244413852692,0.469171345233917,-0.753931367647136,-0.324395605094516,0.466719431305148,0
3.55999755859375,-2.5644211769104,1.86248683929443,2.73052930831909,-2.56613872308604,1.86167857751006,2.73141920191151,2054.526,2053.181,2049.712,2051.48,3.75261473655701,44.9966087341309,358.506103515625,-0.746022462844849,-0.321038156747818,0.46167129278183,-0.741727567798258,-0.319144650954242,0.459164697851087,0
3.57999801635742,-2.57909727096558,1.8561714887619,2.73961114883423,-2.58085048488145,1.85534851740854,2.74052648328127,2053.859,2052.295,2048.962,2050.751,3.7926230430603,44.9967002868652,358.490173339844,-0.733788907527924,-0.315775215625763,0.45409432053566,-0.72939375026341,-0.313837753835969,0.451529477255809,0
3.59999847412109,-2.59352588653564,1.84996223449707,2.74853992462158,-2.59531431270705,1.84912513636775,2.74948028171299,2052.973,2051.587,2048.401,2049.994,3.83086824417114,44.9967880249023,358.474914550781,-0.721429765224457,-0.310458451509476,0.446435987949371,-0.716935713767317,-0.308477408768949,0.443817359206151,0
3.61999893188477,-2.60770463943481,1.84386038780212,2.75731420516968,-2.6095277810186,1.84300947803163,2.75827909567923,2052.432,2051.021,2047.642,2049.103,3.86733937263489,44.9968795776367,358.46044921875,-0.708949983119965,-0.305090099573135,0.438709169626236,-0.704359365424783,-0.303066157419654,0.436032000487571,0
3.63999557495117,-2.62163209915161,1.83786678314209,2.76593255996704,-2.62348594498176,1.83700367002424,2.76691986409198,2051.912,2050.316,2046.862,2048.467,3.90193176269531,44.9969520568848,358.446807861328,-0.696355760097504,-0.299672305583954,0.430912733078003,-0.691673151171832,-0.297607633838406,0.428178629536803,0
3.65999603271484,-2.63530492782593,1.83198285102844,2.77439332008362,-2.63719194552437,1.83110636089208,2.77540453133521,2050.879,2049.478,2046.58,2048.104,3.93475985527039,44.9970664978027,358.433715820313,-0.683653950691223,-0.294208019971848,0.423038154840469,-0.678878353700696,-0.292102389931838,0.420258040401444,0
3.67999649047852,-2.64872193336487,1.82620882987976,2.78269577026367,-2.65064103434641,1.825319593696,2.783730157985,2051.313,2049.219,2045.244,2046.969,3.96550297737122,44.9971046447754,358.421600341797,-0.670847356319427,-0.288698792457581,0.415126442909241,-0.665983614869008,-0.28655414404986,0.412275582803033,0
3.69999694824219,-2.66188097000122,1.82054591178894,2.79083847999573,-2.66383127580226,1.81964420129024,2.79189554578451,2050.293,2048.582,2044.913,2046.679,3.99402523040771,44.997184753418,358.410308837891,-0.657946407794952,-0.283148676156998,0.407131224870682,-0.65299527533123,-0.280965624398954,0.404235181908735,0
