t,x_s1,x_s2,x_s3,x_s_d1,x_s_d2,x_s_d3,propellers_rpms1,propellers_rpms2,propellers_rpms3,propellers_rpms4,rollRad,pitchRad,yawRad,v_s1,v_s2,v_s3,v_s_d1,v_s_d2,v_s_d3,insideCount
0,-0.0599999986588955,2.94000005722046,1.17999994754791,-0.0599999986588955,2.94000005722046,1.17999994754791,0,0,0,0,0,0,0,0,0,0,-1.06581410364015E-15,4.44089209850063E-16,4.44089209850063E-16,0
0.0200004577636719,-0.0599999986588955,2.94000005722046,1.1771354675293,-0.0600018691155303,2.93999925241522,1.18000110544967,0,0,0,0,0.0163538,-0.002474609,-2.024222E-05,3.71994488546079E-08,3.50004931704007E-08,-0.143225952982903,-0.000279999361409376,-0.000120475902936966,0.000173332942931458,5
0.0399971008300781,-0.0599999986588955,2.94000005722046,1.17048275470734,-0.0600148681826738,2.93999365927978,1.18000915249146,0,0,0,0,0.03270752,-0.004950816,-5.430172E-05,3.62924410524101E-08,3.44428769949445E-08,-0.332637369632721,-0.00111080915396111,-0.000477950146533378,0.000687643781479785,6
0.05999755859375,-0.0600004345178604,2.94013261795044,1.16416549682617,-0.0600498857373401,2.93997859220429,1.18003083002592,3185.327,2835.745,1501.183,2767.688,0.0312807,-0.00494336,-0.01646952,-2.17782071558759E-05,0.0066221822053194,-0.315862983465195,-0.00247936261166862,-0.00106680046642749,0.00153484356504269,6
0.0799980163574219,-0.0599162168800831,2.94038772583008,1.15857708454132,-0.0601175407449857,2.93994948214456,1.18007271169851,3065.889,3067.279,2154.909,2024.011,0.01897576,-0.004311125,-0.04351499,0.00421079527586699,0.0127501804381609,-0.279417842626572,-0.00437227586895222,-0.00188126815916228,0.00270664704326441,6
0.0999984741210938,-0.0596375539898872,2.94068765640259,1.15374839305878,-0.0602281887669101,2.93990187339187,1.18014120809498,2640.299,3831.799,2620.253,1134.771,-0.005853628,-0.002888465,-0.070145,0.0139331696555018,0.0149980382993817,-0.241433054208755,-0.00677637982016689,-0.00291568692648091,0.00419490191241918,6
0.119998931884766,-0.0590848997235298,2.94089889526367,1.14957010746002,-0.0603919230601972,2.93983142309968,1.18024256742227,2092.131,4101.959,3169.405,755.9783,-0.04011999,-0.0004511395,-0.08993548,0.0276327729225159,0.0105617847293615,-0.208912149071693,-0.00967861374975049,-0.00416443710735115,0.00599152296740588,5
0.139999389648438,-0.0582314804196358,2.94085621833801,1.14596664905548,-0.0606185767455666,2.93973390035084,1.18038287685052,1510.276,4074.798,3735.842,701.9816,-0.07649344,0.002388297,-0.09949782,0.0426709391176701,-0.00213014334440231,-0.180174320936203,-0.0130660253322238,-0.00562194567796536,0.00808849210174802,4
0.159999847412109,-0.0570994503796101,2.94039487838745,1.14297795295715,-0.0609177249752248,2.93960518522485,1.18056806385509,1135.155,3846.989,4069.844,879.9616,-0.1062793,0.004335378,-0.09870048,0.056601520627737,-0.0230685286223888,-0.149433255195618,-0.0169257706321904,-0.00728268625174051,0.0104778583075938,4
0.180000305175781,-0.0557377301156521,2.93938803672791,1.14071106910706,-0.0612986871007165,2.9394412678651,1.18080389755851,1100.956,3565.296,4009.968,1148.941,-0.1236298,0.00449213,-0.09000047,0.0680860206484795,-0.05034039914608,-0.11334216594696,-0.0212451141043368,-0.00914117907931815,0.0131517376757159,3
0.199996948242188,-0.0541964806616306,2.9377772808075,1.13924837112427,-0.0617704296168641,2.93923829023936,1.18109592864822,1373.32,3339.686,3594.831,1386.297,-0.1278759,0.003022997,-0.07724925,0.0770624876022339,-0.0805364102125168,-0.0731322020292282,-0.0260104776919234,-0.0111915819022102,0.0161017247421801,3
0.219997406005859,-0.0525142438709736,2.93557620048523,1.13858377933502,-0.0623419453860714,2.93899238297017,1.18144972413443,1790.69,3212.88,3017.002,1527.173,-0.1229747,0.0008613032,-0.06425995,0.0841119289398193,-0.110051348805428,-0.0332324616611004,-0.0312111627562649,-0.0134292913950757,0.0193211965399932,3
0.239997863769531,-0.0507195889949799,2.93284702301025,1.13860690593719,-0.0630217183703222,2.93869989564571,1.18187053599376,2159.397,3168.488,2517.219,1558.473,-0.1149639,-0.0009880328,-0.05362168,0.0897328406572342,-0.13645350933075,0.00115351751446724,-0.0368338920540454,-0.0158485947310391,0.02280193382306,3
0.259998321533203,-0.0488372705876827,2.92966485023499,1.13913774490356,-0.063818066443955,2.93835724931701,1.18236351338666,2351.927,3159.192,2273.852,1495.736,-0.1090506,-0.00190416,-0.04623621,0.0941160246729851,-0.15910741686821,0.0265412833541632,-0.04286636357961,-0.0184441987007453,0.0265363210638542,3
0.279998779296875,-0.0468917451798916,2.92608761787415,1.13999605178833,-0.0647390625194898,2.93796097043536,1.18293365383054,2352.63,3152.186,2324.218,1363.713,-0.1078149,-0.001744903,-0.04152241,0.0972763225436211,-0.178861439228058,0.0429132804274559,-0.0492963837173861,-0.0212108567320638,0.030516809833474,3
0.299999237060547,-0.0449087247252464,2.92214369773865,1.14106202125549,-0.065792536715479,2.93750768991949,1.18358580454179,2229.254,3144.052,2572.741,1194.445,-0.1110879,-0.000737163,-0.03798626,0.0991509631276131,-0.197190701961517,0.0532978884875774,-0.0561118672418845,-0.0241433688900884,0.0347359188016424,3
0.319999694824219,-0.0429168939590454,2.91783547401428,1.14229393005371,-0.0669860785243584,2.93699414222283,1.18432466377777,2074.002,3132.626,2873.269,1032.517,-0.1169325,0.0006862853,-0.03398034,0.0995916351675987,-0.215405941009521,0.0615976899862289,-0.0633008373176985,-0.0272365818771378,0.0391862337367069,3
0.340000152587891,-0.040948897600174,2.91315102577209,1.14370727539063,-0.0683270389802989,2.93641716440073,1.1851547821788,1955.229,3107.317,3109.308,921.641,-0.1228436,0.002069939,-0.02837492,0.0983998402953148,-0.234224021434784,0.0706678926944733,-0.0708514254995047,-0.0304853890327553,0.0438604075056398,3
0.360000610351563,-0.0390401259064674,2.90807723999023,1.14534330368042,-0.0698225328270578,2.93577369517774,1.1860805641102,1904.647,3065.717,3222.316,880.7499,-0.1267089,0.0030928,-0.02087066,0.0954384356737137,-0.25369268655777,0.0818015038967133,-0.0787518717320621,-0.0338847303337087,0.0487511600740379,3
0.379997253417969,-0.0372256487607956,2.90261030197144,1.14724338054657,-0.0714791088463715,2.935060916796,1.18710606357981,1923.88,3021.222,3207.127,896.0181,-0.1274205,0.003642355,-0.01188462,0.0907239019870758,-0.273342728614807,0.0950050801038742,-0.0869889214763108,-0.0374289027221294,0.0538502862508218,3
0.399997711181641,-0.0355372205376625,2.89676117897034,1.14943134784698,-0.0733040467096699,2.93427569701629,1.18823578705104,1991.007,2989.146,3098.973,939.2693,-0.1250397,0.003791127,-0.00220776,0.0844215601682663,-0.292450845241547,0.109398566186428,-0.0955541759940907,-0.0411142924556206,0.059152586816983,3
0.419998168945313,-0.0340019389986992,2.89055466651917,1.15190577507019,-0.0753034649285836,2.93341540321397,1.18947352217404,2072.485,2974.394,2953.229,986.8069,-0.1205001,0.003707689,0.007337686,0.0767641067504883,-0.310325562953949,0.123721145093441,-0.104434660908044,-0.0449353170220673,0.0646500300148815,3
0.439998626708984,-0.0326425023376942,2.88402462005615,1.15464162826538,-0.0774835548069347,2.93247737144397,1.19082310166083,2136.581,2973.087,2825.191,1022.772,-0.1150757,0.003563936,0.01615082,0.0679716095328331,-0.326507657766342,0.136794254183769,-0.113619049702587,-0.0488871029382406,0.0703356041918149,4
0.459999084472656,-0.0314783528447151,2.8772075176239,1.15760147571564,-0.0798502821969742,2.93145903476675,1.19228821865812,2168.26,2977.539,2748.816,1039.415,-0.1098666,0.003474716,0.02394427,0.0582077205181122,-0.340850323438644,0.147995382547379,-0.123096124252221,-0.0529648233581361,0.0762023647937057,4
0.479999542236328,-0.0305267050862312,2.87013840675354,1.16074764728546,-0.0824093896672336,2.93035792231548,1.19387242808941,2168.227,2984.174,2732.584,1032.712,-0.1055416,0.003481941,0.030747,0.0475821793079376,-0.353458553552628,0.157310545444489,-0.13285477482153,-0.0571636980729742,0.0822434343651008,4
0.5,-0.0298035629093647,2.86284685134888,1.16405189037323,-0.085166398670376,2.92917165836334,1.1955791479969,2146.717,2989.504,2763,1009.127,-0.1022691,0.003569113,0.03679604,0.0361572206020355,-0.364581406116486,0.165214583277702,-0.142884000065179,-0.0614789935111996,0.0884520025491718,4
0.520000457763672,-0.0293242875486612,2.8553569316864,1.16749894618988,-0.0881266117110474,2.92789796139072,1.19741166088358,2116.719,2992.531,2817.005,977.9294,-0.09984031,0.003686436,0.04241014,0.0239638090133667,-0.374494463205338,0.172352656722069,-0.153172907027918,-0.0659060227384819,0.0948213260877149,4
0.539997100830078,-0.0291039980947971,2.84768843650818,1.17108547687531,-0.0912944900108037,2.92653491185861,1.1993727284581,2089.077,2991.936,2871.106,950.9283,-0.09782909,0.003777277,0.04785883,0.0110146040096879,-0.383423745632172,0.179324612021446,-0.163708678212627,-0.0704392707438901,0.101343470339432,4
0.55999755859375,-0.0291574858129025,2.83985829353333,1.17481589317322,-0.094676112580471,2.92507989413848,1.20146611391775,2070.521,2988.939,2908.977,934.5518,-0.09578751,0.00379614,0.05329584,-0.00267438404262066,-0.391504049301147,0.186518087983131,-0.17448465888317,-0.0750758741803766,0.108014315705644,5
0.579998016357422,-0.0294989086687565,2.83188271522522,1.17869830131531,-0.0982755538235842,2.92353115512831,1.2036943395124,2064.103,2985.597,2921.798,931.3525,-0.0933864,0.003717303,0.05873802,-0.0170711483806372,-0.398782163858414,0.194122582674026,-0.185488294752812,-0.0798104312890852,0.11482609048482,5
0.599998474121094,-0.0301411300897598,2.82377815246582,1.18273913860321,-0.102097262171133,2.92188678079254,1.20606015903275,2066.796,2984.814,2912.503,937.7884,-0.09050114,0.003538135,0.06411413,-0.0321110747754574,-0.405232608318329,0.202044010162354,-0.196709126405959,-0.0846384416756885,0.121772319800455,5
0.619998931884766,-0.0310954302549362,2.8155620098114,1.18694186210632,-0.106145477944935,2.92014494663912,1.20856619743999,2074.476,2986.244,2886.768,952.9166,-0.08717325,0.003272539,0.06929014,-0.0477154217660427,-0.410806864500046,0.210136011242867,-0.208136802817102,-0.0895554515830839,0.128846595874672,5
0.639999389648438,-0.0323711335659027,2.80725288391113,1.1913046836853,-0.110424235525481,2.91830391678686,1.21121495220784,2082.951,2991.951,2855.511,968.1264,-0.08359823,0.002940842,0.07414924,-0.0637850239872932,-0.415456742048264,0.218139782547951,-0.219761081350814,-0.0945570538913933,0.136042578028218,5
0.659999847412109,-0.0339756794273853,2.79886960983276,1.19582235813141,-0.114937365519793,2.91636204303257,1.21400879466451,2087.797,2998.949,2826.557,983.6674,-0.08000296,0.002566974,0.07859895,-0.0802273750305176,-0.419169843196869,0.225886061787605,-0.231571827761751,-0.0996388881179631,0.143353992680462,5
0.680000305175781,-0.0359147377312183,2.79043030738831,1.20048701763153,-0.119688496929273,2.91431776391831,1.21694997133476,2087.968,3007.479,2806.821,993.7206,-0.07660743,0.002168659,0.08261014,-0.0969529002904892,-0.421970039606094,0.233234494924545,-0.243559016194652,-0.104796640417365,0.150774633349401,6
0.699996948242188,-0.0381925962865353,2.78195190429688,1.20529079437256,-0.124680083855354,2.91217002351282,1.22004000142426,2083.096,3014.915,2797.428,1000.52,-0.07354639,0.001759613,0.08619362,-0.113893009722233,-0.423921138048172,0.240186721086502,-0.255710395848158,-0.11002503961202,0.158296916205407,6
0.719997406005859,-0.0408123768866062,2.77344965934753,1.21022617816925,-0.129917262555645,2.90991661182791,1.22328206452116,2074.953,3021.578,2798.315,1001.913,-0.07088056,0.001345542,0.0894045,-0.130989134311676,-0.42510798573494,0.24676801264286,-0.26802079535749,-0.115321860608138,0.165917639927336,6
0.739997863769531,-0.0437765158712864,2.76493716239929,1.21528899669647,-0.135402141159277,2.90755662179454,1.22667746565781,2066.081,3026.291,2803.5,1002.549,-0.06858066,0.0009287424,0.09229759,-0.148207053542137,-0.425630003213882,0.253138989210129,-0.280478211503383,-0.120681938755799,0.173629373950669,6
0.759998321533203,-0.0470866225659847,2.75642561912537,1.22047531604767,-0.141137563960274,2.90508882959244,1.2302279655877,2057.5,3030.674,2812.655,999.5037,-0.0666014,0.0005077853,0.09494601,-0.165505424141884,-0.425576150417328,0.25931453704834,-0.293073051970232,-0.126101146749576,0.181426180175103,6
0.779998779296875,-0.0507440231740475,2.74792504310608,1.22578465938568,-0.147126184485884,2.90251209348295,1.23393520697061,2049.966,3032.244,2818.749,1001.738,-0.06483093,8.397355E-05,0.09737558,-0.182869657874107,-0.425032645463943,0.265467345714569,-0.305795832832518,-0.131575403921268,0.189302187598958,6
0.799999237060547,-0.0547492615878582,2.7394437789917,1.23121583461761,-0.153370467664426,2.8998253528763,1.23780071571459,2045.851,3035.585,2823.212,1000.182,-0.06322717,-0.0003462109,0.09962528,-0.200262561440468,-0.424061238765717,0.271559327840805,-0.318637178554805,-0.1371006762399,0.197251592319181,6
0.819999694824219,-0.059102613478899,2.73098945617676,1.23676955699921,-0.159872691993147,2.89702762739878,1.24182590231796,2042.691,3037.076,2821.882,1005.423,-0.06171982,-0.0007776431,0.1016833,-0.217667192220688,-0.422719061374664,0.277688950300217,-0.331587821991737,-0.142672976311719,0.205268657531342,6
0.840000152587891,-0.0638034045696259,2.72256851196289,1.24244439601898,-0.166634951706069,2.89411801595997,1.24601206321137,2042.064,3040.971,2819.378,1006.52,-0.06033285,-0.001211738,0.1035605,-0.235039427876472,-0.421045035123825,0.283742308616638,-0.344638604388044,-0.148288363380199,0.213347713529636,6
0.859996795654297,-0.068850576877594,2.71418690681458,1.24823999404907,-0.173657794122436,2.89109628306371,1.25035953721147,2040.89,3043.235,2813.219,1013.626,-0.05905453,-0.001639975,0.1052298,-0.252358496189117,-0.419082760810852,0.289782643318176,-0.357777960707973,-0.153941861333544,0.221481601006014,6
0.879997253417969,-0.0742420852184296,2.70584964752197,1.25415313243866,-0.180945630646592,2.88796053060595,1.25487105518773,2040.648,3047.709,2810.016,1014.381,-0.05795358,-0.002060754,0.106706,-0.269575327634811,-0.41686624288559,0.295655280351639,-0.371001963495383,-0.159631780297098,0.229667888678032,6
0.899997711181641,-0.0799756646156311,2.69756078720093,1.2601832151413,-0.188498701076517,2.88471065540831,1.25954676558649,2039.524,3050.122,2804.141,1021.288,-0.05702573,-0.002465022,0.1079651,-0.286680489778519,-0.414444625377655,0.30150580406189,-0.384299280991351,-0.165353244531568,0.237899561647111,7
0.919998168945313,-0.086048036813736,2.68932366371155,1.26632511615753,-0.196318384305134,2.8813460641717,1.26438752200817,2038.854,3055.215,2805.75,1017.298,-0.05636261,-0.002854909,0.1090545,-0.303618103265762,-0.411855787038803,0.307098090648651,-0.397661187980262,-0.171102499820431,0.246171218589148,7
0.939998626708984,-0.0924560725688934,2.68114042282104,1.27257907390594,-0.204405885800988,2.87786623821667,1.26939407069523,2035.412,3055.379,2804.392,1024.955,-0.05589336,-0.003217631,0.1099475,-0.32040211558342,-0.409158825874329,0.312698900699615,-0.411079067636589,-0.176875838584386,0.254477525278661,7
0.959999084472656,-0.0991956293582916,2.67301249504089,1.27893996238708,-0.212762239776093,2.87427073255068,1.27456705187416,2035.383,3060.222,2811.37,1015.838,-0.05570427,-0.003561179,0.1107167,-0.336978495121002,-0.406391739845276,0.318043649196625,-0.424544411524882,-0.18266959988136,0.262813214588797,7
0.979999542236328,-0.106263279914856,2.66494011878967,1.28540980815887,-0.221388311353785,2.87055917493534,1.27990700109753,2031.887,3058.765,2812.406,1023.58,-0.05567179,-0.003871704,0.111328,-0.353381395339966,-0.403614908456802,0.32348957657814,-0.438048819599778,-0.188480169406503,0.271173086491326,7
1,-0.11365433037281,2.6569230556488,1.29198348522186,-0.230284798736574,2.86673126495361,1.28541435058594,2033.346,3063.39,2822.302,1010.824,-0.0558891,-0.004162521,0.1118664,-0.369552314281464,-0.400857120752335,0.328684151172638,-0.451584000205995,-0.194303979492187,0.279552008056641,7
1.01999664306641,-0.121365249156952,2.64895963668823,1.29866528511047,-0.239450461003889,2.86278753653895,1.29108833215045,2030.55,3060.358,2822.335,1021.205,-0.05619057,-0.004418184,0.112273,-0.385546416044235,-0.398173749446869,0.334090352058411,-0.465139182559269,-0.200136395770846,0.2879433116562,7
1.03999710083008,-0.129390999674797,2.64104819297791,1.30544912815094,-0.248889165986195,2.85872632547195,1.29693134016237,2034.05,3065.55,2834.028,1004.41,-0.05671202,-0.004656271,0.1126482,-0.401287436485291,-0.39557671546936,0.339191198348999,-0.478711464817306,-0.205976169660809,0.296345200911388,7
1.05999755859375,-0.137728244066238,2.63318586349487,1.31234240531921,-0.258599401509697,2.85454828239877,1.30294243851408,2032.339,3061.184,2829.693,1020.249,-0.05724252,-0.00485441,0.1128917,-0.416862636804581,-0.39311882853508,0.344665825366974,-0.492290296490434,-0.211818761581115,0.30475114456651,7
1.07999801635742,-0.146371349692345,2.62537002563477,1.31933605670929,-0.268581219802083,2.85025338484727,1.30912165953701,2038.761,3068.932,2843.902,995.5909,-0.05802442,-0.005041896,0.1131458,-0.432155191898346,-0.390792161226273,0.349680304527283,-0.50586781946303,-0.217660790404144,0.31315627807366,7
1.09999847412109,-0.155317321419716,2.61759686470032,1.32644057273865,-0.278834517009062,2.84584167750307,1.31546893894041,2034.804,3061.284,2836.3,1021.194,-0.05874294,-0.005180913,0.1132518,-0.447298854589462,-0.388655871152878,0.355224043130875,-0.519436284009554,-0.223498921639497,0.321555803983559,7
1.11999893188477,-0.164559930562973,2.60986328125,1.33364319801331,-0.289359035362208,2.84131327127672,1.32198411715334,2044.63,3072.097,2855.191,985.5885,-0.0597592,-0.005315669,0.1134112,-0.462130814790726,-0.386680632829666,0.360130071640015,-0.532988048794549,-0.229329867434001,0.329944991945551,8
1.13999938964844,-0.174096792936325,2.60216450691223,1.34095907211304,-0.300154365346813,2.83666834237095,1.3286669406667,2038.562,3061.154,2843.423,1021.93,-0.06063485,-0.005392901,0.1134006,-0.476843982934952,-0.384939730167389,0.365795373916626,-0.546515580872639,-0.235150386571708,0.338319178707607,8
1.15999984741211,-0.183920979499817,2.59449696540833,1.34837019443512,-0.311219947869739,2.83190713134792,1.33551706337518,2051.841,3075.818,2869.612,971.7219,-0.06188228,-0.005475992,0.1135042,-0.491208791732788,-0.383377969264984,0.370559126138687,-0.560011455688534,-0.240957284473894,0.346673768116318,8
1.18000030517578,-0.194031074643135,2.58685517311096,1.35589873790741,-0.322555076427271,2.82702994219644,1.34253404791935,2042.217,3059.761,2851.591,1024.403,-0.06286977,-0.005489307,0.1134015,-0.505505979061127,-0.382092893123627,0.376424878835678,-0.573468357077025,-0.246747413199059,0.355004231116904,8
1.19999694824219,-0.20441922545433,2.57923531532288,1.36351883411407,-0.334156660511822,2.8220381046756,1.34971598112778,2060.655,3080.12,2887.76,953.04,-0.06433079,-0.005525527,0.1134958,-0.51940643787384,-0.380990266799927,0.381007254123688,-0.58687652428584,-0.252516572968185,0.36330452533874,8
1.21999740600586,-0.215085536241531,2.57163119316101,1.37126231193542,-0.346028131869748,2.8169301422008,1.35706498741494,2045.347,3056.493,2860.195,1030.206,-0.06535184,-0.005474394,0.113323,-0.53331595659256,-0.380205452442169,0.387176483869553,-0.600233974716476,-0.258263910724523,0.371573423458908,8
1.23999786376953,-0.22602079808712,2.56403946876526,1.37909328937531,-0.358166167196084,2.81170748469733,1.36457900949675,2072.103,3085.541,2908.209,929.2269,-0.06699342,-0.005470666,0.1134514,-0.546764552593231,-0.379587292671204,0.391550958156586,-0.613531154887641,-0.263985315871967,0.379805011417393,8
1.2599983215332,-0.237227320671082,2.55645298957825,1.38705682754517,-0.370569492049568,2.80637068052165,1.37225725843336,2049.407,3052.381,2865.43,1040.483,-0.06797293,-0.005357747,0.1132187,-0.560326993465424,-0.379329711198807,0.398174911737442,-0.626761182173783,-0.269677827009021,0.387995028541113,8
1.27999877929688,-0.248693808913231,2.54886913299561,1.39510035514832,-0.383236695417198,2.80092033679326,1.3800988607405,2085.188,3092.649,2932.71,898.4542,-0.06979986,-0.005323659,0.1134304,-0.573323249816895,-0.37919682264328,0.402174025774002,-0.639917282339435,-0.275338529371412,0.396139281255613,8
1.29999923706055,-0.26042565703392,2.54127955436707,1.4032895565033,-0.396166231882091,2.79535711846185,1.3881028597315,2051.315,3044.806,2866.677,1061.608,-0.07062224,-0.005144162,0.1131207,-0.586593806743622,-0.379478514194489,0.409458845853806,-0.652992789539212,-0.280964554832093,0.404233643085061,8
1.31999969482422,-0.272408306598663,2.53368330001831,1.41154706478119,-0.409356423791328,2.7896817473746,1.39626821685929,2102.633,3103.609,2961.969,854.8478,-0.07266542,-0.005094095,0.1134669,-0.599132597446442,-0.379807442426682,0.412878334522247,-0.665981146317813,-0.286553081901244,0.412274054652251,8
1.34000015258789,-0.284651845693588,2.52607083320618,1.41996908187866,-0.422805463423808,2.78389500134342,1.4045938130584,2050.432,3033.488,2861.306,1097.023,-0.07321083,-0.004842692,0.113048,-0.612177431583405,-0.38062858581543,0.421103864908218,-0.678875903610019,-0.292101335726266,0.4202565236786,8
1.3599967956543,-0.297136574983597,2.51844334602356,1.42844128608704,-0.436508776648329,2.77799884848916,1.41307681672372,2124.521,3119.583,2998.348,794.2444,-0.07554429,-0.004795288,0.1135933,-0.624235808849335,-0.381374299526215,0.423612236976624,-0.691668290305691,-0.297605542343502,0.428175620429107,9
1.37999725341797,-0.309879332780838,2.51078867912292,1.43710458278656,-0.450469530727146,2.77199192602736,1.42171918854144,2044.155,3016.11,2847.133,1153.852,-0.07565348,-0.004460795,0.1130082,-0.637138187885284,-0.382730543613434,0.43316325545311,-0.704356955827446,-0.303065120637236,0.436030508832034,9
1.39999771118164,-0.32285276055336,2.50311207771301,1.44579064846039,-0.464682951063699,2.76587628833354,1.43051797280888,2152.997,3142.898,3044.719,708.7387,-0.07839814,-0.004438957,0.1138366,-0.648673236370087,-0.383826613426208,0.43430107831955,-0.716933326165324,-0.308476381450513,0.44381588116678,9
1.41999816894531,-0.336083710193634,2.4953978061676,1.4547061920166,-0.47914673136562,2.75965292774086,1.43947174182117,2031.466,2991.21,2817.804,1241.118,-0.07787349,-0.004005927,0.1129955,-0.661546468734741,-0.385719418525696,0.445778220891953,-0.729391385793766,-0.313836736470737,0.451528013536465,9
1.43999862670898,-0.349533021450043,2.48765635490417,1.46360123157501,-0.4938584461112,2.75332288788357,1.44857899406484,2189.192,3176.772,3108.356,585.7254,-0.08125091,-0.004041613,0.1142383,-0.672467410564423,-0.387073695659637,0.444751650094986,-0.741725227577294,-0.31914364402254,0.459163249142831,9
1.45999908447266,-0.363242566585541,2.47986602783203,1.47278273105621,-0.508815552717244,2.74688726276417,1.45783815555978,2005.707,2952.435,2767.341,1378.443,-0.07976327,-0.003473827,0.1129917,-0.685476362705231,-0.389521807432175,0.459074229001999,-0.753929052770513,-0.324394609067776,0.466717998286247,9
1.47999954223633,-0.377155363559723,2.4720458984375,1.48187792301178,-0.524015393706918,2.74034719582071,1.46724758120123,2239.895,3227.975,3196.629,403.2509,-0.08410529,-0.003614975,0.114842,-0.695640861988068,-0.391009747982025,0.454761624336243,-0.76599717101811,-0.329587183205524,0.474188738365705,9
1.5,-0.391335815191269,2.46416473388672,1.49134421348572,-0.539455198877605,2.73370387899399,1.4768055561018,1961.156,2894.457,2683.444,1589.925,-0.0811854,-0.002858637,0.1129704,-0.709021508693695,-0.394059717655182,0.473316550254822,-0.777924000354858,-0.334718964672088,0.481572013878822,9
1.51999664306641,-0.405699789524078,2.45625448226929,1.50062417984009,-0.555129074991064,2.72695984797977,1.48650843206629,2310.74,3305.001,3321.683,133.345,-0.08700494,-0.003168629,0.11572,-0.718199133872986,-0.39551305770874,0.463997721672058,-0.789701834723693,-0.339786637766398,0.488863054409188,9
1.53999710083008,-0.420345813035965,2.44826936721802,1.51040172576904,-0.571040013494911,2.72011381564173,1.49635806094328,1886.547,2807.522,2548.85,1915.242,-0.08194387,-0.002131061,0.1128906,-0.732301712036133,-0.39925941824913,0.488876402378082,-0.801329803423436,-0.344789827850059,0.496061320951293,9
1.55999755859375,-0.435159742832184,2.44025230407715,1.51994001865387,-0.587181951496087,2.71316839067337,1.50635068951315,2201.102,3580.823,3290.342,0,-0.08825929,-0.001827994,0.1173674,-0.740698754787445,-0.400857329368591,0.476914346218109,-0.812800388649436,-0.349725300221754,0.503162159625937,9
1.57999801635742,-0.450259357690811,2.43215489387512,1.53000819683075,-0.603551689586986,2.70612494969039,1.51648433719019,1914.601,2642.335,2446.875,2168.866,-0.08182882,-3.711119E-05,0.1138852,-0.754979908466339,-0.404873818159103,0.503406941890717,-0.824108441976122,-0.354590839657789,0.510162383312438,9
1.59999847412109,-0.465518683195114,2.42402625083923,1.53981566429138,-0.620145926473056,2.69898491314762,1.52675696031579,2161.063,3689.596,3230.296,0,-0.08792746,0.001220091,0.1184576,-0.762967228889465,-0.406431138515472,0.490376114845276,-0.835248923368005,-0.359384277571697,0.517058871988737,9
1.61999893188477,-0.481055587530136,2.41582322120667,1.5501195192337,-0.636961261140657,2.69174974440622,1.53716645350051,2019.106,2536.294,2457.619,2169.762,-0.08174999,0.003702173,0.1140031,-0.776844441890717,-0.410147607326508,0.515193521976471,-0.846216901179681,-0.364103492014234,0.523848572731403,9
1.63999938964844,-0.496746450662613,2.40759253501892,1.560173869133,-0.653994195024907,2.68442094880091,1.54771065096602,2188.809,3685.71,3221.216,0,-0.0881501,0.005595762,0.1174417,-0.784544467926025,-0.411533027887344,0.502715170383453,-0.857007552155828,-0.368746407673381,0.530528499715628,9
1.65999984741211,-0.512696444988251,2.39929461479187,1.57066321372986,-0.671241134177535,2.67700007270724,1.55838732788714,2102.057,2521.664,2578.939,1985.754,-0.08371753,0.008317054,0.1123819,-0.797501087188721,-0.414895206689835,0.524464726448059,-0.867616161431205,-0.373310995874343,0.537095734215228,9
1.67999649047852,-0.528794705867767,2.39096760749817,1.58093595504761,-0.688695041988866,2.66949014378176,1.56919212826729,2219.602,3613.805,3277.393,0,-0.09070354,0.01032317,0.114701,-0.804910004138947,-0.416350394487381,0.513634920120239,-0.878036152828799,-0.377794427071868,0.543546205263364,9
1.69999694824219,-0.54513144493103,2.38257193565369,1.59158897399902,-0.706358800111611,2.66188992212981,1.58012683598675,2130.682,2562.543,2748.627,1748.73,-0.08807606,0.01282954,0.1099018,-0.81683886051178,-0.419783890247345,0.532648205757141,-0.888267004546665,-0.382196476749158,0.549879589839776,9
1.71999740600586,-0.561611711978912,2.37413811683655,1.60206425189972,-0.724225231782013,2.65420249571236,1.5911870082869,2249.648,3507.307,3366.023,0,-0.09514036,0.01447267,0.1118052,-0.824012398719788,-0.421688079833984,0.523762881755829,-0.898302321135456,-0.386514393123025,0.556091928856661,9
1.73999786376953,-0.578316926956177,2.36562490463257,1.61290037631989,-0.742290383213093,2.64642956573347,1.60237019758524,2121.709,2623.545,2872.273,1575.207,-0.0931121,0.01645773,0.1079146,-0.835259139537811,-0.425660103559494,0.541805922985077,-0.908137821269591,-0.39074633405868,0.562180571969536,9
1.7599983215332,-0.595162093639374,2.35706114768982,1.62358605861664,-0.760550216073323,2.63857286977439,1.61367390396219,2274.346,3428.743,3427.011,0,-0.09952286,0.01748107,0.1102222,-0.842258274555206,-0.428189873695374,0.534282445907593,-0.917769332013572,-0.394890504058555,0.568142935932543,9
1.77999877929688,-0.612227499485016,2.34840416908264,1.63464593887329,-0.779000609654483,2.63063418086074,1.62509557650306,2096.503,2670.207,2895.761,1533.678,-0.09669299,0.01888527,0.1073379,-0.853272914886475,-0.432848751544952,0.552991926670074,-0.927192788821983,-0.398945154262308,0.57397650459845,9
1.79999923706055,-0.629429340362549,2.33968758583069,1.64556038379669,-0.79763736303951,2.62261530652977,1.63663261464007,2295.085,3407.794,3429.822,0,-0.1021136,0.01930631,0.110454,-0.860092043876648,-0.435829192399979,0.545721054077148,-0.936404235539493,-0.402908582446823,0.579678828918647,9
1.81999969482422,-0.646852612495422,2.3308687210083,1.65687608718872,-0.816456197270346,2.61451808789761,1.64828236949435,2072.306,2689.533,2831.347,1607.997,-0.09782909,0.02028468,0.1081882,-0.871162176132202,-0.440940290689468,0.565784156322479,-0.945399824400851,-0.406779133026206,0.585247526943151,9
1.83999633789063,-0.664407253265381,2.32198905944824,1.66802942752838,-0.835449117627072,2.60634596486888,1.66003989195343,2302.955,3440.105,3390.27,0,-0.1025035,0.02033484,0.1120504,-0.87773334980011,-0.443984180688858,0.557665228843689,-0.954174163352093,-0.410554485950274,0.590679260733698,9
1.8599967956543,-0.682185888290405,2.31300663948059,1.67960608005524,-0.854618942724365,2.59809772467243,1.67190692687406,2055.676,2680.5,2737.232,1734.318,-0.09695185,0.02115115,0.109864,-0.888933181762695,-0.449121832847595,0.578832566738129,-0.962726969681477,-0.41423451957606,0.595973855278252,9
1.87999725341797,-0.700090229511261,2.30396914482117,1.69099450111389,-0.873957566090845,2.58977685529642,1.6838784559643,2294.557,3498.201,3342.139,0,-0.1013498,0.0211306,0.1141387,-0.895223319530487,-0.451875895261765,0.569421112537384,-0.971053025860989,-0.417816988947023,0.601128080678429,9
1.89999771118164,-0.718219816684723,2.29483604431152,1.70281398296356,-0.893460418296025,2.58138532283915,1.69595165052899,2053.339,2654.108,2667.677,1839.553,-0.09517339,0.02201159,0.1116522,-0.906473219394684,-0.456659704446793,0.590972781181335,-0.979148917665041,-0.421300425017273,0.606139823365946,9
1.91999816894531,-0.736469745635986,2.28565740585327,1.71442294120789,-0.913122862707269,2.57292512231409,1.70812364027167,2277.072,3547.246,3314.015,0,-0.09965176,0.02213047,0.1159569,-0.912500739097595,-0.458932429552078,0.58044707775116,-0.987011339258123,-0.424683405378145,0.611007036871143,9
1.93999862670898,-0.754942893981934,2.27639412879944,1.72645699977875,-0.932940197657643,2.56439827671719,1.72039151463653,2062.405,2624.747,2648.086,1885.18,-0.09342529,0.02317497,0.1130468,-0.923657894134521,-0.463158845901489,0.601705849170685,-0.99463709319481,-0.4279645542582,0.615727741822989,9
1.95999908447266,-0.773532509803772,2.2670955657959,1.73827171325684,-0.952907658613767,2.55580683609405,1.73275232415044,2263.084,3570.591,3308.877,0,-0.09805546,0.02348531,0.1171105,-0.929476082324982,-0.464926928281784,0.590733706951141,-1.00202309041976,-0.431142542523221,0.620300025949072,9
1.97999954223633,-0.792340040206909,2.25772428512573,1.75049662590027,-0.973020420343666,2.54715287660719,1.74520308176496,2079.171,2606.976,2669.192,1867.425,-0.09211928,0.02465168,0.1138792,-0.940382778644562,-0.468562662601471,0.611247718334198,-1.00916635026771,-0.434216087676217,0.62472204407561,9
2,-0.811260282993317,2.24832653999329,1.76250326633453,-0.993273599084619,2.53843849960327,1.7577407641983,2261.176,3561.95,3321.907,0,-0.09682135,0.02505443,0.1175837,-0.9460089802742,-0.469887048006058,0.600330591201782,-1.01606400046349,-0.437183953857422,0.628992018127441,9
2.01999664306641,-0.830391705036163,2.23886632919312,1.77490568161011,-1.01365835337184,2.52966750931758,1.77035989816261,2092.09,2606.813,2704.664,1817.553,-0.09120101,0.02621923,0.1142014,-0.956571400165558,-0.473015040159225,0.620118737220764,-1.02271203275434,-0.440044416427654,0.633107466805174,9
2.03999710083008,-0.849631190299988,2.22938680648804,1.78709399700165,-1.03417746715556,2.52083870789413,1.78306220705567,2262.972,3541.506,3339.125,0,-0.09584663,0.02657451,0.1176402,-0.96197098493576,-0.473981469869614,0.609416902065277,-1.02911032850577,-0.442797424341804,0.637068316668402,9
2.05999755859375,-0.869074463844299,2.21985244750977,1.79966926574707,-1.05482201812353,2.5119559343546,1.79584216754118,2095.399,2616.564,2728.672,1774.986,-0.09033975,0.02763063,0.1142594,-0.972165048122406,-0.476713538169861,0.628763020038605,-1.03525504859546,-0.445441325732794,0.640872191117535,9
2.07999801635742,-0.888619959354401,2.21030497550964,1.81203174591064,-1.07558691007788,2.50302138145056,1.8086966248299,2265.309,3524.941,3347.398,0,-0.09483996,0.02783952,0.1176027,-0.977277040481567,-0.477377951145172,0.618125140666962,-1.04114375428791,-0.447975071280863,0.644517580459114,9
2.09999847412109,-0.908362090587616,2.20070934295654,1.8247766494751,-1.09646699912883,2.4940372624541,1.82162239460902,2088.106,2626.314,2731.688,1761.019,-0.0892143,0.02874289,0.1142883,-0.98710972070694,-0.479777842760086,0.637245833873749,-1.04677411523768,-0.450397658303471,0.648003042098304,9
2.11999893188477,-0.928199529647827,2.19110655784607,1.83730316162109,-1.11745709586255,2.485005810225,1.83461626438416,2265.163,3516.214,3346.695,0,-0.09352756,0.02877586,0.1176523,-0.991870164871216,-0.480136692523956,0.626323819160461,-1.0521439094894,-0.452708130755304,0.651327200538896,9
2.13999938964844,-0.948227047920227,2.18146252632141,1.85021305084229,-1.138551967509,2.47592927627801,1.8476749948214,2075.728,2631.411,2712.778,1777.189,-0.08759616,0.02954004,0.1143555,-1.00137591362,-0.482207298278809,0.645493507385254,-1.05725102347782,-0.454905579228273,0.654488747383304,8
2.15999984741211,-0.968341588973999,2.17181777954102,1.86289322376251,-1.15974634010981,2.46680992985011,1.86079532108929,2257.26,3524.43,3334.188,0,-0.09175495,0.02944083,0.1178146,-1.00573015213013,-0.482223004102707,0.634008765220642,-1.06209345202774,-0.456989140951513,0.657486441332569,8
2.17999649047852,-0.988639712333679,2.16213965415955,1.87595772743225,-1.18103083166728,2.45765180775279,1.8739714352843,2063.35,2627.031,2681.55,1813.797,-0.08548108,0.0301264,0.1144481,-1.01490557193756,-0.483914405107498,0.653224587440491,-1.06666845113384,-0.45895763525619,0.660318583716675,8
2.19999694824219,-1.00901591777802,2.15246891975403,1.88877689838409,-1.20240821395574,2.44845371736898,1.88720505326679,2245.952,3538.14,3318.061,0,-0.08955678,0.02996359,0.1179587,-1.01881301403046,-0.48353099822998,0.640961289405823,-1.07097597819164,-0.460811043810786,0.662985148161421,7
2.21999740600586,-1.02956867218018,2.14277315139771,1.90198063850403,-1.22386905090202,2.43921971877738,1.90049033365798,2054.23,2616.448,2648.479,1854.281,-0.08300593,0.03062976,0.1144099,-1.02763378620148,-0.484781920909882,0.660185217857361,-1.07501345493598,-0.46254825725983,0.665484538597853,7
2.23999786376953,-1.05018997192383,2.13309407234192,1.91492426395416,-1.24540792547886,2.42995214277345,1.91382392305993,2231.441,3557.519,3298.507,0,-0.08709176,0.03047037,0.1179033,-1.03107213973999,-0.483970016241074,0.647180557250977,-1.07877930973132,-0.464168599372462,0.667815782108711,5
2.2599983215332,-1.07097899913788,2.12339925765991,1.92824590206146,-1.26701939030951,2.42065333321126,1.92720244928693,2048.379,2601.979,2625.779,1883.325,-0.08044344,0.03115672,0.1141314,-1.03945469856262,-0.484735190868378,0.666083633899689,-1.08227207933222,-0.465671440555045,0.66997797287536,5
2.27999877929688,-1.09182715415955,2.11372947692871,1.94129407405853,-1.28869796983554,2.41132564607061,1.9406225227075,2220.97,3564.375,3286.857,0,-0.08459584,0.03101713,0.117483,-1.04240882396698,-0.483489662408829,0.652407109737396,-1.08549040888332,-0.467056197851165,0.67197027217779,2
2.29999923706055,-1.11283302307129,2.10405397415161,1.95471239089966,-1.31043816248474,2.40197144852433,1.95408073758635,2044.09,2591.757,2614.295,1894.122,-0.07797523,0.03171259,0.113479,-1.0502895116806,-0.483775019645691,0.670914590358734,-1.08843305191934,-0.468322334941636,0.673791908394614,1
2.31999969482422,-1.13388788700104,2.09441137313843,1.96784746646881,-1.33223444283894,2.39259311800549,1.96757367342642,2209.047,3568.428,3278.466,0,-0.08220912,0.03158098,0.1166734,-1.05274403095245,-0.482135415077209,0.65675163269043,-1.09109887036509,-0.469469362144493,0.675442177003072,0
2.33999633789063,-1.15508890151978,2.08477163314819,1.98134255409241,-1.35407709248145,2.38319483607731,1.98109531406483,2039.028,2584.47,2609.95,1893.777,-0.07567798,0.03225948,0.1125036,-1.06005823612213,-0.481986701488495,0.674757361412048,-1.09348640563071,-0.470496651869278,0.67692017506657,0
2.3599967956543,-1.1763288974762,2.07517170906067,1.99454545974731,-1.37596887940059,2.37377541175173,1.99464737301821,2200.48,3562.667,3275.251,0,-0.0799662,0.03209509,0.1155411,-1.06199252605438,-0.480001211166382,0.660146355628967,-1.09559564748259,-0.471404199712748,0.678225896250009,0
2.37999725341797,-1.19770336151123,2.06558203697205,2.00810122489929,-1.39790005743958,2.36433903852774,2.00822381695123,2031.055,2581.362,2604.36,1892.287,-0.07346863,0.03272114,0.1112488,-1.06872296333313,-0.479482382535934,0.677794277667999,-1.09742530100382,-0.472191448508328,0.679358538938131,0
2.39999771118164,-1.21910560131073,2.05603790283203,2.02135705947876,-1.41986502747765,2.35488812555058,2.02182117974142,2191.074,3560.778,3267.571,0,-0.07778188,0.03249571,0.1141973,-1.07011950016022,-0.477203637361526,0.662795424461365,-1.09897466165884,-0.47285809511406,0.680317666989874,0
2.41999816894531,-1.24063038825989,2.04651069641113,2.03495812416077,-1.44185817738692,2.34542508756209,2.03543598721428,2019.757,2578.105,2595.351,1896.313,-0.07127418,0.03305294,0.1098365,-1.07624125480652,-0.476363897323608,0.680047929286957,-1.10024313330221,-0.473403883025206,0.681102911362803,0
2.43999862670898,-1.26217210292816,2.03703427314758,2.04824924468994,-1.46387388420027,2.33595234396796,2.0490647584853,2185.021,3553.579,3260.8,0,-0.07558477,0.03274093,0.1127064,-1.07708168029785,-0.473818361759186,0.664555788040161,-1.10123022817855,-0.473828602374257,0.681713970113108,0
2.45999908447266,-1.28382408618927,2.02758049964905,2.06188130378723,-1.48590651627916,2.32647231790489,2.06270400730194,2006.006,2576.414,2579.4,1907.917,-0.06898759,0.03321765,0.1082666,-1.08260846138,-0.472691923379898,0.681606352329254,-1.10193556692257,-0.474132089930926,0.682150608395601,0
2.47999954223633,-1.30548167228699,2.01818227767944,2.07519292831421,-1.50795043548148,2.31698743530794,2.07635024338568,2174.025,3555.989,3248.414,0,-0.07329445,0.03282718,0.1111213,-1.08287692070007,-0.469899833202362,0.665585577487946,-1.10235887855907,-0.474314229102152,0.682412658463722,0
2.49999618530273,-1.32723760604858,2.00881242752075,2.08884143829346,-1.52999579362571,2.30750193357449,2.089997370243,1991.679,2571.111,2558.321,1928.219,-0.06658009,0.03323961,0.1066028,-1.08780229091644,-0.468500316143036,0.682425677776337,-1.10250000049778,-0.474374949929889,0.682500019666355,0
2.51999664306641,-1.34898746013641,1.99950313568115,2.10215663909912,-1.55204535801192,2.29801462201262,2.10364710096447,2163.769,3557.072,3236.066,0,-0.07089441,0.03278481,0.109432,-1.08748626708984,-0.465463280677795,0.665762066841125,-1.10235893238473,-0.47431425226183,0.68241269178437,0
2.53999710083008,-1.37082386016846,1.99022710323334,2.11580634117126,-1.57408927882895,2.2885297387209,2.11729333804778,1977.873,2564.339,2533.98,1952.769,-0.06404583,0.03314928,0.1047919,-1.09181571006775,-0.463793963193893,0.682487428188324,-1.10193567455836,-0.474132136243598,0.68215067502728,0
2.55999755859375,-1.39264214038849,1.98101687431335,2.12911081314087,-1.59612191359838,2.27904971150017,2.13093258853001,2150.856,3565.302,3218.921,0,-0.06839903,0.03265846,0.1076022,-1.09091281890869,-0.460519790649414,0.665226697921753,-1.10123038958312,-0.473828671822132,0.681714070030222,0
2.57999801635742,-1.41453433036804,1.97184526920319,2.14274382591248,-1.6181376241771,2.2695769662859,2.14456136213196,1964.839,2554.655,2513.196,1975.271,-0.06148547,0.03299498,0.1028404,-1.09461283683777,-0.458579301834106,0.681649029254913,-1.10024334841354,-0.473403975581601,0.681103044526962,0
2.59999847412109,-1.4363968372345,1.96274375915527,2.15601944923401,-1.64013077892511,2.26011392621545,2.15817617260023,2142.179,3564.654,3206.528,0,-0.06589619,0.03247184,0.1055653,-1.09312391281128,-0.455073654651642,0.663784980773926,-1.09897493039424,-0.472858210743393,0.680317833349887,0
2.61999893188477,-1.45832049846649,1.95368611812592,2.1696183681488,-1.66209575487342,2.25066301069528,2.17177353904914,1952.291,2547.933,2496.203,1990.635,-0.05895706,0.03277436,0.1006678,-1.09618330001831,-0.452875554561615,0.679949223995209,-1.09742562325992,-0.472191587166126,0.67935873843001,0
2.63999938964844,-1.48020267486572,1.94470286369324,2.18285012245178,-1.68402693989188,2.24122663446822,2.18534998730279,2130.625,3566.842,3194.078,0,-0.0634333,0.03222024,0.103323,-1.09411001205444,-0.449163049459457,0.661586344242096,-1.09559602313537,-0.471404361345641,0.67822612879697,0
2.65999603271484,-1.50213277339935,1.93576836585999,2.19639873504639,-1.70591456353497,2.23180900148401,2.19889946898997,1939.577,2541.455,2482.058,2002.548,-0.0564963,0.03248452,0.09832724,-1.09650814533234,-0.446733713150024,0.677430808544159,-1.09348726343002,-0.470497020956359,0.676920706085208,0
2.67999649047852,-1.52400982379913,1.92691159248352,2.20956993103027,-1.72776139360717,2.22240892083372,2.2124236975135,2121.658,3562.691,3185.187,0,-0.06102527,0.03188528,0.100905,-1.09385180473328,-0.442837715148926,0.658564567565918,-1.09109935234628,-0.469469569527535,0.67544247537239,0
2.69999694824219,-1.54592180252075,1.91810727119446,2.22305417060852,-1.74955768413056,2.21303058593937,2.22591663964878,1925.877,2537.077,2466.961,2014.33,-0.05405631,0.03209802,0.09582081,-1.09559571743011,-0.440207481384277,0.674210011959076,-1.08843358680109,-0.468322565086308,0.673792239511893,0
2.71999740600586,-1.56776905059814,1.90938401222229,2.2361524105072,-1.77129788800495,2.2036763835632,2.23937486147656,2111.487,3563.179,3172.557,0,-0.05862949,0.0314488,0.09836124,-1.09236264228821,-0.436154216527939,0.654911577701569,-1.08549099645889,-0.467056450668518,0.671970635915057,0
2.73999786376953,-1.58963763713837,1.90071725845337,2.24955797195435,-1.79297647980783,2.19434869114016,2.25279494249708,1910.8,2531.866,2451.873,2027.815,-0.05162751,0.0316089,0.09322236,-1.09344375133514,-0.433344423770905,0.670273303985596,-1.08227271937422,-0.465671715947234,0.669978369091845,0
2.7599983215332,-1.61143052577972,1.892134308815,2.26256775856018,-1.81458795796224,2.18504987584512,2.26617347697213,2105.284,3557.007,3162.547,0,-0.05623052,0.03089626,0.09570539,-1.08964109420776,-0.429145753383636,0.650494337081909,-1.07878000199166,-0.464168897232749,0.667816210650842,0
2.77999877929688,-1.63323187828064,1.88361096382141,2.27588200569153,-1.83612684690458,2.17578229366013,2.27950707526701,1894.819,2529.014,2434.413,2042.529,-0.04916195,0.03099374,0.09050242,-1.09007620811462,-0.426172256469727,0.665708303451538,-1.07501419914593,-0.462548577472581,0.665484999299265,0
2.79999923706055,-1.65494608879089,1.87517428398132,2.28879141807556,-1.85758769925251,2.16654828844162,2.29279236519255,2095.31,3557.301,3149.618,0,-0.05379319,0.03022174,0.09297113,-1.08571016788483,-0.421840786933899,0.645468235015869,-1.07097677406178,-0.460811386251471,0.662985640842947,0
2.81999969482422,-1.6766562461853,1.86679995059967,2.302001953125,-1.87896509797278,2.15735019098767,2.30602599334712,1878.578,2524.317,2414.899,2061.19,-0.04664793,0.03026447,0.087718,-1.08550465106964,-0.418712735176086,0.66052109003067,-1.06666929835407,-0.458957999791384,0.660319108186353,0
2.83999633789063,-1.69826805591583,1.8585147857666,2.31479740142822,-1.90024960698239,2.14819206138118,2.31920211834584,2087.19,3555.08,3137.261,0,-0.05130953,0.02943626,0.09016412,-1.08058440685272,-0.41425159573555,0.639768779277802,-1.06209435025759,-0.456989527434725,0.657486997379635,0
2.8599967956543,-1.71986269950867,1.85029554367065,2.32789134979248,-1.9214439980555,2.13907270700516,2.33232245604895,1861.53,2519.343,2395.046,2081.465,-0.04406999,0.02942945,0.084847,-1.079749584198,-0.410970836877823,0.654697954654694,-1.05725197237562,-0.454905987512489,0.654489334796247,0
2.87999725341797,-1.74134874343872,1.84216785430908,2.34056115150452,-1.94253888918396,2.12999616467562,2.34538119854648,2078.708,3555.437,3122.747,0,-0.04876088,0.02855401,0.08727194,-1.07428979873657,-0.406382620334625,0.63348788022995,-1.05214490868305,-0.452708560680416,0.651327819087361,0
2.89999771118164,-1.76280522346497,1.83410882949829,2.35352659225464,-1.96352900640172,2.1209647036328,2.35837508100222,1846.31,2514.665,2374.385,2100.291,-0.04146169,0.02850148,0.08189294,-1.07282733917236,-0.402949303388596,0.648269951343536,-1.04677516433438,-0.450398109700476,0.648003691539142,0
2.91999816894531,-1.78414189815521,1.82614398002625,2.36605715751648,-1.98440911693069,2.11198057539494,2.37130086407726,2070.121,3553.177,3110.882,0,-0.04620691,0.02758158,0.08428609,-1.06683397293091,-0.398236870765686,0.626531541347504,-1.04114485287423,-0.447975543971863,0.644518260536375,0
2.93999862670898,-1.80543684959412,1.81825089454651,2.37888169288635,-2.00517403134858,2.10304601282548,2.38415533527198,1829.553,2509.679,2354.486,2120.477,-0.03883741,0.02748791,0.07883414,-1.06475555896759,-0.394658714532852,0.641228079795837,-1.03525619623725,-0.445441819530995,0.640872901562472,0
2.95999908447266,-1.82660174369812,1.81045424938202,2.39126229286194,-2.02581860575671,2.0941632292003,2.39693531026807,2059.646,3554.693,3097.203,0,-0.04363057,0.02653513,0.08121392,-1.05824375152588,-0.389831125736237,0.619032680988312,-1.02911152474823,-0.442797939051516,0.637069057199471,0
2.97999954223633,-1.84771287441254,1.80273187160492,2.40393376350403,-2.04633774394789,2.08533441727499,2.40963763427052,1813.88,2503.754,2335.821,2139.05,-0.03620727,0.02640714,0.07570649,-1.05554986000061,-0.386112987995148,0.633577287197113,-1.022713277122,-0.440044951844293,0.633108237128031,0
2.99999618530273,-1.86868381500244,1.79510855674744,2.41615223884583,-2.06672252359526,2.07656341607755,2.42225678393395,2052.491,3550.949,3085.544,0,-0.04104517,0.02541777,0.07804653,-1.04853463172913,-0.381174832582474,0.610918521881104,-1.01606529245116,-0.437184509763622,0.628992817929355,0
3.01999664306641,-1.88958811759949,1.78756213188171,2.42865920066833,-2.08697572864857,2.06784902775215,2.4347944826559,1797.431,2499.48,2318.268,2155.773,-0.03356435,0.02525042,0.07248044,-1.04523348808289,-0.377322256565094,0.625345468521118,-1.00916768936771,-0.434216663853534,0.624722873042298,0
3.03999710083008,-1.91034269332886,1.78011655807495,2.44070506095886,-2.10708851762775,2.05919505654068,2.44724525713902,2045.066,3549.017,3072.363,0,-0.03844273,0.02422267,0.07478864,-1.0377299785614,-0.372280985116959,0.60229367017746,-1.00202447609459,-0.431143138740389,0.620300883747801,0
3.05999755859375,-1.93101918697357,1.77275061607361,2.45303678512573,-2.12705600675913,2.05060360379452,2.45960608409476,1781.858,2496.377,2299.911,2171.052,-0.03093155,0.02401148,0.06918169,-1.03382611274719,-0.368301331996918,0.616589784622192,-0.994638524886308,-0.427965170275055,0.615728628108227,0
3.07999801635742,-1.95153617858887,1.76548707485199,2.46489810943604,-2.14687337079936,2.04207674568107,2.47187397646763,2037.89,3543.902,3061.976,0,-0.03586799,0.02293856,0.07145853,-1.02584373950958,-0.363164722919464,0.593066990375519,-0.987012816387451,-0.424684040945629,0.611007951284564,0
3.09999847412109,-1.97196340560913,1.75830554962158,2.47704458236694,-2.16653584520328,2.033616532251,2.4840459847772,1764.013,2493.291,2281.056,2189.406,-0.02829342,0.02268253,0.065807,-1.021355509758,-0.35906994342804,0.607324063777924,-0.979150439632689,-0.421301079877433,0.606140765536421,0
3.11999893188477,-1.99222135543823,1.75122880935669,2.48871231079102,-2.18603872829175,2.02522498650551,2.49611919846012,2028.512,3543.599,3048.998,0,-0.03327353,0.02157281,0.0680853,-1.01291167736053,-0.353846430778503,0.583386182785034,-0.971054592046769,-0.41781766283301,0.601129050222034,0
3.13999938964844,-2.01237869262695,1.74423599243164,2.50066351890564,-2.20537738341953,2.01690410346351,2.50809074721212,1747.295,2488.831,2261.431,2208.604,-0.02563452,0.02127907,0.06240496,-1.00784969329834,-0.349639713764191,0.597564280033112,-0.962728579444533,-0.414235212212131,0.595974851798267,0
3.15999603271484,-2.03235769271851,1.73734951019287,2.51212692260742,-2.22454360124808,2.00865741537402,2.51995554906156,2022.151,3539.078,3037.262,0,-0.03065671,0.02013194,0.06466343,-0.998962700366974,-0.344330072402954,0.573172688484192,-0.95417746870157,-0.410555908149813,0.590681306902481,0
3.17999649047852,-2.05222487449646,1.73054909706116,2.52387309074402,-2.2435401949712,2.00048371179835,2.53171534550942,1729.858,2485.181,2241.939,2227.835,-0.02294366,0.01980028,0.05894133,-0.993342041969299,-0.340011417865753,0.587310552597046,-0.9454015193052,-0.406779862296197,0.585248576169681,0
3.19999694824219,-2.0719051361084,1.72385704517365,2.53512358665466,-2.2623590635174,1.99238647840124,2.54336512160655,2015.092,3537.262,3023.629,0,-0.02800793,0.01862034,0.06118482,-0.984029531478882,-0.334617078304291,0.56252133846283,-0.936405971974636,-0.402909329586355,0.579679903854719,0
3.21999740600586,-2.09146237373352,1.71725308895111,2.54665541648865,-2.28099585204123,1.98436758895103,2.55490218149615,1713.927,2482.013,2221.72,2245.712,-0.02025387,0.01825255,0.05542839,-0.977858185768127,-0.330186665058136,0.576595425605774,-0.927194566064376,-0.398945918960059,0.573977604796153,0
3.23999786376953,-2.1108250617981,1.71075880527496,2.55768227577209,-2.29944628156995,1.97642888457015,2.56632387629027,2008.362,3532.728,3012.381,0,-0.02538472,0.01703964,0.05764888,-0.968133747577667,-0.32471176981926,0.551342725753784,-0.917771149318993,-0.394891285994308,0.568144060931169,0
3.2599983215332,-2.13005352020264,1.70435547828674,2.5689902305603,-2.31770615117141,1.96857217280235,2.57762760541179,1696.166,2478.783,2202.364,2264.969,-0.01757899,0.01663772,0.05185238,-0.96142715215683,-0.320177793502808,0.565402925014496,-0.908139677873146,-0.390747132903322,0.562181721295578,0
3.27999877929688,-2.1490797996521,1.69806289672852,2.57978534698486,-2.33577134012187,1.96079922667992,2.58881081793642,2000.29,3531.205,2999.67,0,-0.02276896,0.01539973,0.05406711,-0.951309561729431,-0.314630180597305,0.539751410484314,-0.898304216251578,-0.386515208538549,0.556093102023818,0
3.29999923706055,-2.16796159744263,1.69186282157898,2.59086036682129,-2.35363781007389,1.95311178379095,2.59987101393471,1679.436,2475.109,2183.714,2282.881,-0.01492595,0.01496859,0.04824796,-0.944078147411346,-0.309997916221619,0.553750991821289,-0.888268937369113,-0.38219730838866,0.549880786348944,0
3.31999588012695,-2.18663311004639,1.6857750415802,2.60141396522522,-2.37129825777079,1.94551298652277,2.61080367234288,1994.788,3525.428,2988.839,0,-0.02017398,0.01370323,0.05043931,-0.933587074279785,-0.30438295006752,0.527683556079865,-0.878040092225563,-0.377796122084242,0.54354864393762,0
3.33999633789063,-2.20515036582947,1.67978191375732,2.61224746704102,-2.38875555478454,1.93800159931817,2.62161057080077,1662.134,2472.7,2165.474,2300.03,-0.01228516,0.01323985,0.04459403,-0.925846517086029,-0.299658417701721,0.541669607162476,-0.867618167158097,-0.373311858882592,0.53709697585572,0
3.3599967956543,-2.22345042228699,1.6739022731781,2.62255215644836,-2.40600253440574,1.930580705812,2.63228727277387,1988.758,3521.721,2976.649,0,-0.01758858,0.01194767,0.04677237,-0.915000438690186,-0.293982028961182,0.51523631811142,-0.85700959304645,-0.368747285811601,0.530529763124145,0
3.37999725341797,-2.24158549308777,1.66811895370483,2.63313627243042,-2.42303550945299,1.9232518924954,2.64283149572124,1645.815,2470.72,2146.364,2316.685,-0.009673133,0.01145196,0.0409116,-0.906763851642609,-0.289170652627945,0.529202222824097,-0.846218976345105,-0.364104384899943,0.523849857357654,0
3.39999771118164,-2.25949716567993,1.66245007514954,2.64318323135376,-2.43985088596004,1.91601670575165,2.65324101480657,1983.104,3516.085,2966.11,0,-0.01504899,0.01013235,0.04307592,-0.895580291748047,-0.28343990445137,0.502351343631744,-0.835251031898626,-0.359385184813519,0.517060177269636,0
3.41999816894531,-2.27723479270935,1.65687894821167,2.65351009368896,-2.45644516534361,1.90887665092339,2.66351366424015,1628.163,2468.662,2127.508,2334.911,-0.007095193,0.009605989,0.0371973,-0.886866271495819,-0.278551280498505,0.516343116760254,-0.824110582941664,-0.354591760855451,0.510163708672097,0
3.43999862670898,-2.29474210739136,1.65142369270325,2.6632924079895,-2.47281494657125,1.90183319137989,2.67364733862088,1976.419,3512.723,2954.626,0,-0.0125355,0.008265682,0.03936282,-0.875365614891052,-0.272773712873459,0.489113301038742,-0.812802561098952,-0.34972623496609,0.503163504475677,0
3.45999908447266,-2.31206560134888,1.64606738090515,2.6733546257019,-2.48895692832918,1.89488774758421,2.68363999427827,1611.576,2466.126,2108.647,2352.731,-0.004548146,0.007713598,0.03347617,-0.866190671920776,-0.267813593149185,0.503116130828857,-0.801332006385299,-0.344790775723006,0.496062684689628,0
3.47999572753906,-2.32915377616882,1.64082741737366,2.68286466598511,-2.50486489870395,1.88804299234919,2.69348778574196,1971.507,3507.291,2943.735,0,-0.0100561,0.006354313,0.03563309,-0.854394674301147,-0.261994659900665,0.475503951311111,-0.789706299681989,-0.339788558913217,0.488865818431069,0
3.49999618530273,-2.34604930877686,1.63568806648254,2.69265508651733,-2.52054183223243,1.88129764581471,2.703192554392,1594.459,2464.168,2090.723,2369.933,-0.002037851,0.005777927,0.02973805,-0.844775795936584,-0.256969094276428,0.489521324634552,-0.777926261338517,-0.334719937510192,0.481573413535413,0
3.51999664306641,-2.36270308494568,1.63066601753235,2.70188641548157,-2.53598168290031,1.87465430941181,2.7127505574575,1967.199,3501.865,2932.636,0,-0.00761238,0.004400793,0.03188316,-0.832705318927765,-0.251115053892136,0.461566179990768,-0.765999459475408,-0.329588167864767,0.474190155029786,0
3.53999710083008,-2.37915635108948,1.62574541568756,2.71139860153198,-2.55118156992615,1.86811422266028,2.72216001159753,1578.785,2463.367,2072.354,2385.288,0.0004123997,0.00379898,0.02598543,-0.822658538818359,-0.246030747890472,0.475612938404083,-0.753931367647136,-0.324395605094516,0.466719431305148,0
3.55999755859375,-2.39536333084106,1.62094211578369,2.72034406661987,-2.56613872308604,1.86167857751006,2.73141920191151,1962.233,3495.786,2923.115,0,-0.005248558,0.002404921,0.02812485,-0.810332715511322,-0.240151420235634,0.44727697968483,-0.741727567798258,-0.319144650954242,0.459164697851087,0
3.57999801635742,-2.41136074066162,1.6162416934967,2.72957181930542,-2.58085048488145,1.85534851740854,2.74052648328127,1561.66,2462.178,2054.812,2402.177,0.002793451,0.001780375,0.02222833,-0.799878060817719,-0.235021844506264,0.461384981870651,-0.72939375026341,-0.313837753835969,0.451529477255809,0
3.59999847412109,-2.42710733413696,1.61165904998779,2.73822617530823,-2.59531431270705,1.84912513636775,2.74948028171299,1957.11,3491.284,2912.666,0,-0.002944391,0.000375355,0.02437542,-0.787319302558899,-0.229127064347267,0.432722836732864,-0.716935713767317,-0.308477408768949,0.443817359206151,0
3.61999893188477,-2.44263696670532,1.60718011856079,2.74716353416443,-2.6095277810186,1.84300947803163,2.75827909567923,1545.662,2460.91,2037.672,2417.927,0.005105065,-0.0002673814,0.01849356,-0.776476800441742,-0.223961353302002,0.44686958193779,-0.704359365424783,-0.303066157419654,0.436032000487571,0
3.63999938964844,-2.45791101455688,1.60281896591187,2.75552105903625,-2.6234885835008,1.83700253474321,2.76692149746096,1953.955,3483.897,2903.61,0,-0.0007105314,-0.001684183,0.02063657,-0.763709187507629,-0.218059912323952,0.417871594429016,-0.691670720740692,-0.297606588091786,0.428177124984152,0
3.65999603271484,-2.47296094894409,1.59856164455414,2.76416301727295,-2.63719194552437,1.83110636089208,2.77540453133521,1529.794,2460.73,2020.715,2432.889,0.00734519,-0.00234731,0.01476723,-0.752500176429749,-0.212868109345436,0.432100683450699,-0.678878353700696,-0.292102389931838,0.420258040401444,0
3.67999649047852,-2.48775196075439,1.59442234039307,2.77222728729248,-2.65064103434641,1.825319593696,2.783730157985,1931.439,3492.016,2876.302,23.04163,0.00159708,-0.003705522,0.0169655,-0.739551544189453,-0.206966057419777,0.403214871883392,-0.665983614869008,-0.28655414404986,0.412275582803033,0
3.69999694824219,-2.50231194496155,1.59038746356964,2.7805655002594,-2.66383127580226,1.81964420129024,2.79189554578451,1525.693,2456.823,2010.662,2431.483,0.009532026,-0.004337224,0.01117354,-0.727991878986359,-0.201732769608498,0.416905671358109,-0.65299527533123,-0.280965624398954,0.404235181908735,0
3.71999740600586,-2.51660966873169,1.58647108078003,2.78833627700806,-2.67676086214623,1.81408096149726,2.79989957565303,1911.56,3482.399,2840.272,71.70649,0.003998789,-0.005585182,0.01324981,-0.714901089668274,-0.19582587480545,0.388538628816605,-0.639919784131907,-0.275339605822821,0.396140829984331,0
3.73999786376953,-2.53066968917847,1.58266043663025,2.7963593006134,-2.68942811570037,1.808630596175,2.80774120902801,1531.764,2462.975,2014.885,2395.046,0.01159246,-0.006166283,0.007542873,-0.702989459037781,-0.190535768866539,0.401145577430725,-0.626763698705669,-0.269678909802388,0.38799658639423,0
3.7599983215332,-2.54446506500244,1.57896757125854,2.80383467674255,-2.70183149102237,1.80329377028414,2.81541948920704,1890.591,3461.187,2800.367,138.9615,0.006333504,-0.007286941,0.0093523,-0.689763903617859,-0.184635490179062,0.373770743608475,-0.613533684877225,-0.263986404455806,0.379806577601466,0
3.77999877929688,-2.55801463127136,1.57538139820099,2.81153154373169,-2.7139695770734,1.79807109095524,2.82293354268985,1541.43,2482.331,2034.369,2325.997,0.01334764,-0.00782277,0.003808768,-0.677486538887024,-0.17931155860424,0.384838253259659,-0.60023651686137,-0.258265004538452,0.371574997167698,0
3.79999923706055,-2.57129716873169,1.57191228866577,2.8187096118927,-2.72584109938593,1.7929631065561,2.83028258052034,1865.587,3429.088,2758.468,224.9152,0.008424957,-0.008821988,0.005296476,-0.664122760295868,-0.17346066236496,0.358903139829636,-0.586879077262983,-0.252517671442928,0.363306105753209,0
3.81999588012695,-2.58432674407959,1.56854915618896,2.82607173919678,-2.73744273461857,1.78797124702766,2.83746454539187,1551.429,2512.845,2065.715,2233.204,0.01471591,-0.009326923,4.402049E-05,-0.651484370231628,-0.168157950043678,0.368101119995117,-0.573470919541002,-0.246748515755721,0.355005817404173,0
3.83999633789063,-2.59708642959595,1.56530094146729,2.83295106887817,-2.74877791451009,1.78309403578861,2.84448156171422,1837.175,3386.549,2714.798,328.0387,0.0102461,-0.01021855,0.001211638,-0.637988746166229,-0.162411257624626,0.343961983919144,-0.560014026276881,-0.240958390526246,0.346675359432959,0
3.8599967956543,-2.6095871925354,1.56215703487396,2.83997368812561,-2.75984354851568,1.77833280261403,2.85133171629293,1562.808,2551.288,2102.021,2126.188,0.01579035,-0.01070751,-0.003638943,-0.625023722648621,-0.157180905342102,0.351134032011032,-0.546518158200277,-0.23515149552379,0.33832077419619,0
3.87999725341797,-2.62181520462036,1.55912566184998,2.84655404090881,-2.77063893010371,1.77368785150474,2.85801457175126,1809.354,3336.954,2667.396,442.5714,0.01188569,-0.01151018,-0.00278034,-0.611415505409241,-0.15157587826252,0.329021722078323,-0.532990631455729,-0.229330978680956,0.329946590735853,0
3.89999389648438,-2.63377904891968,1.55619668960571,2.85323596000671,-2.78116151864576,1.76916027562219,2.86452855531919,1575.316,2594.689,2137.685,2014.053,0.01670713,-0.01199381,-0.007171893,-0.59817773103714,-0.146443471312523,0.334100663661957,-0.519441457145543,-0.223501147495394,0.321559006401168,0
3.91999816894531,-2.64546871185303,1.55337703227997,2.8595175743103,-2.79141684911929,1.7647476934202,2.87087709341145,1783.046,3283.541,2617.524,562.7532,0.01343024,-0.01272085,-0.006621151,-0.584482431411743,-0.14099483191967,0.314076811075211,-0.505870408491346,-0.2176619043907,0.313157880805522,0
