t,x_s1,x_s2,x_s3,x_s_d1,x_s_d2,x_s_d3,propellers_rpms1,propellers_rpms2,propellers_rpms3,propellers_rpms4,rollRad,pitchRad,yawRad,v_s1,v_s2,v_s3,v_s_d1,v_s_d2,v_s_d3,insideCount
0,-0.0599999986588955,2.94000005722046,1.17999994754791,-0.0599999986588955,2.94000005722046,1.17999994754791,0,0,0,0,0,0,0,0,0,0,-1.06581410364015E-15,4.44089209850063E-16,4.44089209850063E-16,0
0.02001953125,-0.0599999986588955,2.94000005722046,1.17811644077301,-0.0600018744611685,2.93999925011514,1.18000110875888,0,0,0,0,-0.01635288,0.0001297794,-0.01587137,-1.10653664009419E-09,-7.76775763711157E-08,-0.0941759571433067,-0.000280531511337879,-0.000120704872184653,0.000173662369087018,5
0.03997802734375,-0.0599999986588955,2.94000005722046,1.17242503166199,-0.060014847005691,2.93999366839165,1.1800091393819,0,0,0,0,-0.03270202,0.0005238493,-0.03175127,-1.08383135799528E-09,-7.60859677484405E-08,-0.284568399190903,-0.00110975851463131,-0.000477498085781228,0.000686993385685745,5
0.05999755859375,-0.0599058791995049,2.93990302085876,1.16596531867981,-0.0600498857373401,2.93997859220429,1.18003083002592,1867.171,3252.586,3184.588,1722.885,-0.04941709,0.000328197,-0.01369238,0.00470605166628957,-0.00484959501773119,-0.322985053062439,-0.00247936261166862,-0.00106680046642749,0.00153484356504269,5
0.08001708984375,-0.0598203614354134,2.93960738182068,1.16000306606293,-0.0601176241590912,2.9399494462538,1.18007276333581,1926.338,2314.582,3251.154,2829.281,-0.07542125,-0.002135322,0.02094574,0.00427595200017095,-0.0147764608263969,-0.298115670681,-0.00437432711648753,-0.0018821507536715,0.00270791686320324,5
0.10003662109375,-0.0599374249577522,2.93904519081116,1.15498638153076,-0.0602284473618957,2.93990176212568,1.18014136817759,980.8305,1498.918,3914.575,3896.382,-0.1031874,-0.008060323,0.06330064,-0.00585309555754066,-0.0281126461923122,-0.250835418701172,-0.00678144526308166,-0.00291786644505504,0.00419803766288393,4
0.1199951171875,-0.0604638010263443,2.93818402290344,1.15081310272217,-0.0603918861403606,2.93983143898525,1.18024254456713,346.6883,980.6177,4172.784,4613.042,-0.1214337,-0.01541757,0.1039917,-0.0263187680393457,-0.0430641248822212,-0.208664387464523,-0.00967801353495435,-0.00416417885169243,0.00599115140585487,4
0.1400146484375,-0.0615635626018047,2.93704175949097,1.14728331565857,-0.0606187761383957,2.93973381455767,1.18038300028418,351.7795,746.5181,3977.114,4854.886,-0.1254024,-0.0211668,0.1351021,-0.0549881160259247,-0.0571139976382256,-0.176487699151039,-0.0130687916036232,-0.00562313592726786,0.00809020455552005,4
0.1600341796875,-0.0633406639099121,2.93568158149719,1.14427530765533,-0.0609183061960198,2.93960493514178,1.18056842365845,821.2963,815.5153,3461.722,4692.367,-0.1184595,-0.02352317,0.1522699,-0.0888550207018852,-0.0680143237113953,-0.150402441620827,-0.0169327949449082,-0.00728570861726639,0.0104822066917805,3
0.17999267578125,-0.0658465474843979,2.93417310714722,1.14182543754578,-0.0612985250199726,2.93944133760391,1.18080379722281,1349.343,1083.663,3005.784,4255.343,-0.1079891,-0.02277802,0.1557788,-0.125294238328934,-0.0754282921552658,-0.122493557631969,-0.0212433804254414,-0.00914043312572283,0.0131506644458931,3
0.20001220703125,-0.0690846145153046,2.93255472183228,1.14006221294403,-0.0617708265342762,2.93923811945689,1.181096174359,1635.246,1379.934,2920.676,3666.602,-0.09983072,-0.02030234,0.1501625,-0.161903291940689,-0.0809164792299271,-0.0881640985608101,-0.0260142813927851,-0.0111932185284278,0.0161040794142088,3
0.22003173828125,-0.0730098485946655,2.93082690238953,1.13903605937958,-0.0623430170958408,2.9389919218434,1.18145038757383,1641.705,1581.152,3147.053,3113.392,-0.09583651,-0.01735529,0.1421942,-0.196261644363403,-0.0863865688443184,-0.0513080470263958,-0.0312204565115429,-0.0134332902383343,0.0193269498172333,3
0.239990234375,-0.0775494948029518,2.92897439002991,1.13863325119019,-0.0630214373585105,2.93870001655724,1.18187036203406,1525.26,1624.86,3416.397,2777.162,-0.09476166,-0.01467615,0.137732,-0.226982414722443,-0.0926222503185272,-0.0201389007270336,-0.0368316683029241,-0.015847637913056,0.022800557215184,3
0.260009765625,-0.0826384648680687,2.92699313163757,1.13863635063171,-0.0638185570309634,2.93835703823113,1.18236381708338,1437.379,1499.727,3535.815,2744.41,-0.09439095,-0.01259036,0.1393046,-0.254448533058167,-0.0990590676665306,0.000154566019773483,-0.0428699302682246,-0.0184457333472145,0.0265385290140116,3
0.280029296875,-0.0882442742586136,2.92490148544312,1.13885271549225,-0.0647405670799769,2.93796032306502,1.18293458522515,1400.886,1276.547,3475.426,2977.778,-0.09320585,-0.01110591,0.1456847,-0.280290722846985,-0.104585193097591,0.0108209634199739,-0.0493064925116944,-0.0212152062638476,0.0305230676586995,3
0.29998779296875,-0.09436996281147,2.92273330688477,1.13920724391937,-0.0657918945890516,2.93750796620855,1.18358540703494,1352.211,1062.47,3343.39,3324.188,-0.09053842,-0.009932525,0.1533037,-0.306284070014954,-0.108404509723186,0.0177235156297684,-0.0561078595514081,-0.0241416444928383,0.0347334378503248,3
0.32000732421875,-0.101035371422768,2.9205265045166,1.13972628116608,-0.0669865614821475,2.93699393441958,1.18432496275165,1279.02,939.7305,3240.764,3590.665,-0.08598122,-0.008525844,0.1583611,-0.333270758390427,-0.110344290733337,0.0259494446218014,-0.0633036493784043,-0.0272377918282996,0.0391879745362408,3
0.34002685546875,-0.108250871300697,2.91831278800964,1.14046263694763,-0.068328931055223,2.93641635029375,1.18515595346331,1253.171,944.5903,3169.84,3650.336,-0.07944156,-0.00629305,0.1584803,-0.36077493429184,-0.110682673752308,0.0368162766098976,-0.0708617428582823,-0.0304898283040037,0.0438667944422071,4
0.3599853515625,-0.116002291440964,2.91611576080322,1.14145314693451,-0.0698213312158394,2.93577421219747,1.18607982025561,1321.831,1048.353,3118.398,3497.278,-0.07155435,-0.00296037,0.1534686,-0.387571483850479,-0.109857298433781,0.0495262369513512,-0.0787457139191101,-0.0338820807988248,0.0487473480944833,4
0.3800048828125,-0.124250769615173,2.9139506816864,1.14270901679993,-0.0714797725314022,2.93506063123087,1.18710647443246,1453.012,1180.029,3094.388,3231.767,-0.06361919,0.00125566,0.1450434,-0.412423580884933,-0.108258619904518,0.0627954602241516,-0.0869921272359981,-0.0374302820709642,0.0538522707687797,4
0.4000244140625,-0.132942497730255,2.91182732582092,1.14421820640564,-0.0733065984369745,2.93427459907931,1.1882373666918,1579.362,1273.936,3103.521,2982.662,-0.05701295,0.005824347,0.1357533,-0.434586822986603,-0.106168746948242,0.0754602998495102,-0.0955658248284375,-0.0411193046236092,0.0591597980003546,4
0.41998291015625,-0.142022788524628,2.90975117683411,1.14595818519592,-0.075301871434707,2.93341608884986,1.18947253572543,1634.166,1289.847,3156.511,2843.283,-0.05244297,0.01017861,0.1278491,-0.45401468873024,-0.103801719844341,0.0869976729154587,-0.104427768518458,-0.0449323514193797,0.064645763297398,4
0.44000244140625,-0.151445329189301,2.90772533416748,1.14789724349976,-0.077483988232608,2.93247718495301,1.19082336997196,1603.988,1236.633,3223.313,2843.516,-0.04966209,0.01397181,0.1224661,-0.471127361059189,-0.101292319595814,0.0969509407877922,-0.113620829717891,-0.048887868829098,0.0703367061060819,4
0.46002197265625,-0.161175981163979,2.90575242042542,1.14999806880951,-0.0798530997696509,2.93145782244394,1.19228996286983,1541.15,1158.42,3251.328,2939.516,-0.04787884,0.01718397,0.1193459,-0.486532598733902,-0.0986428707838058,0.105041816830635,-0.123107133063502,-0.0529695601420796,0.0762091797723108,4
0.47998046875,-0.171192735433578,2.90383696556091,1.15223944187164,-0.082406855753501,2.93035901258777,1.1938708594761,1478.192,1087.519,3245.521,3064.699,-0.04628893,0.01999141,0.1173659,-0.500837862491608,-0.0957775115966797,0.112070135772228,-0.132845337826091,-0.057159637597476,0.0822375924153778,5
0.5,-0.181480288505554,2.90198421478271,1.1546174287796,-0.085166398670376,2.92917165836334,1.1955791479969,1428.168,1044.835,3220.733,3170.504,-0.0443395,0.02264003,0.1152279,-0.514378190040588,-0.0926406532526016,0.118900500237942,-0.142884000065179,-0.0614789935111996,0.0884520025491718,5
0.52001953125,-0.192023426294327,2.90019965171814,1.15713584423065,-0.0881295333471192,2.92789670429234,1.19741346951549,1422.902,1045.131,3175.912,3212.135,-0.04191283,0.02537627,0.1118926,-0.527156412601471,-0.0892314314842224,0.125919699668884,-0.153182839569029,-0.0659102964334391,0.0948274748038155,5
0.53997802734375,-0.202803581953049,2.89848685264587,1.15981018543243,-0.0912913676125048,2.92653625533937,1.19937079554481,1450.357,1074.798,3145.84,3181.61,-0.03929228,0.02829408,0.1070357,-0.539009690284729,-0.085638515651226,0.13371904194355,-0.16369851368286,-0.0704348972306956,0.101337178011302,5
0.55999755859375,-0.213797003030777,2.89684629440308,1.16265475749969,-0.094676112580471,2.92507989413848,1.20146611391775,1479.99,1112.468,3143.302,3115.301,-0.0368933,0.0313236,0.1010644,-0.549669802188873,-0.0820327624678612,0.142226159572601,-0.17448465888317,-0.0750758741803766,0.108014315705644,5
0.58001708984375,-0.224975198507309,2.89527463912964,1.16566908359528,-0.0982790918331175,2.92352963282165,1.20369652970884,1520.069,1148.728,3144.149,3037.216,-0.03512017,0.03434232,0.09466311,-0.558910191059113,-0.0785802230238914,0.150718510150909,-0.185498893714783,-0.0798149917263209,0.114832651747179,5
0.60003662109375,-0.236309766769409,2.89376616477966,1.1688517332077,-0.102104766440831,2.92188355191493,1.20606480453317,1546.335,1168.373,3160.315,2975.302,-0.03428553,0.03716701,0.08860031,-0.566729605197906,-0.0754182636737823,0.159131675958633,-0.196730728861449,-0.0846477366087834,0.121785692749472,5
0.6199951171875,-0.247775048017502,2.89231300354004,1.17219507694244,-0.106144683970236,2.92014528826426,1.20856570593183,1535.083,1167.493,3182.519,2963.666,-0.03445811,0.03963221,0.08344882,-0.573263645172119,-0.0726634114980698,0.167167454957962,-0.208134604141382,-0.0895545055543457,0.128845234789665,5
0.6400146484375,-0.259350419044495,2.89090514183044,1.17568981647491,-0.110427588881679,2.91830247393137,1.21121702809507,1498.617,1154.833,3200.945,2990.316,-0.03538809,0.0416854,0.0793222,-0.578770279884338,-0.0703889578580856,0.174738809466362,-0.21977002223474,-0.0945609009039674,0.136048112861281,5
0.6600341796875,-0.271020233631134,2.88953280448914,1.17932212352753,-0.114945316258235,2.91635862205193,1.21401371655035,1467.097,1144.241,3195.087,3032.883,-0.03678038,0.04337893,0.07592666,-0.583490908145905,-0.0686116740107536,0.181617602705956,-0.231592256338351,-0.0996476779637659,0.143366638942526,5
0.67999267578125,-0.282773286104202,2.88818621635437,1.18308985233307,-0.119686638739014,2.91431856344567,1.21694882102647,1438.224,1140.974,3186.541,3069.3,-0.03843261,0.04478309,0.0728732,-0.587653040885925,-0.0673352554440498,0.188384547829628,-0.243554411173546,-0.104794659005432,0.150771782621969,5
0.70001220703125,-0.294600516557693,2.88685464859009,1.18699407577515,-0.124683985757554,2.91216834463331,1.22004241688759,1398.552,1145.259,3181.813,3104.761,-0.04018071,0.04595965,0.06987872,-0.591362476348877,-0.0665841624140739,0.195212751626968,-0.255719729227087,-0.11002905550423,0.158302694011575,5
0.72003173828125,-0.306492984294891,2.88552737236023,1.19102942943573,-0.129926464684368,2.909912652409,1.2232877610772,1391.545,1162.544,3161.485,3110.708,-0.04193467,0.04701368,0.06664928,-0.59462183713913,-0.0663695931434631,0.201767340302467,-0.268042056234039,-0.115331008569357,0.165930801422716,5
0.739990234375,-0.31844162940979,2.884192943573,1.19519948959351,-0.135400001298574,2.90755754251682,1.2266761409821,1399.52,1186.291,3151.016,3088.488,-0.04382924,0.04795728,0.06320039,-0.597433745861053,-0.0667157173156738,0.208501651883125,-0.280473432677602,-0.12067988256057,0.173626415629864,5
0.760009765625,-0.330437123775482,2.88283944129944,1.19950699806213,-0.141140917956636,2.9050873864615,1.23023004187122,1385.382,1206.984,3155.117,3077.028,-0.04601623,0.04872722,0.05982194,-0.599775016307831,-0.0676726102828979,0.215372607111931,-0.293080296154222,-0.126104263719567,0.181430664670081,5
0.780029296875,-0.34247013926506,2.88145422935486,1.20394361019135,-0.147135516931739,2.90250807799222,1.23394098419916,1386.698,1226.257,3148.465,3061.879,-0.04853025,0.04931554,0.0566566,-0.601651072502136,-0.0692665427923203,0.221830308437347,-0.305815338775367,-0.131583796783543,0.189314262706778,5
0.79998779296875,-0.354533344507217,2.88002371788025,1.20850896835327,-0.153366821193532,2.89982692185086,1.2377984583754,1383.764,1241.726,3150.914,3047.188,-0.05145653,0.04967097,0.05390523,-0.60316014289856,-0.0715257897973061,0.228266075253487,-0.318629798715703,-0.137097500901303,0.197247023847227,5
0.82000732421875,-0.366621464490891,2.87853407859802,1.21320116519928,-0.159875221826383,2.89702653888221,1.24182746840525,1344.794,1250.296,3161.638,3065.486,-0.05476364,0.04973307,0.05177426,-0.604405581951141,-0.0744783729314804,0.234612643718719,-0.331592781842754,-0.14267511039705,0.205271727915392,4
0.84002685546875,-0.378731369972229,2.87697196006775,1.21800827980042,-0.166644154783139,2.89411405613301,1.24601776035448,1324.783,1258.902,3153.557,3082.282,-0.05825239,0.04955482,0.05011932,-0.605496168136597,-0.0781061872839928,0.240356534719467,-0.344656091553402,-0.148295887618918,0.213358538918022,4
0.8599853515625,-0.390862703323364,2.875324010849,1.22292900085449,-0.173653699721778,2.89109804476993,1.25035700258242,1309.901,1269.981,3148.913,3090.01,-0.0618615,0.0491595,0.04884039,-0.606565594673157,-0.082396037876606,0.246036648750305,-0.357770416714212,-0.153938615363784,0.221476930914505,4
0.8800048828125,-0.403016418218613,2.8735773563385,1.22796297073364,-0.180948461186242,2.88795931270381,1.25487280742661,1268.604,1280.596,3150.84,3117.475,-0.06553027,0.04854615,0.04793927,-0.607685446739197,-0.0873359814286232,0.251695781946182,-0.371007022483504,-0.159633957038354,0.229671020432672,4
0.9000244140625,-0.415194243192673,2.87171983718872,1.23310029506683,-0.188508963212068,2.88470623989808,1.25955311833725,1258.179,1294.568,3136.02,3127.502,-0.06910583,0.04780222,0.0471943,-0.60889196395874,-0.0928758382797241,0.256865888834,-0.384317079523421,-0.165360902742685,0.237910579786325,4
0.91998291015625,-0.427398979663849,2.86974000930786,1.23834276199341,-0.196312316554895,2.88134867495511,1.26438376578173,1257.365,1311.843,3129.307,3119.727,-0.07264251,0.0469448,0.04657874,-0.610238075256348,-0.0989962667226791,0.262124449014664,-0.397650971463704,-0.171098103938772,0.246164894078718,4
0.94000244140625,-0.43963360786438,2.86762642860413,1.24369215965271,-0.204407453948074,2.87786556348678,1.26939504145298,1227.222,1326.446,3133.683,3132.752,-0.0761941,0.04594262,0.04624683,-0.611731231212616,-0.105682864785194,0.267471253871918,-0.411081631631503,-0.176876941799768,0.254479112513653,4
0.96002197265625,-0.451901197433472,2.86536884307861,1.24913918972015,-0.21277195700315,2.87426655149935,1.27457306730061,1225.637,1340.304,3123.588,3132.37,-0.07966367,0.04485055,0.04611159,-0.613379597663879,-0.112879179418087,0.27235409617424,-0.424559845004915,-0.182676240476657,0.262822768648136,3
0.97998046875,-0.464206099510193,2.86295747756958,1.25468564033508,-0.221379956358585,2.87056276985637,1.27990182895749,1228.024,1354.231,3121.991,3122.356,-0.08312684,0.04365733,0.04623654,-0.615244030952454,-0.120567791163921,0.277323484420776,-0.438035925118965,-0.188474621271639,0.271165104193453,3
1,-0.476553201675415,2.86038303375244,1.26033306121826,-0.230284798736574,2.86673126495361,1.28541435058594,1195.09,1363.498,3130.535,3141.49,-0.08660866,0.04232021,0.04678938,-0.617355585098267,-0.128728076815605,0.2823686003685,-0.451584000205995,-0.194303979492187,0.279552008056641,3
1.02001953125,-0.488948076963425,2.85763740539551,1.26607143878937,-0.239461107372567,2.86278295570393,1.29109492275982,1190.682,1371.534,3122.026,3149.873,-0.08995253,0.04090521,0.04761548,-0.619745314121246,-0.137285873293877,0.286920249462128,-0.465154707681581,-0.200143075797255,0.287952922446475,3
1.03997802734375,-0.501397907733917,2.85471320152283,1.27190291881561,-0.248880035413094,2.85873025410248,1.29692568790267,1191.703,1380.961,3120.109,3147.766,-0.09318826,0.03942071,0.04868801,-0.622488915920258,-0.146215543150902,0.29157629609108,-0.478698517198992,-0.205970598662363,0.296337185718871,3
1.05999755859375,-0.513909995555878,2.85160350799561,1.27783036231995,-0.258599401509697,2.85454828239877,1.30294243851408,1159.32,1387.383,3127.979,3171.759,-0.09632014,0.03784331,0.05009763,-0.625607907772064,-0.155486464500427,0.296371132135391,-0.492290296490434,-0.211818761581115,0.30475114456651,3
1.08001708984375,-0.526492059230804,2.84830331802368,1.28384506702423,-0.268590868588476,2.85024923324404,1.30912763259543,1160.188,1394.033,3118.345,3179.575,-0.09919263,0.03625603,0.05163988,-0.629103541374207,-0.165010005235672,0.300734996795654,-0.505880764601332,-0.21766636033551,0.313164291730931,3
1.10003662109375,-0.539152503013611,2.84480810165405,1.28995084762573,-0.278854332424133,2.84583315148354,1.31548120562628,1168.902,1402.764,3116.108,3173.427,-0.1018734,0.03466927,0.05328828,-0.633022487163544,-0.174759820103645,0.305286198854446,-0.519462149665191,-0.223510050908515,0.32157181605655,3
1.1199951171875,-0.551899492740631,2.84111428260803,1.29615008831024,-0.289357002179081,2.84131414609862,1.32198285851614,1154.114,1409.325,3119.453,3187.504,-0.1044481,0.03305884,0.05514241,-0.6373490691185,-0.1846963763237,0.309959441423416,-0.532985466132485,-0.229328756186667,0.329943393154705,3
1.1400146484375,-0.564741432666779,2.83721852302551,1.30244493484497,-0.300162704591434,2.83666475422696,1.32867210305637,1138.039,1412.018,3129.729,3199.114,-0.1067661,0.03145136,0.05716242,-0.642097592353821,-0.194789737462997,0.314745187759399,-0.54652589017629,-0.235154822377061,0.338325560657667,3
1.1600341796875,-0.577686131000519,2.83311986923218,1.30882787704468,-0.311239174734401,2.83189885856519,1.33552896572031,1153.691,1417.095,3119.634,3197.835,-0.1087901,0.02990277,0.0592295,-0.647233605384827,-0.204936653375626,0.319145321846008,-0.560034590932616,-0.240967238923098,0.346688089934489,3
1.17999267578125,-0.59074205160141,2.82881760597229,1.31530427932739,-0.322550701230474,2.8270318247214,1.34253133946411,1168.714,1422.238,3118.934,3191.116,-0.1106698,0.02839568,0.06137924,-0.652799487113953,-0.21511834859848,0.323818773031235,-0.573463232144024,-0.246745208083563,0.355001058539242,3
1.20001220703125,-0.603917837142944,2.82431101799011,1.32188141345978,-0.334165615614823,2.82203425154496,1.34972152476313,1144.491,1422.389,3133.385,3212.443,-0.1124445,0.02688544,0.06374463,-0.658790171146393,-0.225324988365173,0.328853875398636,-0.586886736182789,-0.252520966862155,0.363310846989412,3
1.22003173828125,-0.617221176624298,2.81960153579712,1.3285528421402,-0.346048739660615,2.8169212752441,1.35707774461917,1151.889,1422.845,3129.411,3219.115,-0.1139561,0.02544866,0.06614112,-0.665168285369873,-0.235469877719879,0.333571016788483,-0.600256853941591,-0.258273755015919,0.371587586789143,3
1.239990234375,-0.630660653114319,2.81469082832336,1.33532357215881,-0.358161486344149,2.81170949873715,1.36457611182642,1168.433,1424.934,3131.222,3212.044,-0.1152637,0.02409105,0.06854081,-0.671973288059235,-0.245537057518959,0.33853754401207,-0.613526094901141,-0.263983138701136,0.379801879044709,2
1.260009765625,-0.644244372844696,2.8095805644989,1.34220027923584,-0.37057666480527,2.80636759428526,1.37226169871082,1151.181,1423.112,3145.217,3229.808,-0.1164089,0.0227701,0.07106777,-0.679184556007385,-0.255510628223419,0.343835324048996,-0.626768731761373,-0.26968107538565,0.387999702095469,2
1.280029296875,-0.657979309558868,2.804274559021,1.34917676448822,-0.383256224448249,2.80091193399677,1.38011095014101,1165.935,1422.612,3139.071,3233.701,-0.1172915,0.02155613,0.07354913,-0.686747193336487,-0.265299737453461,0.348823815584183,-0.639937296597118,-0.275347140947359,0.39615167103453,2
1.29998779296875,-0.671873271465302,2.79877662658691,1.35625958442688,-0.396158759015336,2.79536033382764,1.388098233671,1185.665,1423.324,3140.979,3226.212,-0.1180185,0.02044266,0.07597347,-0.694700121879578,-0.274900823831558,0.354140073060989,-0.652985332144132,-0.280961346123326,0.404229026602261,2
1.32000732421875,-0.685933649539948,2.79309034347534,1.36345708370209,-0.409361504843077,2.78967956113998,1.39627136227237,1168.054,1419.355,3158.239,3244.146,-0.1186252,0.01937973,0.07847581,-0.703016579151154,-0.284317433834076,0.35987776517868,-0.6659860834168,-0.286555206197011,0.41227711095171,2
1.34002685546875,-0.70016610622406,2.78722095489502,1.37076342105865,-0.422823591595166,2.78388720129772,1.40460503526004,1183.133,1417.441,3154.07,3247.472,-0.1189916,0.01843964,0.08088528,-0.711622953414917,-0.293466925621033,0.365314871072769,-0.67889305416841,-0.29210871513241,0.420267140691238,2
1.3599853515625,-0.71457713842392,2.78117394447327,1.37818455696106,-0.436500861174643,2.77800225429635,1.41307191666844,1205.926,1416.84,3156.524,3237.837,-0.1192159,0.01761511,0.08319137,-0.720554649829865,-0.302349150180817,0.371056765317917,-0.69166099897751,-0.297602405088682,0.428171106749628,2
1.3800048828125,-0.729172766208649,2.77495455741882,1.38572895526886,-0.450474904562636,2.77198961381608,1.4217225152016,1191.477,1411.293,3174.329,3253.782,-0.1193442,0.01684912,0.08554129,-0.729783058166504,-0.310974776744843,0.377218842506409,-0.704361775018035,-0.303067194200314,0.436033492140578,2
1.4000244140625,-0.743957340717316,2.76856923103333,1.39339053630829,-0.464702095472036,2.76586805102946,1.43052982410961,1207.838,1408.46,3169.781,3257.113,-0.1192777,0.01620788,0.08777331,-0.739227652549744,-0.319268524646759,0.383079439401627,-0.716950039288891,-0.308483572640673,0.443826227386424,2
1.41998291015625,-0.758935987949371,2.76202440261841,1.40117573738098,-0.479135601808478,2.75965771647838,1.43946485209513,1230.425,1406.711,3172.726,3248.063,-0.1191152,0.01568146,0.08987408,-0.748929083347321,-0.327240794897079,0.389260679483414,-0.729381927869995,-0.313832666990362,0.451522158631107,2
1.44000244140625,-0.774113118648529,2.75532603263855,1.40909326076508,-0.493861275572861,2.75332167044526,1.4485807456364,1215.202,1399.768,3192.137,3263.922,-0.1188846,0.01521141,0.09198812,-0.758857905864716,-0.334915220737457,0.395876288414001,-0.741727567798258,-0.319144650954242,0.459164697851088,2
1.46002197265625,-0.789491593837738,2.7484815120697,1.41713643074036,-0.50883280894277,2.74687983789241,1.45784883798541,1231.842,1396.586,3187.374,3266.624,-0.1184803,0.01486656,0.09395104,-0.768921494483948,-0.342222839593887,0.402158915996552,-0.753942941956197,-0.324400585196357,0.466726596353819,2
1.47998046875,-0.805074751377106,2.74149799346924,1.42531108856201,-0.524000783579472,2.74035348215039,1.46723853683636,1255.928,1394.627,3189.549,3256.128,-0.1180057,0.01463564,0.0957493,-0.779161274433136,-0.349177539348602,0.408733546733856,-0.76598572865452,-0.329582259876133,0.474181654997567,2
1.5,-0.82086569070816,2.73438167572021,1.43362581729889,-0.539455198877605,2.73370387899399,1.4768055561018,1241.465,1387.159,3209.146,3270.586,-0.117496,0.01445483,0.09753714,-0.789548635482788,-0.355812638998032,0.415738791227341,-0.777924000354858,-0.334718964672088,0.481572013878822,1
1.52001953125,-0.836865365505219,2.72714018821716,1.44207370281219,-0.555147149984933,2.72695207081487,1.48651962134853,1257.64,1384.008,3204.018,3272.91,-0.1168531,0.01438977,0.09915911,-0.799984335899353,-0.362068802118301,0.422391802072525,-0.789715229532175,-0.33979240117828,0.488871346433721,1
1.53997802734375,-0.853075623512268,2.71978092193604,1.45065999031067,-0.571024729446907,2.7201203919406,1.49634859938949,1281.184,1381.897,3206.178,3261.761,-0.1161761,0.01442797,0.1006035,-0.810513198375702,-0.367966592311859,0.429316610097885,-0.801318788528229,-0.344785088448372,0.496054502206448,1
1.55999755859375,-0.869497776031494,2.71231007575989,1.45939290523529,-0.587181951496087,2.71316839067337,1.50635068951315,1265.963,1374.012,3226.231,3275.393,-0.1154906,0.01450343,0.1020296,-0.821108222007751,-0.373547524213791,0.436648666858673,-0.812800388649436,-0.349725300221754,0.503162159625937,1
1.58001708984375,-0.88613098859787,2.70473480224609,1.46826446056366,-0.603567408310176,2.70611818636293,1.51649406782863,1281.672,1371.111,3220.112,3277.256,-0.1147002,0.014682,0.103284,-0.831665933132172,-0.378758132457733,0.443578958511353,-0.824119146742882,-0.35459544561987,0.510169010073001,0
1.60003662109375,-0.902975738048553,2.69706225395203,1.47727942466736,-0.620177789093064,2.69897120355237,1.5267766847954,1305.013,1369.212,3221.479,3265.227,-0.1139045,0.01495001,0.104355,-0.842237591743469,-0.383622646331787,0.450750708580017,-0.835270008391827,-0.359393349868401,0.517071924622902,0
1.6199951171875,-0.920031547546387,2.68929886817932,1.48644280433655,-0.636958033083316,2.69175113334911,1.53716445517924,1299.991,1364.223,3232.375,3273.796,-0.1131923,0.01524916,0.1053734,-0.852784693241119,-0.388173848390579,0.458166867494583,-0.846214826007804,-0.364102599125749,0.523847288101157,0
1.6400146484375,-0.937297284603119,2.68144989013672,1.49575746059418,-0.654007271984653,2.68441532215046,1.54771874622704,1287.287,1355.387,3251.073,3283.242,-0.112379,0.01558914,0.1063304,-0.863287627696991,-0.39244470000267,0.465734541416168,-0.857015715678588,-0.368749920209162,0.530533553325099,0
1.6600341796875,-0.95477020740509,2.67352271080017,1.50521242618561,-0.671270921724395,2.67698725595799,1.55840576779763,1312.362,1354.853,3237.396,3278.495,-0.11144,0.01603251,0.1070758,-0.873645484447479,-0.396364837884903,0.472751140594482,-0.86763421272879,-0.373318762843399,0.537106908828335,0
1.67999267578125,-0.972448706626892,2.66552352905273,1.51481306552887,-0.688691692550512,2.66949158495151,1.56919005480539,1337.131,1354.465,3234.885,3265.765,-0.1105729,0.01654035,0.1076366,-0.883926391601563,-0.399962097406387,0.480029582977295,-0.878034183119987,-0.377793579561193,0.543544985919778,0
1.70001220703125,-0.990331053733826,2.65745735168457,1.52456843852997,-0.706372354049449,2.66188409024902,1.58013522651994,1314.034,1346.573,3256.966,3281.294,-0.1098021,0.0170344,0.1081947,-0.894118666648865,-0.403310239315033,0.487767189741135,-0.888274735793774,-0.382199803288802,0.549884375850026,0
1.72003173828125,-1.00841307640076,2.64932990074158,1.53446877002716,-0.72425607283747,2.65418922566779,1.59120610036939,1322.217,1344.445,3251.677,3284.129,-0.1089723,0.01759236,0.1085887,-0.904106974601746,-0.406378269195557,0.495014101266861,-0.898319376918855,-0.386521731750138,0.556102487199065,0
1.739990234375,-1.02669191360474,2.64114618301392,1.54451584815979,-0.74228345468553,2.64643254688532,1.60236590849663,1344.789,1343.938,3251.287,3268.226,-0.108144,0.01821163,0.108795,-0.913944184780121,-0.409187853336334,0.502356588840485,-0.908134108040217,-0.390744736359816,0.562178273303667,0
1.760009765625,-1.04516422748566,2.63291049003601,1.55471503734589,-0.760560719141003,2.63856835059778,1.61368040586141,1328.66,1337.432,3268.493,3277.858,-0.1073573,0.01881719,0.1089994,-0.923614621162415,-0.411785900592804,0.50996196269989,-0.91777478390713,-0.394892849856044,0.568146310914365,0
1.780029296875,-1.06382465362549,2.62462782859802,1.56505525112152,-0.7790289055498,2.63062200592748,1.62511309301018,1341.612,1336.697,3257.42,3278.993,-0.1065467,0.01946899,0.1090625,-0.93302047252655,-0.414131134748459,0.51701158285141,-0.927207006545171,-0.398951271751399,0.573985306046387,0
1.79998779296875,-1.08266949653625,2.61630272865295,1.5755398273468,-0.797626646773287,2.62261991743975,1.63662598076079,1360.367,1336.436,3256.472,3265.963,-0.1058138,0.02015075,0.1089724,-0.94223952293396,-0.416258007287979,0.524230301380157,-0.936399026186941,-0.402906341007953,0.579675604081262,0
1.82000732421875,-1.1016948223114,2.60793805122375,1.5861748456955,-0.816463410111527,2.61451498441355,1.64828683458664,1335.626,1329.621,3276.407,3279.699,-0.1051533,0.02079249,0.1089052,-0.951261460781097,-0.41823074221611,0.531752288341522,-0.94540321420156,-0.406780591562751,0.585249625391268,0
1.84002685546875,-1.12089443206787,2.59953784942627,1.59694766998291,-0.835478236913388,2.60633343565348,1.6600579181788,1345.024,1329.319,3265.843,3280.876,-0.1044369,0.02147254,0.1086935,-0.959980130195618,-0.420010149478912,0.538641929626465,-0.954187384555097,-0.410560174664568,0.59068744528817,0
1.8599853515625,-1.14026367664337,2.59110546112061,1.60785973072052,-0.854607925216182,2.59810246519841,1.67190010651166,1366.367,1330.413,3262.397,3264.264,-0.1037584,0.02218234,0.1083174,-0.968468248844147,-0.421617984771729,0.545601725578308,-0.962722140342816,-0.41423244164655,0.595970865687568,0
1.8800048828125,-1.15979814529419,2.58264327049255,1.61891615390778,-0.873964974649439,2.58977366760063,1.68388304221498,1343.869,1325.074,3279.443,3275.648,-0.103157,0.02284332,0.1079725,-0.976719677448273,-0.42311042547226,0.552820324897766,-0.971056158224177,-0.417818336715394,0.601130019760457,0
1.9000244140625,-1.17949092388153,2.57415413856506,1.6301041841507,-0.893486564535158,2.58137407284289,1.69596783629653,1352.129,1325.584,3267.534,3277.126,-0.1025306,0.02352588,0.1075061,-0.984637022018433,-0.424451380968094,0.559402644634247,-0.979159571260204,-0.421305008961645,0.606146418448853,0
1.91998291015625,-1.19933676719666,2.5656406879425,1.64142560958862,-0.91310780215452,2.5729316024492,1.70811431707208,1370.212,1326.994,3264.815,3261.154,-0.1019634,0.02422053,0.1069013,-0.992300570011139,-0.425668895244598,0.566069543361664,-0.98700543065471,-0.424680863071164,0.611003379164165,0
1.94000244140625,-1.21933090686798,2.55710434913635,1.65288484096527,-0.932943991899774,2.5643966441608,1.72039386345315,1344.208,1322.033,3282.301,3273.369,-0.1014702,0.02485337,0.1063519,-0.99970418214798,-0.426819741725922,0.572962582111359,-0.994638524886308,-0.427965170275055,0.615728628108227,0
1.96002197265625,-1.23946595191956,2.54854702949524,1.66446781158447,-0.952930593197372,2.55579696798345,1.73276652175022,1352.056,1323.077,3269.124,3274.191,-0.1009322,0.0255014,0.1056942,-1.00675237178802,-0.42786231637001,0.579149842262268,-1.00203140433628,-0.431146119769234,0.620305172659443,0
1.97998046875,-1.25973653793335,2.5399706363678,1.67617547512054,-0.973001172086935,2.54716115859433,1.74519116617712,1370.938,1325.243,3264.706,3256.909,-0.1004443,0.02615472,0.1049108,-1.01353013515472,-0.428818166255951,0.585385859012604,-1.0091596546337,-0.434213206731958,0.624717899159203,0
2,-1.28013730049133,2.53137588500977,1.6880122423172,-0.993273599084619,2.53843849960327,1.7577407641983,1343.528,1321.036,3281.038,3269.629,-0.1000363,0.02673632,0.1042026,-1.02003633975983,-0.429741591215134,0.591837823390961,-1.01606400046349,-0.437183953857422,0.628992018127441,0
2.02001953125,-1.30066084861755,2.52276396751404,1.6999636888504,-1.01368176147806,2.52965743746343,1.77037438889544,1349.533,1322.447,3267.389,3271.045,-0.09958412,0.02732454,0.1034013,-1.02618110179901,-0.430591464042664,0.597570955753326,-1.0227194988233,-0.440047628868552,0.633112088657522,0
2.03997802734375,-1.32130193710327,2.51413631439209,1.71203052997589,-1.03415783849082,2.52084715356021,1.78305005597715,1367.139,1325.054,3262.802,3253.411,-0.09917239,0.02791324,0.1024855,-1.03205049037933,-0.431388527154922,0.603340566158295,-1.02910434715509,-0.442794850733705,0.637064613927399,0
2.05999755859375,-1.34205460548401,2.50549268722534,1.72421646118164,-1.05482201812353,2.5119559343546,1.79584216754118,1338.534,1321.546,3278.385,3266.066,-0.09882937,0.02842657,0.1016581,-1.03764235973358,-0.432182759046555,0.609298050403595,-1.03525504859546,-0.445441325732794,0.640872191117535,0
2.08001708984375,-1.36291217803955,2.49683403968811,1.73650658130646,-1.07560676837143,2.50301283698163,1.80870891805959,1344.697,1323.39,3263.761,3266.688,-0.09842937,0.02894464,0.1007478,-1.0428706407547,-0.432928770780563,0.614506006240845,-1.0411492471255,-0.447977434695423,0.644520980787238,0
2.10003662109375,-1.38386845588684,2.48816108703613,1.7489013671875,-1.09650693059248,2.49402008106085,1.82164711408721,1362.149,1326.404,3258.474,3248.485,-0.09806398,0.02945908,0.09973757,-1.04782295227051,-0.433644145727158,0.619740426540375,-1.04678460577819,-0.450402172089984,0.648009536242619,0
2.1199951171875,-1.40491831302643,2.47947382926941,1.76140117645264,-1.11745308225396,2.48500753716864,1.83461377976925,1345.205,1326.349,3263.384,3256.409,-0.09783495,0.02990604,0.09879415,-1.05248236656189,-0.434360533952713,0.624992728233337,-1.0521429102862,-0.45270770082608,0.651326581984514,0
2.1400146484375,-1.42605543136597,2.4707715511322,1.77400457859039,-1.13856809990831,2.47592233495728,1.84768498154507,1320.503,1322.143,3276.743,3264.981,-0.09752336,0.03030537,0.0979045,-1.05686044692993,-0.435108840465546,0.630167424678802,-1.05725481901126,-0.454907212340279,0.654491096999312,0
2.1600341796875,-1.44727301597595,2.46205520629883,1.78669428825378,-1.15978280433347,2.46679424031336,1.86081789418076,1338.431,1325.827,3255.102,3257.89,-0.09707914,0.03073115,0.09690066,-1.06087970733643,-0.435812532901764,0.6344855427742,-1.06210153574728,-0.456992619150195,0.65749144554004,0
2.17999267578125,-1.46856570243835,2.45332551002502,1.79947209358215,-1.18102676265167,2.45765355853653,1.8739689163698,1358.236,1329.978,3246.475,3239.362,-0.09670524,0.03114801,0.0958138,-1.06463408470154,-0.436484307050705,0.6388920545578,-1.06666760390386,-0.458957270716794,0.660318059240953,0
2.20001220703125,-1.48992824554443,2.44458174705505,1.81234359741211,-1.20242455577657,2.44844668594002,1.88721516963236,1322.178,1327.172,3262.785,3256.415,-0.09644638,0.03147341,0.09486078,-1.06813049316406,-0.437183976173401,0.643577456474304,-1.07097916161324,-0.460812413548163,0.662987118851036,0
2.22003173828125,-1.51135396957397,2.43582439422607,1.82529377937317,-1.22390595867498,2.43920383839376,1.9005131813276,1322.126,1328.555,3250.562,3258.917,-0.09610656,0.03180182,0.09384658,-1.07128763198853,-0.437872260808945,0.647512137889862,-1.0750201524698,-0.462551139021528,0.665488684690339,0
2.239990234375,-1.53283751010895,2.42705297470093,1.83832180500031,-1.24539969505118,2.42995568409656,1.91381882803312,1339.933,1331.866,3245.11,3237.846,-0.09573212,0.03213853,0.0927391,-1.07418191432953,-0.438556849956512,0.651402056217194,-1.07877792518082,-0.464168003639063,0.667814925005999,0
2.260009765625,-1.55437362194061,2.41826796531677,1.85142982006073,-1.26703177594152,2.42064800401982,1.92721011658316,1312.753,1330.044,3256.984,3248.32,-0.09538218,0.03240693,0.09175508,-1.07680869102478,-0.439265578985214,0.655398488044739,-1.08227399942825,-0.465672266718726,0.669979161506271,0
2.280029296875,-1.57595574855804,2.40946912765503,1.86460196971893,-1.28873109644562,2.41131139261574,1.94064302965718,1319.981,1331.915,3239.62,3248.279,-0.09495607,0.03268127,0.09072577,-1.07909953594208,-0.439940303564072,0.658605635166168,-1.08549510920706,-0.467058220269158,0.671973181902092,0
2.29998779296875,-1.59757852554321,2.40065717697144,1.87783944606781,-1.31042570636616,2.40197680804417,1.95407302665558,1335.999,1334.795,3233.889,3229.955,-0.09455393,0.03295154,0.08963595,-1.08114802837372,-0.440597593784332,0.66187584400177,-1.08843144721369,-0.468321644481621,0.673790915005368,0
2.32000732421875,-1.61923766136169,2.39183163642883,1.89114594459534,-1.33224276726637,2.39258953623693,1.96757882664355,1301.09,1332.235,3248.288,3245.784,-0.09420453,0.03314472,0.08869094,-1.08295285701752,-0.441278517246246,0.66532701253891,-1.09109983431736,-0.469469776906228,0.675442773735451,0
2.34002685546875,-1.64092636108398,2.38299298286438,1.90450537204742,-1.35411046309062,2.38318047763645,1.98111597206157,1305.287,1333.367,3233.01,3246.292,-0.09373368,0.03335368,0.08768773,-1.08444273471832,-0.441927522420883,0.667974531650543,-1.09348983658457,-0.470498128112872,0.676922298990446,0
2.3599853515625,-1.66264057159424,2.37414193153381,1.91791772842407,-1.37595634130987,2.37378080654189,1.99463961134278,1324.482,1336.478,3226.002,3224.969,-0.09322768,0.0335763,0.08660078,-1.08569729328156,-0.442549496889114,0.670615255832672,-1.09559452046326,-0.471403714787811,0.678225198571351,0
2.3800048828125,-1.68437480926514,2.36527848243713,1.93138587474823,-1.39790843013262,2.36433543599182,2.00822900004707,1294.104,1334.634,3237.699,3238.045,-0.09275577,0.03373447,0.08564762,-1.0867121219635,-0.443173974752426,0.673409342765808,-1.09742594550583,-0.472191725819537,0.679358937915576,0
2.4000244140625,-1.70612323284149,2.35640358924866,1.94489455223083,-1.41989437329222,2.3548754988664,2.02183934619858,1299.709,1335.631,3221.722,3238.03,-0.09218212,0.03391057,0.08464263,-1.08742260932922,-0.443746030330658,0.675436019897461,-1.09897654259203,-0.472858904427064,0.68031883137712,0
2.41998291015625,-1.7278813123703,2.34751796722412,1.95844459533691,-1.4418413890156,2.34543231112926,2.03542559441269,1316.833,1338.171,3215.879,3217.99,-0.0915925,0.03409842,0.08356786,-1.08790862560272,-0.444277048110962,0.677503347396851,-1.10024227275454,-0.473403512755585,0.681102378642803,0
2.44000244140625,-1.74964463710785,2.33862209320068,1.97203922271729,-1.46387808506052,2.33595053645515,2.04906735901791,1284.456,1335.9,3228.548,3231.988,-0.09103484,0.03422562,0.0826337,-1.08816421031952,-0.444798439741135,0.679730534553528,-1.10123038958312,-0.473828671822132,0.681714070030222,0
2.46002197265625,-1.77140700817108,2.32971668243408,1.98566257953644,-1.48593173759011,2.32646146587939,2.06271962049488,1290.405,1336.244,3212.82,3231.455,-0.09035147,0.03437795,0.0816455,-1.08812570571899,-0.445252925157547,0.681167840957642,-1.10193621258339,-0.474132367740737,0.682151008090402,0
2.47998046875,-1.79316449165344,2.32080388069153,1.99931514263153,-1.50792940965705,2.3169964821328,2.07633722739875,1309.582,1338.467,3206.237,3210.046,-0.08963401,0.03455003,0.08058373,-1.08786952495575,-0.445647001266479,0.682630300521851,-1.10235860927677,-0.474314113237503,0.682412491765153,0
2.5,-1.81491231918335,2.31188368797302,2.01300024986267,-1.52999999932945,2.30750012397766,2.08999997377396,1278.128,1336.162,3217.641,3224.23,-0.08895118,0.03466653,0.0796624,-1.08738923072815,-0.446008116006851,0.68425190448761,-1.10250000050292,-0.474374949932098,0.682500019669533,0
2.52001953125,-1.8366447687149,2.3029580116272,2.0267026424408,-1.55207058900185,2.29800376582252,2.10366272014916,1284.025,1335.923,3202.288,3223.771,-0.08814797,0.03481156,0.07868484,-1.08662748336792,-0.446283102035522,0.685117304325104,-1.10235860927677,-0.474314113237503,0.682412491765153,0
2.53997802734375,-1.85835790634155,2.29402852058411,2.04042315483093,-1.57406826106879,2.28853878207593,2.11728032705303,1302.24,1337.659,3196.213,3202.951,-0.08731014,0.03498047,0.07763126,-1.08565521240234,-0.446480184793472,0.686021327972412,-1.10193621258339,-0.474132367740737,0.682151008090402,0
2.55999755859375,-1.88004732131958,2.28509616851807,2.05416488647461,-1.59612191359838,2.27904971150017,2.13093258853001,1271.179,1335.203,3207.56,3216.562,-0.08649787,0.03510133,0.07670981,-1.08446359634399,-0.446626037359238,0.68708348274231,-1.10123038958312,-0.473828671822132,0.681714070030222,0
2.58001708984375,-1.90170741081238,2.27616262435913,2.06791257858276,-1.6181586096433,2.26956793682606,2.14457435313522,1278.027,1334.503,3192.153,3215.349,-0.08555672,0.03525725,0.07572602,-1.08299624919891,-0.446667224168777,0.687385737895966,-1.10024227275454,-0.473403512755585,0.681102378642802,0
2.60003662109375,-1.92333352565765,2.26723051071167,2.08166718482971,-1.64017270144046,2.26009588812827,2.15820212463428,1297.417,1335.863,3185.919,3193.65,-0.08457827,0.03544145,0.07466315,-1.0813205242157,-0.446611106395721,0.687731683254242,-1.09897224258044,-0.472857054252202,0.680316169465104,0
2.6199951171875,-1.94492185115814,2.25830101966858,2.09542870521545,-1.66209156852628,2.2506648119635,2.17177094750084,1279.988,1335.289,3187.683,3201.753,-0.08369356,0.03559211,0.07369404,-1.07941424846649,-0.446470081806183,0.688078761100769,-1.09742594550583,-0.472191725819537,0.679358937915576,0
2.6400146484375,-1.96646785736084,2.24937582015991,2.10919594764709,-1.68404365734903,2.24121944141343,2.18536033620513,1256.562,1330.229,3198.076,3209.234,-0.08268796,0.0357327,0.07278447,-1.07729482650757,-0.446262419223785,0.688357710838318,-1.09559452046326,-0.471403714787811,0.678225198571351,0
2.6600341796875,-1.98796606063843,2.24045753479004,2.12295246124268,-1.7059562766819,2.23179105348221,2.198925291415,1275.502,1330.342,3177.635,3199.972,-0.08149432,0.03593215,0.07176498,-1.07490599155426,-0.445916175842285,0.687831461429596,-1.09348297402779,-0.470495175346408,0.676918050740891,0
2.67999267578125,-2.00941228866577,2.23154878616333,2.13670063018799,-1.72775723139253,2.2224107117184,2.21242112090437,1297.353,1331.998,3168.879,3178.495,-0.08030922,0.03615863,0.07066935,-1.07230842113495,-0.445435881614685,0.687410175800323,-1.09109983431736,-0.469469776906228,0.675442773735451,0
2.70001220703125,-2.03080224990845,2.22265148162842,2.15044546127319,-1.74957429229274,2.21302343991116,2.22592692089233,1263.17,1329.003,3180.819,3195.001,-0.07921626,0.03633588,0.06971113,-1.06949782371521,-0.444859802722931,0.68724662065506,-1.08843144721369,-0.468321644481621,0.673790915005369,0
2.72003173828125,-2.05213069915771,2.21376848220825,2.1641731262207,-1.77133515528999,2.20366034849157,2.23939793170129,1265.56,1326.614,3168.916,3195.528,-0.07800665,0.03655122,0.06868444,-1.06642603874207,-0.444153189659119,0.686385691165924,-1.08548570791771,-0.467054175156991,0.671967362056136,0
2.739990234375,-2.07339358329773,2.20490193367004,2.17788362503052,-1.79296822271738,2.1943522439355,2.25278983096475,1285.216,1326.915,3163.721,3172.352,-0.07672673,0.03680756,0.067559,-1.06314408779144,-0.443321734666824,0.685530781745911,-1.08227399942825,-0.465672266718727,0.669979161506271,0
2.760009765625,-2.09458613395691,2.19605398178101,2.19157934188843,-1.81460030360772,2.18504456385877,2.26618111951479,1259.426,1324.284,3172.413,3182.502,-0.0754628,0.03703502,0.0665451,-1.0596364736557,-0.442381590604782,0.684787333011627,-1.07877792518082,-0.464168003639063,0.667814925005998,0
2.780029296875,-2.11570358276367,2.1872284412384,2.20524573326111,-1.83615965364354,2.17576817783687,2.27952738420123,1269.153,1321.971,3156.743,3179.625,-0.07408861,0.03730301,0.06546643,-1.0558614730835,-0.441287994384766,0.6833216547966,-1.07500824518964,-0.462546015651526,0.665481313516697,0
2.79998779296875,-2.13674116134644,2.17842745780945,2.21888446807861,-1.85757544288233,2.1665535620153,2.29278477791556,1287.923,1321.8,3150.83,3158.896,-0.07270803,0.03759976,0.064313,-1.05187666416168,-0.440051674842834,0.681938588619232,-1.07097916161324,-0.460812413548163,0.662987118851036,0
2.82000732421875,-2.15769457817078,2.16965317726135,2.23249936103821,-1.87897323600723,2.1573466894188,2.30603103117811,1256.584,1318.531,3161.329,3173.167,-0.07138657,0.03785834,0.06328249,-1.04767370223999,-0.438701212406158,0.680740118026733,-1.06666760390385,-0.458957270716794,0.660318059240952,0
2.84002685546875,-2.17855882644653,2.1609091758728,2.24607586860657,-1.90028201942005,2.14817811521475,2.31922218318877,1262.538,1315.436,3147.912,3171.777,-0.06994047,0.03815895,0.06217529,-1.043212890625,-0.437201291322708,0.678828418254852,-1.06208716414723,-0.456986435452194,0.657482548835001,0
2.8599853515625,-2.1993293762207,2.15219831466675,2.25961470603943,-1.92143189875059,2.13907791299805,2.33231496600284,1283.275,1315.212,3141.678,3148.691,-0.06844537,0.03849861,0.06096767,-1.03854048252106,-0.435556590557098,0.676946580410004,-1.05725481901126,-0.454907212340279,0.654491096999312,0
2.8800048828125,-2.22000241279602,2.14352250099182,2.27311897277832,-1.94254691640495,2.12999271078668,2.34538616777867,1256.491,1312.53,3149.731,3160.032,-0.06699714,0.038808,0.05986489,-1.03364229202271,-0.433787316083908,0.675208032131195,-1.0521429102862,-0.45270770082608,0.651326581984514,0
2.9000244140625,-2.24057197570801,2.13488531112671,2.28657484054565,-1.96355695821617,2.12095267674793,2.3583923845069,1264.119,1309.393,3135.812,3157.601,-0.06545038,0.03915694,0.05868733,-1.02848494052887,-0.431862264871597,0.672792136669159,-1.04676782045836,-0.450394949835786,0.647999145330045,0
2.91998291015625,-2.26103448867798,2.12628960609436,2.29998373985291,-1.98439323028747,2.1119874109737,2.37129102948832,1282.991,1308.835,3130.447,3135.69,-0.06388497,0.03953763,0.05742213,-1.02311277389526,-0.429791003465652,0.670442998409271,-1.0411492471255,-0.447977434695422,0.644520980787238,0
2.94000244140625,-2.28138446807861,2.11773777008057,2.31334853172302,-2.00517798053537,2.10304431360073,2.38415778000673,1254.372,1305.922,3139.111,3148.047,-0.06237922,0.03988533,0.05626709,-1.01751339435577,-0.427596688270569,0.668238580226898,-1.03525504859546,-0.445441325732794,0.640872191117535,0
2.96002197265625,-2.30161786079407,2.1092324256897,2.32665538787842,-2.02584216016808,2.09415309439512,2.39694989157076,1261.922,1302.332,3125.6,3145.241,-0.06076748,0.04027202,0.05503486,-1.01165807247162,-0.425251811742783,0.665345072746277,-1.02910434715508,-0.442794850733705,0.637064613927399,0
2.97998046875,-2.3217294216156,2.10077738761902,2.33990550041199,-2.04631823718085,2.08534281049189,2.40962555865248,1281.724,1301.636,3119.974,3122.416,-0.0591307,0.04069049,0.05371316,-1.00558662414551,-0.422762989997864,0.662507236003876,-1.0227194988233,-0.440047628868552,0.633112088657521,0
3,-2.34171509742737,2.09237408638,2.3531014919281,-2.06672639957428,2.07656174835205,2.42225918334961,1254.216,1298.942,3127.291,3134.541,-0.05756157,0.04107508,0.0525002,-0.99928617477417,-0.420150458812714,0.659797370433807,-1.01606400046349,-0.437183953857422,0.628992018127441,0
3.02001953125,-2.36157011985779,2.08402633666992,2.36623001098633,-2.08699882657197,2.06783908936099,2.4348087813708,1261.492,1295.116,3114.184,3131.674,-0.05589975,0.04149495,0.05121176,-0.992735385894775,-0.417392402887344,0.656430959701538,-1.0091596546337,-0.434213206731958,0.624717899159203,0
3.03997802734375,-2.38128924369812,2.07573676109314,2.37929248809814,-2.10706940546153,2.05920327997188,2.4472334257977,1279.923,1294.291,3108.738,3109.822,-0.05422143,0.04194279,0.04983604,-0.985969185829163,-0.414496243000031,0.653121769428253,-1.00203140433628,-0.431146119769234,0.620305172659443,0
3.05999755859375,-2.4008686542511,2.06750702857971,2.39229130744934,-2.12705600675913,2.05060360379452,2.45960608409476,1252.878,1291.797,3115.766,3121.239,-0.05261181,0.04235751,0.04856284,-0.978975415229797,-0.411482125520706,0.649937093257904,-0.994638524886308,-0.427965170275055,0.615728628108227,0
3.08001708984375,-2.42030334472656,2.05934023857117,2.40521335601807,-2.14689219650438,2.04206864550612,2.47188563047583,1260.036,1287.88,3102.91,3118.049,-0.05091112,0.04280514,0.04721441,-0.971736133098602,-0.408331692218781,0.646101534366608,-0.987005430654711,-0.424680863071165,0.611003379164165,0
3.10003662109375,-2.43958902359009,2.05123949050903,2.41805982589722,-2.16657319653803,2.03360046101514,2.4840691070327,1278.811,1287.021,3097.454,3095.615,-0.04919551,0.04327848,0.04578094,-0.964282095432281,-0.405050963163376,0.64231950044632,-0.979135219574012,-0.421294531111384,0.606131343595068,0
3.1199951171875,-2.45872092247009,2.04320645332336,2.43083000183105,-2.18603502400946,2.02522658035469,2.49611690533293,1263.564,1285.707,3096.781,3102.012,-0.04759974,0.04372443,0.04442103,-0.956594944000244,-0.40165188908577,0.638514041900635,-0.971056158224178,-0.417818336715394,0.601130019760458,0
3.1400146484375,-2.47769498825073,2.03524303436279,2.44352293014526,-2.20539207344272,2.01689778275692,2.50809984103626,1244.9,1280.602,3103.283,3106.516,-0.04594272,0.04416373,0.04309293,-0.948697209358215,-0.398155629634857,0.634641230106354,-0.962722140342815,-0.41423244164655,0.595970865687568,0
3.1600341796875,-2.49650621414185,2.02735257148743,2.45612502098083,-2.22457999991466,2.00864175404465,2.51997808157008,1261.266,1277.909,3086.938,3096.354,-0.04415255,0.0446451,0.04165941,-0.940565228462219,-0.394531071186066,0.630109786987305,-0.954160941629351,-0.410548797012349,0.590671075857482,0
3.17999267578125,-2.51515054702759,2.0195369720459,2.46863842010498,-2.24353658854737,2.00048526354177,2.53171311296128,1280.766,1277.74,3079.47,3074.841,-0.04238953,0.04514292,0.04015623,-0.932218194007874,-0.390778660774231,0.625664353370667,-0.945403214201559,-0.406780591562751,0.585249625391267,0
3.20001220703125,-2.53362321853638,2.01179838180542,2.48106622695923,-2.26237335188561,1.99238033051557,2.54337396678712,1252.038,1275.749,3085.823,3087.99,-0.04075276,0.04559687,0.03876852,-0.923651099205017,-0.386923164129257,0.621389508247375,-0.93639902618694,-0.402906341007952,0.579675604081262,0
3.22003173828125,-2.55192041397095,2.00413942337036,2.4933967590332,-2.28102768446584,1.98435389234802,2.55492188728337,1254.644,1271.376,3075.518,3086.753,-0.03905206,0.04607237,0.03731712,-0.914861798286438,-0.38296240568161,0.616528749465942,-0.927178570605173,-0.398939036560826,0.573967702844936,0
3.239990234375,-2.57003808021545,1.99656128883362,2.50563073158264,-2.2994392795179,1.97643189735754,2.5663195416865,1271.422,1270.417,3071.074,3064.548,-0.0373226,0.0465696,0.03578171,-0.905870914459229,-0.378901481628418,0.611697018146515,-0.917774783907129,-0.394892849856044,0.568146310914365,0
3.260009765625,-2.58797168731689,1.9890661239624,2.51776933670044,-2.31771654397337,1.96856770107001,2.57763403905129,1248.171,1268.973,3075.286,3073.202,-0.03565653,0.04703426,0.03434338,-0.896665334701538,-0.374751657247543,0.606925129890442,-0.908134108040216,-0.390744736359816,0.562178273303667,0
3.280029296875,-2.60571622848511,1.98165607452393,2.52980017662048,-2.33579875395963,1.96078743127139,2.58882778840789,1256.406,1264.854,3062.524,3068.774,-0.03392068,0.04752031,0.03284544,-0.887243807315826,-0.370503008365631,0.6015465259552,-0.898289055119065,-0.386508685126782,0.556083716560567,0
3.29998779296875,-2.62326884269714,1.97433316707611,2.54172492027283,-2.35362764460945,1.95311615770631,2.59986472102797,1273.491,1263.978,3057.209,3047.476,-0.03219655,0.04801733,0.03128736,-0.877626240253448,-0.366159319877625,0.596242666244507,-0.888274735793772,-0.382199803288803,0.549884375850026,0
3.32000732421875,-2.640625,1.96709823608398,2.55354571342468,-2.37130830610839,1.94550866300381,2.61080989274252,1246.491,1262.555,3061.739,3059.627,-0.03057842,0.04847195,0.02984481,-0.867806196212769,-0.361736685037613,0.59104061126709,-0.878034183119985,-0.377793579561194,0.543544985919778,0
3.34002685546875,-2.65778064727783,1.95995378494263,2.56525111198425,-2.3887820321449,1.9379902068497,2.62162696154813,1251.081,1258.13,3051.017,3056.839,-0.0288905,0.04894354,0.02834414,-0.857791543006897,-0.357233941555023,0.585271120071411,-0.867602121152829,-0.373304954734798,0.537087042614081,0
3.3599853515625,-2.67473268508911,1.95290064811707,2.57684206962585,-2.40599272667425,1.93058492580486,2.63228120132087,1267.323,1257.37,3045.939,3035.609,-0.02718661,0.04942867,0.02677407,-0.847595274448395,-0.352652132511139,0.579542696475983,-0.857015715678588,-0.368749920209162,0.530533553325099,0
3.3800048828125,-2.69147682189941,1.94594049453735,2.58831977844238,-2.42304196557559,1.92324911460621,2.64283549236868,1244.063,1256.517,3048.935,3044.933,-0.02556528,0.04987748,0.02530411,-0.837207734584808,-0.348001390695572,0.573881387710571,-0.846214826007803,-0.364102599125748,0.523847288101157,0
3.4000244140625,-2.70800948143005,1.93907499313354,2.5996732711792,-2.43987318937177,1.91600710921667,2.65325482168089,1250.306,1252.41,3037.613,3041.076,-0.02388429,0.0503412,0.02378055,-0.82663768529892,-0.343279719352722,0.567673146724701,-0.835236272052476,-0.359378834064062,0.51705104022176,0
3.41998291015625,-2.7243275642395,1.93230509757996,2.61090397834778,-2.45643259034873,1.90888206159239,2.66350587971929,1265.654,1251.745,3032.812,3020.598,-0.02220863,0.05081272,0.02220196,-0.815895974636078,-0.338488936424255,0.561533808708191,-0.824119146742881,-0.354595445619869,0.510169010073001,0
3.44000244140625,-2.74042677879333,1.92563247680664,2.62201333045959,-2.47281804716281,1.90183185728196,2.67364925803476,1241.276,1251.037,3035.847,3030.933,-0.02063098,0.05124462,0.02073274,-0.804976224899292,-0.333640336990356,0.555467426776886,-0.812800388649434,-0.349725300221754,0.503162159625937,0
3.46002197265625,-2.75630474090576,1.91905760765076,2.63299083709717,-2.48897526921199,1.89487985601472,2.68365134815842,1246.412,1246.782,3025.437,3027.447,-0.01899366,0.05168874,0.01921586,-0.793893218040466,-0.328735619783401,0.548874139785767,-0.801318788528228,-0.344785088448372,0.496054502206447,0
3.47998046875,-2.7719578742981,1.91258215904236,2.64383769035339,-2.50485284867397,1.88804817714046,2.69348032619939,1261.296,1246.159,3020.914,3007.088,-0.01735263,0.0521394,0.01764866,-0.782654345035553,-0.323774486780167,0.542344450950623,-0.789715229532172,-0.33979240117828,0.488871346433721,0
3.5,-2.78738284111023,1.90620672702789,2.65455484390259,-2.5205447997813,1.88129636896134,2.70319439144611,1238.445,1245.71,3022.756,3016.948,-0.0158048,0.05255171,0.01618927,-0.771252930164337,-0.318764805793762,0.535862982273102,-0.777924000354857,-0.334718964672089,0.481572013878822,0
3.52001953125,-2.80257701873779,1.89993286132813,2.66513276100159,-2.53599921507943,1.87464676580493,2.71276141071155,1244.064,1241.538,3012.711,3012.856,-0.01420157,0.05297399,0.01468676,-0.759707391262054,-0.313709527254105,0.528894245624542,-0.765985728654519,-0.329582259876133,0.474181654997567,0
3.53997802734375,-2.81753730773926,1.89376056194305,2.67557263374329,-2.55116718971613,1.86812041006291,2.72215110956251,1257.482,1241.018,3008.148,2994.08,-0.01260474,0.05339935,0.01314323,-0.748021602630615,-0.30860760807991,0.521992266178131,-0.753942941956194,-0.324400585196356,0.466726596353819,0
3.55999755859375,-2.83226132392883,1.88769125938416,2.68587565422058,-2.56613872308604,1.86167857751006,2.73141920191151,1235.414,1240.758,3009.873,3003.298,-0.01110006,0.05378756,0.01170508,-0.73619133234024,-0.303466737270355,0.515147030353546,-0.741727567798258,-0.319144650954242,0.459164697851087,0
3.58001708984375,-2.84674572944641,1.88172554969788,2.69603228569031,-2.58086439685043,1.85534253147694,2.74053509545279,1240.059,1236.698,3000.366,2999.771,-0.009544237,0.05418376,0.01022975,-0.724237203598022,-0.298291444778442,0.507837057113647,-0.729381927869994,-0.313832666990361,0.451522158631107,0
3.60003662109375,-2.86098909378052,1.8758636713028,2.70604419708252,-2.59534166117872,1.84911336908442,2.74949721171974,1253.529,1236.207,2995.993,2980.911,-0.007989483,0.05458282,0.008716213,-0.712160289287567,-0.293079525232315,0.500593304634094,-0.716911837553691,-0.308467135501249,0.443802578692534,0
3.6199951171875,-2.8749885559082,1.8701069355011,2.7159104347229,-2.60952509409627,1.84301063413925,2.75827743234631,1240.253,1236.189,2993.14,2986.233,-0.00654818,0.05495016,0.007288272,-0.699955701828003,-0.287835896015167,0.493309497833252,-0.704361775018033,-0.303067194200314,0.436033492140578,0
3.6400146484375,-2.88874101638794,1.86445546150208,2.72562980651855,-2.62349913748426,1.83699799365897,2.76692803087948,1227.862,1233.143,2994.909,2988.065,-0.005089301,0.05530283,0.005897566,-0.687649130821228,-0.282573878765106,0.485962986946106,-0.691660998977508,-0.297602405088683,0.428171106749629,0
3.6600341796875,-2.90224599838257,1.85890972614288,2.73519396781921,-2.63721784221104,1.83109521827128,2.77542056261789,1238.442,1230.581,2983.967,2979.324,-0.003557983,0.05566789,0.00445733,-0.675245761871338,-0.277287006378174,0.478212386369705,-0.6788538526303,-0.292091847805727,0.42024287307172,0
3.67999267578125,-2.9155011177063,1.85347032546997,2.74460482597351,-2.65063849381582,1.82532068681534,2.78372858527554,1250.002,1230.589,2978.76,2963.418,-0.002058091,0.05602947,0.003003596,-0.662738144397736,-0.271969348192215,0.470542162656784,-0.665986083416798,-0.286555206197011,0.41227711095171,0
3.70001220703125,-2.92850351333618,1.84813785552979,2.75386357307434,-2.66384123964357,1.81963991412768,2.79190171387692,1229.846,1230.432,2979.515,2972.523,-0.0006700513,0.05635465,0.001656174,-0.650128781795502,-0.266628742218018,0.462940782308578,-0.65298533214413,-0.280961346123326,0.404229026602262,0
3.72003173828125,-2.94125247001648,1.84291219711304,2.76296329498291,-2.67678283166196,1.81407150862839,2.79991317582983,1232.428,1226.611,2972.177,2969.641,0.0007478021,0.0566823,0.0002865231,-0.637445032596588,-0.261275500059128,0.454980701208115,-0.639897267894093,-0.275329917714721,0.396126891360527,0
3.739990234375,-2.95374608039856,1.83779394626617,2.77190494537354,-2.68942333385363,1.80863265367006,2.80773824883709,1242.346,1226.207,2968.906,2953.693,0.002164069,0.05700993,-0.001105212,-0.624684154987335,-0.255907416343689,0.44708850979805,-0.62676873176137,-0.26968107538565,0.387999702095468,0
3.760009765625,-2.96598291397095,1.83278346061707,2.78068923950195,-2.70183851231475,1.80329074921818,2.81542383572149,1225.338,1226.338,2968.62,2960.532,0.003505271,0.0573082,-0.002402704,-0.611844658851624,-0.250527024269104,0.43921110033989,-0.613526094901139,-0.263983138701136,0.379801879044709,0
3.780029296875,-2.97796201705933,1.827880859375,2.78930902481079,-2.71398789452788,1.79806320946631,2.82294488206675,1231.001,1222.696,2960.628,2955.66,0.004883057,0.05761009,-0.003719903,-0.598950624465942,-0.245140478014946,0.430987685918808,-0.600216179640806,-0.2582562540006,0.371562407459372,0
3.79998779296875,-2.98968172073364,1.82308602333069,2.7977659702301,-2.72583438304408,1.79296599641037,2.83027842278479,1241.006,1222.355,2956.817,2940.773,0.006239783,0.05790821,-0.005044027,-0.585996508598328,-0.239743530750275,0.42284944653511,-0.586886736182787,-0.252520966862155,0.36331084698941,0
3.82000732421875,-3.00114154815674,1.81839919090271,2.8060610294342,-2.73744929742843,1.78796842323393,2.8374686080838,1223.69,1222.452,2956.634,2948.458,0.007501637,0.0581749,-0.006267483,-0.572984635829926,-0.234340250492096,0.414756923913956,-0.573463232144022,-0.246745208083563,0.355001058539243,0
3.84002685546875,-3.01234006881714,1.81382036209106,2.81418824195862,-2.7487950044681,1.78308668245712,2.84449214121233,1226.827,1218.856,2949.976,2945.189,0.008789633,0.058442,-0.007502125,-0.559942841529846,-0.228939920663834,0.406365096569061,-0.559993461530387,-0.240949542090342,0.346662628875244,0
3.8599853515625,-3.023277759552,1.80934929847717,2.8221492767334,-2.75983729406747,1.77833549372837,2.85132784449154,1235.834,1218.472,2946.566,2931.21,0.01006771,0.05870665,-0.008745821,-0.546865344047546,-0.223538607358932,0.398047000169754,-0.546525890176286,-0.235154822377061,0.338325560657667,0
3.8800048828125,-3.03395223617554,1.80498647689819,2.8299446105957,-2.77064299647982,1.77368610185671,2.85801708903178,1220.998,1218.7,2945.764,2937.377,0.01126546,0.05894427,-0.009899503,-0.533753275871277,-0.218138247728348,0.389763236045837,-0.532985466132484,-0.229328756186666,0.329943393154704,0
3.9000244140625,-3.0443651676178,1.80073165893555,2.83756875991821,-2.78117737042527,1.76915345504432,2.86453836832583,1225.258,1215.402,2939.183,2933.307,0.01248356,0.05918261,-0.01106224,-0.520631849765778,-0.212747126817703,0.381213277578354,-0.51942076458699,-0.223492244065531,0.321546196721701,0
3.91998291015625,-3.05451488494873,1.79658436775208,2.84502387046814,-2.79140913007042,1.76475101471128,2.87087231495249,1233.258,1215.114,2935.987,2920.634,0.01367784,0.05941639,-0.01222444,-0.507494270801544,-0.207361415028572,0.372753322124481,-0.505880764601328,-0.217666360335509,0.313164291730931,0
