t,x_s1,x_s2,x_s3,x_s_d1,x_s_d2,x_s_d3,propellers_rpms1,propellers_rpms2,propellers_rpms3,propellers_rpms4,rollRad,pitchRad,yawRad,v_s1,v_s2,v_s3,v_s_d1,v_s_d2,v_s_d3,insideCount
0,-0.0599999986588955,2.94000005722046,1.17999994754791,-0.0599999986588955,2.94000005722046,1.17999994754791,0,0,0,0,0,0,0,0,0,0,-1.06581410364015E-15,4.44089209850063E-16,4.44089209850063E-16,0
0.02001953125,-0.0599999986588955,2.94000005722046,1.17811644077301,-0.0600018744611685,2.93999925011514,1.18000110875888,0,0,0,0,-0.01635288,0.0001297794,-0.01587137,-1.10653664009419E-09,-7.76775763711157E-08,-0.0941759571433067,-0.000280531511337879,-0.000120704872184653,0.000173662369087018,5
0.0400390625,-0.0599999986588955,2.94000005722046,1.17242503166199,-0.0600149148426039,2.93999363920332,1.18000918137618,0,0,0,0,-0.03270202,0.0005238493,-0.03175127,-1.08383135799528E-09,-7.60859677484405E-08,-0.284568399190903,-0.00111312228156621,-0.000478945420720547,0.000689075717656889,5
0.05999755859375,-0.0599058866500854,2.93990302085876,1.16596508026123,-0.0600498857373401,2.93997859220429,1.18003083002592,1868.301,3252.834,3183.797,1722.355,-0.04942241,0.0003296772,-0.01369504,0.00470565492287278,-0.00484918523579836,-0.322997570037842,-0.00247936261166862,-0.00106680046642749,0.00153484356504269,5
0.08001708984375,-0.059820368885994,2.93960738182068,1.1600034236908,-0.0601176241590912,2.9399494462538,1.18007276333581,1924.583,2314.076,3252.92,2829.839,-0.07542871,-0.002137986,0.0209508,0.00427583884447813,-0.0147792873904109,-0.29808521270752,-0.00437432711648753,-0.0018821507536715,0.00270791686320324,5
0.10003662109375,-0.0599374249577522,2.93904519081116,1.15498661994934,-0.0602284473618957,2.93990176212568,1.18014136817759,980.9556,1499.185,3913.938,3896.469,-0.1031884,-0.008062454,0.06330721,-0.00585273467004299,-0.0281149372458458,-0.250841677188873,-0.00678144526308166,-0.00291786644505504,0.00419803766288393,4
0.1199951171875,-0.0604638159275055,2.93818378448486,1.15081310272217,-0.0603918861403606,2.93983143898525,1.18024254456713,346.9911,980.4659,4172.419,4613.277,-0.1214306,-0.01541917,0.1039964,-0.0263195671141148,-0.043065033853054,-0.208677634596825,-0.00967801353495435,-0.00416417885169243,0.00599115140585487,4
0.1400146484375,-0.0615636371076107,2.93704152107239,1.14728331565857,-0.0606187761383957,2.93973381455767,1.18038300028418,351.9845,746.5021,3976.997,4854.877,-0.1253976,-0.0211668,0.1351026,-0.0549911186099052,-0.0571137107908726,-0.176491469144821,-0.0130687916036232,-0.00562313592726786,0.00809020455552005,4
0.1600341796875,-0.0633408054709435,2.93568134307861,1.14427530765533,-0.0609183061960198,2.93960493514178,1.18056842365845,821.3716,815.5779,3461.714,4692.259,-0.1184547,-0.02352317,0.1522665,-0.0888586342334747,-0.0680132806301117,-0.150400310754776,-0.0169327949449082,-0.00728570861726639,0.0104822066917805,3
0.1800537109375,-0.065846748650074,2.93417286872864,1.14182555675507,-0.061299822036312,2.93944077953402,1.18080460013771,1349.391,1083.808,3005.806,4255.126,-0.1079864,-0.02277748,0.1557732,-0.125297248363495,-0.075427271425724,-0.122488208115101,-0.0212572516776453,-0.00914640153802824,0.0131592514117867,3
0.20001220703125,-0.0690847784280777,2.9325544834137,1.14006197452545,-0.0617708265342762,2.93923811945689,1.181096174359,1636.473,1381.175,2918.727,3666.179,-0.09984617,-0.02029968,0.150152,-0.161901742219925,-0.0809136852622032,-0.0881784707307816,-0.0260142813927851,-0.0111932185284278,0.0161040794142088,3
0.22003173828125,-0.073010191321373,2.93082666397095,1.13903701305389,-0.0623430170958408,2.9389919218434,1.18145038757383,1639.625,1579.458,3151.106,3113.178,-0.09584983,-0.01735795,0.1421958,-0.19627071917057,-0.0863926857709885,-0.051250409334898,-0.0312204565115429,-0.0134332902383343,0.0193269498172333,3
0.24005126953125,-0.0775498449802399,2.92897391319275,1.1386342048645,-0.0630236859280799,2.93869904906057,1.18187175400574,1524.648,1624.756,3416.22,2777.734,-0.09475634,-0.01467934,0.1377452,-0.226982697844505,-0.0926316231489182,-0.020141264423728,-0.0368494599812529,-0.015855293175199,0.0228115711116047,3
0.260009765625,-0.082638680934906,2.92699265480042,1.13863599300385,-0.0638185570309634,2.93835703823113,1.18236381708338,1440.64,1501.437,3531.333,2744.038,-0.09439681,-0.0125877,0.1393094,-0.254442095756531,-0.0990604534745216,8.80956649780273E-05,-0.0428699302682246,-0.0184457333472145,0.0265385290140116,3
0.280029296875,-0.0882447361946106,2.92490077018738,1.1388533115387,-0.0647405670799769,2.93796032306502,1.18293458522515,1398.777,1274.594,3479.273,2978.302,-0.09321543,-0.01110964,0.1456956,-0.280302613973618,-0.104589365422726,0.0108642484992743,-0.0493064925116944,-0.0212152062638476,0.0305230676586995,3
0.300048828125,-0.0943705886602402,2.92273259162903,1.1392080783844,-0.065795319793345,2.93750649243883,1.18358752739957,1350.651,1062.043,3344.096,3325.204,-0.09053043,-0.009937319,0.1533179,-0.306293040513992,-0.108411505818367,0.0177357718348503,-0.0561292353135736,-0.0241508418861284,0.034746670465374,3
0.32000732421875,-0.101035982370377,2.92052578926086,1.13972580432892,-0.0669865614821475,2.93699393441958,1.18432496275165,1282.55,942.2106,3235.655,3589.826,-0.08598495,-0.008522648,0.1583555,-0.333270013332367,-0.110343895852566,0.0258892364799976,-0.0633036493784043,-0.0272377918282996,0.0391879745362408,3
0.34002685546875,-0.108251862227917,2.91831207275391,1.14046347141266,-0.068328931055223,2.93641635029375,1.18515595346331,1251.276,942.8465,3174.35,3649.763,-0.07944902,-0.006294648,0.1584777,-0.360794186592102,-0.110685646533966,0.0368811525404453,-0.0708617428582823,-0.0304898283040037,0.0438667944422071,4
0.36004638671875,-0.116003513336182,2.91611480712891,1.1414543390274,-0.0698261382244986,2.93577214387594,1.18608279602296,1319.866,1047.7,3119.445,3498.501,-0.07154263,-0.002963566,0.1534751,-0.387582391500473,-0.109865643084049,0.0495426803827286,-0.078770346351984,-0.03389267944654,0.0487625967438377,4
0.3800048828125,-0.124251917004585,2.91394948959351,1.14270877838135,-0.0714797725314022,2.93506063123087,1.18710647443246,1457.791,1182.888,3088.407,3230.189,-0.06362132,0.001261616,0.1450318,-0.412420809268951,-0.108260214328766,0.062723770737648,-0.0869921272359981,-0.0374302820709642,0.0538522707687797,4
0.4000244140625,-0.132943987846375,2.91182613372803,1.14421951770782,-0.0733065984369745,2.93427459907931,1.1882373666918,1576.995,1272.044,3108.634,2982.179,-0.05702627,0.005822756,0.1357539,-0.434603780508041,-0.106171786785126,0.0755364969372749,-0.0955658248284375,-0.0411193046236092,0.0591597980003546,4
0.4200439453125,-0.142024457454681,2.90974998474121,1.14595973491669,-0.0753082460412495,2.93341334603475,1.18947648191054,1630.881,1288.754,3157.744,2845.999,-0.05243764,0.01017276,0.1278666,-0.454023987054825,-0.103810884058475,0.0870103985071182,-0.104455339138072,-0.0449442142867657,0.0646628308243098,4
0.44000244140625,-0.151446968317032,2.90772414207458,1.14789700508118,-0.077483988232608,2.93247718495301,1.19082336997196,1610.096,1239.311,3216.789,2841.324,-0.04966316,0.01397742,0.1224579,-0.471126109361649,-0.101295456290245,0.0968622341752052,-0.113620829717891,-0.048887868829098,0.0703367061060819,4
0.46002197265625,-0.16117799282074,2.90575122833252,1.14999961853027,-0.0798530997696509,2.93145782244394,1.19228996286983,1538.306,1156.734,3256.762,2939.059,-0.04789376,0.01718142,0.11935,-0.486551582813263,-0.0986459627747536,0.105130165815353,-0.123107133063502,-0.0529695601420796,0.0762091797723108,4
0.48004150390625,-0.171194985508919,2.90383553504944,1.15224123001099,-0.0824149649110475,2.93035552344382,1.19387587943091,1473.927,1086.357,3246.774,3068.365,-0.04628308,0.01998424,0.1173863,-0.500849664211273,-0.0957868844270706,0.112083129584789,-0.132875537077637,-0.0571726314917467,0.0822562871906744,5
0.5,-0.181482568383217,2.90198254585266,1.15461730957031,-0.085166398670376,2.92917165836334,1.1955791479969,1435.823,1047.685,3213.619,3167.188,-0.04433577,0.02264793,0.1152129,-0.514379620552063,-0.0926438868045807,0.118801578879356,-0.142884000065179,-0.0614789935111996,0.0884520025491718,5
0.52001953125,-0.192026138305664,2.90019798278809,1.15713775157928,-0.0881295333471192,2.92789670429234,1.19741346951549,1419.863,1043.611,3181.925,3211.21,-0.04192615,0.02537486,0.1118924,-0.527178108692169,-0.0892339497804642,0.126025095582008,-0.153182839569029,-0.0659102964334391,0.0948274748038155,5
0.5400390625,-0.202806577086449,2.89848494529724,1.15981233119965,-0.0913013599695072,2.9265319559073,1.1993769812898,1444.976,1073.478,3147.153,3186.416,-0.03928642,0.02828634,0.1070572,-0.539022207260132,-0.0856481045484543,0.13373139500618,-0.163731040940689,-0.0704488928010329,0.101357313933386,5
0.55999755859375,-0.213800013065338,2.89684414863586,1.16265463829041,-0.094676112580471,2.92507989413848,1.20146611391775,1489.304,1115.309,3135.669,3110.867,-0.03688478,0.03133313,0.1010446,-0.549671947956085,-0.0820362418889999,0.142114907503128,-0.17448465888317,-0.0750758741803766,0.108014315705644,5
0.58001708984375,-0.224978625774384,2.89527249336243,1.16567146778107,-0.0982790918331175,2.92352963282165,1.20369652970884,1516.494,1147.39,3150.621,3036.272,-0.03513668,0.03434081,0.09466386,-0.558931112289429,-0.0785821154713631,0.150839358568192,-0.185498893714783,-0.0798149917263209,0.114832651747179,5
0.60003662109375,-0.236313462257385,2.89376401901245,1.16885423660278,-0.102104766440831,2.92188355191493,1.20606480453317,1539.511,1166.929,3161.542,2981.667,-0.034285,0.03715757,0.08862768,-0.566741704940796,-0.0754274651408195,0.159141421318054,-0.196730728861449,-0.0846477366087834,0.121785692749472,5
0.6199951171875,-0.247778952121735,2.89231061935425,1.17219650745392,-0.106144683970236,2.92014528826426,1.20856570593183,1541.036,1168.611,3179.096,2959.851,-0.03441497,0.03963824,0.08344214,-0.573274433612823,-0.0726691484451294,0.167113110423088,-0.208134604141382,-0.0895545055543457,0.128845234789665,5
0.6400146484375,-0.259354501962662,2.89090299606323,1.17569088935852,-0.110427588881679,2.91830247393137,1.21121702809507,1501.333,1155.249,3199.729,2988.777,-0.03535506,0.04169348,0.07930601,-0.578778684139252,-0.070385180413723,0.174716651439667,-0.21977002223474,-0.0945609009039674,0.136048112861281,5
0.6600341796875,-0.271024435758591,2.8895308971405,1.179323554039,-0.114945316258235,2.91635862205193,1.21401371655035,1465.634,1144.141,3195.667,3034.091,-0.03677453,0.04338216,0.07591519,-0.583496749401093,-0.0686030164361,0.181634470820427,-0.231592256338351,-0.0996476779637659,0.143366638942526,5
0.6800537109375,-0.282777577638626,2.88818430900574,1.18309187889099,-0.119701505244841,2.91431216680354,1.21695802410176,1436.51,1140.908,3187.615,3069.947,-0.03843634,0.04478434,0.07286282,-0.587657749652863,-0.067327655851841,0.188418656587601,-0.243591252020807,-0.104810510592794,0.150794588861397,5
0.70001220703125,-0.294604748487473,2.88685274124146,1.18699502944946,-0.124683985757554,2.91216834463331,1.22004241688759,1404.223,1146.545,3177.724,3101.99,-0.04021107,0.0459676,0.069849,-0.591358959674835,-0.0665766149759293,0.195157498121262,-0.255719729227087,-0.11002905550423,0.158302694011575,5
0.72003173828125,-0.306497395038605,2.88552522659302,1.19103395938873,-0.129926464684368,2.909912652409,1.2232877610772,1384.324,1161.471,3169.885,3110.857,-0.0419826,0.04700658,0.06666093,-0.594633042812347,-0.0663741081953049,0.201948270201683,-0.268042056234039,-0.115331008569357,0.165930801422716,5
0.74005126953125,-0.318446129560471,2.88419055938721,1.19520354270935,-0.135417121205077,2.90755017629933,1.22668673901976,1392.632,1184.817,3150.839,3095.906,-0.04383244,0.04794558,0.06324321,-0.597435593605042,-0.0667292922735214,0.208478033542633,-0.280511663843695,-0.120696332363285,0.173650082542878,5
0.760009765625,-0.33044159412384,2.88283705711365,1.19950723648071,-0.141140917956636,2.9050873864615,1.23023004187122,1402.842,1208.817,3145.609,3067.457,-0.0459848,0.04874149,0.05979832,-0.599773645401001,-0.0676757767796516,0.215184792876244,-0.293080296154222,-0.126104263719567,0.181430664670081,5
0.780029296875,-0.34247487783432,2.88145160675049,1.20394682884216,-0.147135516931739,2.90250807799222,1.23394098419916,1380.601,1225.87,3155.441,3062.456,-0.04855688,0.04930978,0.05667508,-0.601666152477264,-0.0692701861262321,0.221979469060898,-0.305815338775367,-0.131583796783543,0.189314262706778,5
0.800048828125,-0.354538261890411,2.8800208568573,1.20851230621338,-0.153386270014236,2.89981855356665,1.23781049812189,1371.679,1240.11,3152.013,3058.877,-0.05147944,0.0496528,0.05395855,-0.603170096874237,-0.0715329721570015,0.228273019194603,-0.318669158271032,-0.137114436218383,0.197271389286931,5
0.82000732421875,-0.366626620292664,2.87853121757507,1.21320164203644,-0.159875221826383,2.89702653888221,1.24182746840525,1361.017,1251.884,3153.889,3055.431,-0.05474287,0.04974448,0.05174033,-0.604417502880096,-0.0744783282279968,0.234467908740044,-0.331592781842754,-0.14267511039705,0.205271727915392,4
0.84002685546875,-0.378737062215805,2.87696886062622,1.21801245212555,-0.166644154783139,2.89411405613301,1.24601776035448,1318.511,1259.247,3161.159,3081.459,-0.05827103,0.0495519,0.05011759,-0.605521142482758,-0.0781144127249718,0.240539595484734,-0.344656091553402,-0.148295887618918,0.213358538918022,4
0.86004638671875,-0.390868604183197,2.87532067298889,1.22293305397034,-0.173675537522933,2.89108864857417,1.25037052122162,1299.75,1268.682,3149.227,3100.134,-0.06186363,0.04914861,0.04887147,-0.606577515602112,-0.0824058726429939,0.246030285954475,-0.357810651658344,-0.153955927336209,0.221501838261579,4
0.8800048828125,-0.403022468090057,2.87357401847839,1.22796356678009,-0.180948461186242,2.88795931270381,1.25487280742661,1288.207,1281.953,3142.32,3105.252,-0.06549192,0.0485656,0.04788733,-0.607693791389465,-0.0873337462544441,0.251524031162262,-0.371007022483504,-0.159633957038354,0.229671020432672,4
0.9000244140625,-0.415200680494308,2.87171626091003,1.23310470581055,-0.188508963212068,2.88470623989808,1.25955311833725,1250.544,1294.864,3143.96,3127.996,-0.06913406,0.04779939,0.04719744,-0.608911752700806,-0.092884436249733,0.257057279348373,-0.384317079523421,-0.165360902742685,0.237910579786325,4
0.9200439453125,-0.427405595779419,2.8697361946106,1.23834729194641,-0.196336588491207,2.881338231419,1.26439879126654,1244.56,1310.117,3130.277,3132.189,-0.07266542,0.04692877,0.04662871,-0.610245704650879,-0.0990061387419701,0.262130200862885,-0.397691837725364,-0.171115687549493,0.246190192241415,4
0.94000244140625,-0.439640402793884,2.86762261390686,1.24369323253632,-0.204407453948074,2.87786556348678,1.26939504145298,1246.939,1327.41,3125.249,3120.558,-0.07616481,0.0459578,0.04620801,-0.611739575862885,-0.1056804433465,0.267296731472015,-0.411081631631503,-0.176876941799768,0.254479112513653,4
0.96002197265625,-0.451908439397812,2.86536478996277,1.24914419651031,-0.21277195700315,2.87426655149935,1.27457306730061,1217.647,1340.822,3131.454,3133.008,-0.07969243,0.0448448,0.04612311,-0.613403737545013,-0.112891890108585,0.272548913955688,-0.424559845004915,-0.182676240476657,0.262822768648136,3
0.98004150390625,-0.46421355009079,2.86295318603516,1.25469064712524,-0.221406693208946,2.8705512657366,1.27991838034152,1215.458,1352.656,3122.579,3134.749,-0.08314176,0.04364064,0.04628767,-0.61525547504425,-0.120579235255718,0.277322471141815,-0.438077187556039,-0.188492375345573,0.271190647607604,3
1,-0.476560890674591,2.86037874221802,1.26033425331116,-0.230284798736574,2.86673126495361,1.28541435058594,1216.494,1364.543,3121.529,3128.17,-0.08656818,0.04233813,0.04674194,-0.617366909980774,-0.128723084926605,0.282180309295654,-0.451584000205995,-0.194303979492187,0.279552008056641,3
1.02001953125,-0.488956391811371,2.8576328754425,1.2660768032074,-0.239461107372567,2.86278295570393,1.29109492275982,1182.272,1372.236,3130.15,3150.615,-0.08997863,0.04090093,0.04762029,-0.619773328304291,-0.137299120426178,0.287124633789063,-0.465154707681581,-0.200143075797255,0.287952922446475,3
1.0400390625,-0.501406371593475,2.85470843315125,1.27190852165222,-0.248909254116304,2.85871768211076,1.29694377567184,1178.375,1379.343,3121.166,3160.468,-0.09320372,0.03940479,0.04873559,-0.622501134872437,-0.146227046847343,0.291587442159653,-0.478739949598525,-0.205988425866395,0.296362834347881,3
1.05999755859375,-0.513918697834015,2.85159873962402,1.27783203125,-0.258599401509697,2.85454828239877,1.30294243851408,1181.429,1388.418,3118.715,3157.969,-0.09627806,0.03786317,0.05004551,-0.625617623329163,-0.155479222536087,0.296178370714188,-0.492290296490434,-0.211818761581115,0.30475114456651,3
1.08001708984375,-0.526501357555389,2.84829831123352,1.28385090827942,-0.268590868588476,2.85024923324404,1.30912763259543,1151.621,1394.655,3126.703,3180.352,-0.09921979,0.03625223,0.05164393,-0.629132270812988,-0.165024504065514,0.300943791866302,-0.505880764601332,-0.21766636033551,0.313164291730931,3
1.10003662109375,-0.539162039756775,2.84480285644531,1.2899569272995,-0.278854332424133,2.84583315148354,1.31548120562628,1155.229,1401.047,3117.368,3186.335,-0.1018888,0.0346525,0.05333918,-0.633033454418182,-0.174772143363953,0.305301368236542,-0.519462149665191,-0.223510050908515,0.32157181605655,3
1.1199951171875,-0.551909267902374,2.84110879898071,1.29615437984467,-0.289357002179081,2.84131414609862,1.32198285851614,1166.391,1409.18,3115.923,3178.506,-0.1043666,0.03307009,0.0551204,-0.637362778186798,-0.184698522090912,0.309871852397919,-0.532985466132485,-0.229328756186667,0.329943393154705,3
1.1400146484375,-0.564751446247101,2.83721327781677,1.30244839191437,-0.300162704591434,2.83666475422696,1.32867210305637,1142.665,1413.419,3126.877,3196.612,-0.1067033,0.03146596,0.05712965,-0.642107844352722,-0.194778218865395,0.314703166484833,-0.54652589017629,-0.235154822377061,0.338325560657667,3
1.1600341796875,-0.577696323394775,2.83311486244202,1.30883181095123,-0.311239174734401,2.83189885856519,1.33552896572031,1151.151,1417.165,3120.174,3200.208,-0.1087779,0.02991008,0.05920905,-0.647239983081818,-0.204919770359993,0.319168359041214,-0.560034590932616,-0.240967238923098,0.346688089934489,3
1.1800537109375,-0.590752303600311,2.82881283760071,1.31530940532684,-0.322585703899652,2.82701676405071,1.34255300778374,1165.603,1421.892,3121.046,3192.381,-0.1106762,0.02839953,0.06136227,-0.652803480625153,-0.215105339884758,0.323878437280655,-0.573504231419809,-0.246762848926546,0.355026439044019,3
1.20001220703125,-0.603927910327911,2.82430672645569,1.32188487052917,-0.334165615614823,2.82203425154496,1.34972152476313,1154.186,1423.778,3127.783,3207.126,-0.1124834,0.02690017,0.06369793,-0.65878027677536,-0.225302740931511,0.328773885965347,-0.586886736182789,-0.252520966862155,0.363310846989412,3
1.22003173828125,-0.617231607437134,2.81959700584412,1.32856154441833,-0.346048739660615,2.8169212752441,1.35707774461917,1139.618,1421.576,3141.189,3221.23,-0.1140312,0.02543648,0.06616379,-0.665182411670685,-0.235487848520279,0.33383247256279,-0.600256853941591,-0.258273755015919,0.371587586789143,3
1.24005126953125,-0.630670845508575,2.8146858215332,1.33533203601837,-0.358198934240558,2.8116933859535,1.36459929385819,1158.475,1423.04,3131.543,3221.843,-0.1152701,0.02407204,0.06860637,-0.671964049339294,-0.245554998517036,0.338523834943771,-0.613566574519479,-0.264000555950038,0.379826937856772,2
1.260009765625,-0.644254207611084,2.8095760345459,1.34220290184021,-0.37057666480527,2.80636759428526,1.37226169871082,1177.516,1425.215,3131.14,3215.68,-0.1163578,0.02279125,0.0710347,-0.679166913032532,-0.255493342876434,0.343543767929077,-0.626768731761373,-0.26968107538565,0.387999702095469,2
1.280029296875,-0.657989680767059,2.80427002906799,1.34918308258057,-0.383256224448249,2.80091193399677,1.38011095014101,1156.568,1422.458,3147.604,3236.329,-0.1173351,0.02154633,0.07357527,-0.686772167682648,-0.265306085348129,0.349009722471237,-0.639937296597118,-0.275347140947359,0.39615167103453,2
1.300048828125,-0.671883940696716,2.79877185821533,1.35626709461212,-0.396198615290876,2.79534318478573,1.38812290660417,1168.098,1421.24,3144.459,3241.13,-0.1180569,0.02041474,0.07604501,-0.694713711738586,-0.27491220831871,0.35419887304306,-0.653025104588124,-0.280978459094862,0.404253647639717,2
1.32000732421875,-0.685944259166718,2.79308581352234,1.36346054077148,-0.409361504843077,2.78967956113998,1.39627136227237,1189.538,1421.617,3147.222,3231.196,-0.118597,0.01939666,0.07842797,-0.703020632266998,-0.284305393695831,0.359673202037811,-0.6659860834168,-0.286555206197011,0.41227711095171,2
1.34002685546875,-0.700177490711212,2.78721618652344,1.37077105045319,-0.422823591595166,2.78388720129772,1.40460503526004,1176.258,1417.447,3163.575,3246.002,-0.1190081,0.01843826,0.08087227,-0.711661815643311,-0.293484032154083,0.365527391433716,-0.67889305416841,-0.29210871513241,0.420267140691238,2
1.36004638671875,-0.714588820934296,2.78116893768311,1.37819266319275,-0.43654307799852,2.77798408957644,1.41309805089348,1193.694,1415.32,3158.278,3248.642,-0.1192068,0.01760221,0.08322454,-0.720564961433411,-0.302365779876709,0.37107989192009,-0.691699885659415,-0.297619136941538,0.428195179458157,2
1.3800048828125,-0.72918426990509,2.77494978904724,1.38573205471039,-0.450474904562636,2.77198961381608,1.4217225152016,1215.375,1414.013,3161.171,3240.569,-0.1193032,0.01687602,0.08547886,-0.729772984981537,-0.310958415269852,0.376970648765564,-0.704361775018035,-0.303067194200314,0.436033492140578,2
1.4000244140625,-0.74396938085556,2.76856422424316,1.39339816570282,-0.464702095472036,2.76586805102946,1.43052982410961,1198.519,1407.521,3180.597,3258.036,-0.1193213,0.01620353,0.0877744,-0.739259660243988,-0.319281369447708,0.383307039737701,-0.716950039288891,-0.308483572640673,0.443826227386424,2
1.4200439453125,-0.758948147296906,2.76201891899109,1.40118455886841,-0.479180120902936,2.75963856115575,1.43949241153533,1214.068,1404.317,3176.484,3261.654,-0.1191402,0.01565738,0.08993763,-0.748938381671906,-0.327261000871658,0.389322370290756,-0.729419759131232,-0.313848944725189,0.451545577983966,2
1.44000244140625,-0.774125158786774,2.75532078742981,1.40909719467163,-0.493861275572861,2.75332167044526,1.4485807456364,1238.077,1402.573,3178.709,3251.521,-0.1188558,0.0152305,0.09194909,-0.758847951889038,-0.334905356168747,0.395629853010178,-0.741727567798258,-0.319144650954242,0.459164697851088,2
1.46002197265625,-0.78950434923172,2.74847602844238,1.41714453697205,-0.50883280894277,2.74687983789241,1.45784883798541,1224.322,1395.655,3197.432,3266.357,-0.1185107,0.01486054,0.09395833,-0.768958568572998,-0.342239141464233,0.402365416288376,-0.753942941956197,-0.324400585196357,0.466726596353819,2
1.48004150390625,-0.805087864398956,2.74149203300476,1.42532002925873,-0.524047536755517,2.74033336556487,1.4672674792795,1241.123,1392.595,3192.359,3268.868,-0.1180121,0.01461348,0.09580804,-0.779175877571106,-0.349197804927826,0.408775389194489,-0.766022343765669,-0.329598014335553,0.474204321495588,2
1.5,-0.820878684520721,2.73437595367432,1.43362975120544,-0.539455198877605,2.73370387899399,1.4768055561018,1264.534,1390.542,3194.998,3258.32,-0.1174619,0.01447663,0.09748811,-0.789542198181152,-0.355800300836563,0.415486216545105,-0.777924000354858,-0.334718964672088,0.481572013878822,1
1.52001953125,-0.836879312992096,2.72713422775269,1.44208216667175,-0.555147149984933,2.72695207081487,1.48651962134853,1249.437,1382.832,3215.266,3272.462,-0.1168851,0.01438569,0.09915543,-0.800027787685394,-0.362083524465561,0.422621488571167,-0.789715229532175,-0.33979240117828,0.488871346433721,1
1.5400390625,-0.853089809417725,2.7197744846344,1.45066964626312,-0.571073639140036,2.72009934746603,1.49637887681943,1265.74,1379.724,3209.778,3274.397,-0.1161809,0.01440725,0.100655,-0.810530424118042,-0.367988765239716,0.429376512765884,-0.801354035689029,-0.344800254316973,0.496076321878038,1
1.55999755859375,-0.869511842727661,2.71230363845825,1.45939743518829,-0.587181951496087,2.71316839067337,1.50635068951315,1289.831,1377.689,3211.353,3262.708,-0.1154528,0.01452821,0.1019753,-0.821098208427429,-0.373536616563797,0.436387181282043,-0.812800388649436,-0.349725300221754,0.503162159625937,1
1.58001708984375,-0.886145889759064,2.70472812652588,1.46827352046967,-0.603567408310176,2.70611818636293,1.51649406782863,1274.136,1369.702,3231.452,3276.351,-0.114729,0.01467945,0.1032795,-0.831707060337067,-0.378771930932999,0.443805515766144,-0.824119146742882,-0.35459544561987,0.510169010073001,0
1.60003662109375,-0.902990996837616,2.69705533981323,1.47728967666626,-0.620177789093064,2.69897120355237,1.5267766847954,1288.943,1366.837,3225.165,3278.623,-0.1139119,0.01492786,0.1044133,-0.842252552509308,-0.383644104003906,0.450809836387634,-0.835270008391827,-0.359393349868401,0.517071924622902,0
1.6199951171875,-0.920046746730804,2.68929171562195,1.48645055294037,-0.636958033083316,2.69175113334911,1.53716445517924,1311.848,1365.035,3226.265,3266.542,-0.1130954,0.01526116,0.1053605,-0.852787554264069,-0.388178378343582,0.458041876554489,-0.846214826007804,-0.364102599125749,0.523847288101157,0
1.6400146484375,-0.937312543392181,2.6814432144165,1.49576354026794,-0.654007271984653,2.68441532215046,1.54771874622704,1295.017,1357.198,3246.288,3279.333,-0.1123012,0.01561004,0.1062873,-0.863289833068848,-0.392425417900085,0.465651750564575,-0.857015715678588,-0.368749920209162,0.530533553325099,0
1.6600341796875,-0.954785525798798,2.67351651191711,1.50521945953369,-0.671270921724395,2.67698725595799,1.55840576779763,1309.116,1355.001,3238.736,3280.956,-0.1114331,0.0160418,0.1070419,-0.873651564121246,-0.396338999271393,0.472793698310852,-0.86763421272879,-0.373318762843399,0.537106908828335,0
1.6800537109375,-0.972464263439178,2.66551756858826,1.51482200622559,-0.688745284465827,2.66946852584753,1.56922323075391,1331.76,1353.812,3238.83,3267.647,-0.1105878,0.01654314,0.1076105,-0.883931398391724,-0.399946212768555,0.480129361152649,-0.878065697626514,-0.377807139372939,0.543564494900563,0
1.70001220703125,-0.990346133708954,2.65745186805725,1.52457547187805,-0.706372354049449,2.66188409024902,1.58013522651994,1325.08,1349.416,3249.069,3275.367,-0.1098565,0.01705263,0.1081328,-0.894095003604889,-0.403286755084991,0.487670689821243,-0.888274735793774,-0.382199803288802,0.549884375850026,0
1.72003173828125,-1.0084285736084,2.6493239402771,1.53448176383972,-0.72425607283747,2.65418922566779,1.59120610036939,1310.19,1341.124,3267.295,3284.235,-0.1090463,0.0175801,0.1086057,-0.904126346111298,-0.406399309635162,0.49531614780426,-0.898319376918855,-0.386521731750138,0.556102487199065,0
1.74005126953125,-1.02670705318451,2.6411395072937,1.54452848434448,-0.742338883699245,2.64640869732922,1.60240022169657,1333.835,1341.492,3251.842,3279.07,-0.1081318,0.01818953,0.108878,-0.913924872875214,-0.409216791391373,0.502336025238037,-0.908163813044036,-0.390757517593098,0.562196662116077,0
1.760009765625,-1.0451785326004,2.63290405273438,1.55472004413605,-0.760560719141003,2.63856835059778,1.61368040586141,1357.658,1341.96,3248.113,3265.051,-0.107311,0.01884132,0.1089768,-0.923568487167358,-0.411767661571503,0.509576678276062,-0.91777478390713,-0.394892849856044,0.568146310914365,0
1.780029296875,-1.06383955478668,2.62462139129639,1.56506478786469,-0.7790289055498,2.63062200592748,1.62511309301018,1331.804,1334.737,3269.558,3280.654,-0.1066079,0.01945524,0.1090931,-0.933050692081451,-0.414129048585892,0.517236053943634,-0.927207006545171,-0.398951271751399,0.573985306046387,0
1.800048828125,-1.08268475532532,2.61629581451416,1.57555150985718,-0.797683800882025,2.62259532562346,1.63666136187673,1337.965,1333.523,3262.719,3283.442,-0.1058591,0.02011235,0.1090605,-0.942259192466736,-0.416273564100266,0.52433854341507,-0.936426808583846,-0.402918294997191,0.579692802708405,0
1.82000732421875,-1.10170984268188,2.60793137550354,1.58618140220642,-0.816463410111527,2.61451498441355,1.64828683458664,1359.308,1333.972,3261.127,3266.432,-0.1051224,0.02081135,0.1088533,-0.951254546642303,-0.418222784996033,0.531494319438934,-0.94540321420156,-0.406780591562751,0.585249625391268,0
1.84002685546875,-1.12091028690338,2.59953093528748,1.59695875644684,-0.835478236913388,2.60633343565348,1.6600579181788,1340.779,1328.373,3277.416,3275.916,-0.104438,0.02147618,0.1086647,-0.960025072097778,-0.4200239777565,0.538870275020599,-0.954187384555097,-0.410560174664568,0.59068744528817,0
1.86004638671875,-1.14027976989746,2.59109830856323,1.60787129402161,-0.854666685898453,2.59807718211841,1.67193648217314,1352.116,1328.607,3264.759,3276.743,-0.1037376,0.02216879,0.108352,-0.968476891517639,-0.421636641025543,0.54562908411026,-0.962747895957761,-0.414243523568132,0.595986809640129,0
1.8800048828125,-1.15981364250183,2.58263635635376,1.6189216375351,-0.873964974649439,2.58977366760063,1.68388304221498,1369.697,1329.333,3262.615,3262.705,-0.1031208,0.02287393,0.1079037,-0.976694464683533,-0.423093676567078,0.552520036697388,-0.971056158224177,-0.417818336715394,0.601130019760457,0
1.9000244140625,-1.17950701713562,2.57414722442627,1.63011527061462,-0.893486564535158,2.58137407284289,1.69596783629653,1342.442,1323.472,3281.76,3276.427,-0.1025844,0.02352064,0.1075033,-0.98467230796814,-0.424459010362625,0.559680283069611,-0.979159571260204,-0.421305008961645,0.606146418448853,0
1.9200439453125,-1.19935321807861,2.56563329696655,1.64143824577332,-0.91316804490645,2.57290568167603,1.70815161020529,1350.029,1324.01,3269.746,3277.661,-0.1019921,0.02419028,0.1069793,-0.992308437824249,-0.425692498683929,0.566148221492767,-0.987029064241808,-0.424691031943447,0.611018009480403,0
1.94000244140625,-1.21934700012207,2.5570969581604,1.65289127826691,-0.932943991899774,2.5643966441608,1.72039386345315,1370.473,1325.988,3265.24,3259.934,-0.1014361,0.02487514,0.1063097,-0.999682307243347,-0.426813274621964,0.572654783725739,-0.994638524886308,-0.427965170275055,0.615728628108227,0
1.96002197265625,-1.23948276042938,2.54853940010071,1.66447901725769,-0.952930593197372,2.55579696798345,1.73276652175022,1345.568,1321.614,3281.266,3271.647,-0.1009588,0.02549664,0.1056969,-1.00679087638855,-0.427874803543091,0.579385757446289,-1.00203140433628,-0.431146119769234,0.620305172659443,0
1.98004150390625,-1.25975346565247,2.53996253013611,1.67618763446808,-0.973062766957995,2.54713465604207,1.74522929633648,1352.462,1322.863,3268.04,3272.976,-0.1004518,0.02612783,0.1049822,-1.01354253292084,-0.428838729858398,0.585432291030884,-1.00918107987623,-0.434222425415264,0.624731162404951,0
2,-1.28015387058258,2.53136801719666,1.68801844120026,-0.993273599084619,2.53843849960327,1.7577407641983,1369.618,1325.077,3264.331,3256.19,-0.0999985,0.02676066,0.1041479,-1.02002215385437,-0.429730027914047,0.591537892818451,-1.01606400046349,-0.437183953857422,0.628992018127441,0
2.02001953125,-1.30067849159241,2.52275586128235,1.69997525215149,-1.01368176147806,2.52965743746343,1.77037438889544,1341.385,1321.039,3280.858,3268.797,-0.0996166,0.02732084,0.1033929,-1.02622628211975,-0.430602192878723,0.597842574119568,-1.0227194988233,-0.440047628868552,0.633112088657522,0
2.0400390625,-1.32131969928741,2.51412773132324,1.71204328536987,-1.03422065061955,2.52082012725598,1.78308893967699,1348.076,1322.646,3266.726,3269.341,-0.09917931,0.02788839,0.1025477,-1.03206527233124,-0.431410640478134,0.603403747081757,-1.02912348666547,-0.442803085930327,0.637076462196067,0
2.05999755859375,-1.34207224845886,2.50548434257507,1.72422301769257,-1.05482201812353,2.5119559343546,1.79584216754118,1366.309,1325.466,3261.352,3251.333,-0.09878144,0.02845501,0.1015947,-1.0376261472702,-0.432172834873199,0.608987987041473,-1.03525504859546,-0.445441325732794,0.640872191117535,0
2.08001708984375,-1.36293053627014,2.49682545661926,1.73651838302612,-1.07560676837143,2.50301283698163,1.80870891805959,1337.288,1322.097,3276.694,3264.236,-0.0984576,0.02894302,0.100739,-1.04291021823883,-0.432938665151596,0.614767551422119,-1.0411492471255,-0.447977434695423,0.644520980787238,0
2.10003662109375,-1.38388705253601,2.48815226554871,1.74891436100006,-1.09650693059248,2.49402008106085,1.82164711408721,1342.276,1323.864,3262.259,3265.561,-0.09807836,0.02943316,0.09980783,-1.04783356189728,-0.433663666248322,0.619799792766571,-1.04678460577819,-0.450402172089984,0.648009536242619,0
2.1199951171875,-1.40493679046631,2.47946500778198,1.76141142845154,-1.11745308225396,2.48500753716864,1.83461377976925,1359.327,1326.911,3256.927,3247.372,-0.09772576,0.02992,0.09877861,-1.05248332023621,-0.434364676475525,0.624850749969482,-1.0521429102862,-0.45270770082608,0.651326581984514,0
2.1400146484375,-1.42607390880585,2.47076320648193,1.77401292324066,-1.13856809990831,2.47592233495728,1.84768498154507,1329.351,1324.086,3271.653,3260.237,-0.09743334,0.03032881,0.09785668,-1.05685889720917,-0.435087025165558,0.630075097084045,-1.05725481901126,-0.454907212340279,0.654491096999312,0
2.1600341796875,-1.44729149341583,2.4620475769043,1.78670346736908,-1.15978280433347,2.46679424031336,1.86081789418076,1334.781,1326.083,3256.345,3260.831,-0.09706903,0.03074135,0.09686612,-1.06087923049927,-0.435781359672546,0.634525775909424,-1.06210153574728,-0.456992619150195,0.65749144554004,0
2.1800537109375,-1.46858417987823,2.45331835746765,1.79948329925537,-1.18109186728921,2.45762554582981,1.8740092192418,1352.149,1329.369,3250.455,3241.883,-0.09672281,0.03115091,0.09578791,-1.06463229656219,-0.436461806297302,0.638993203639984,-1.0666811584121,-0.458963102843021,0.660326450127245,0
2.20001220703125,-1.48994636535645,2.44457530975342,1.81235265731812,-1.20242455577657,2.44844668594002,1.88721516963236,1334.224,1329.711,3254.62,3250.047,-0.09650443,0.03149304,0.09479231,-1.06810164451599,-0.437155485153198,0.643467009067535,-1.07097916161324,-0.460812413548163,0.662987118851036,0
2.22003173828125,-1.51137220859528,2.43581748008728,1.82530975341797,-1.22390595867498,2.43920383839376,1.9005131813276,1308.854,1325.807,3267.3,3258.629,-0.09619018,0.03178959,0.09386198,-1.07130122184753,-0.437889069318771,0.647853136062622,-1.0750201524698,-0.462551139021528,0.665488684690339,0
2.24005126953125,-1.53285539150238,2.42704582214355,1.83833718299866,-1.24546553876841,2.42992735338449,1.91385958843066,1326.65,1329.36,3245.367,3251.12,-0.0957268,0.03211566,0.09282677,-1.07415759563446,-0.438583225011826,0.651373386383057,-1.07878900047211,-0.464172769027497,0.667821781138895,0
2.260009765625,-1.55439066886902,2.4182608127594,1.85143673419952,-1.26703177594152,2.42064800401982,1.92721011658316,1346.472,1333.511,3236.393,3232.035,-0.09531773,0.0324358,0.09171889,-1.07676196098328,-0.43924754858017,0.654977560043335,-1.08227399942825,-0.465672266718726,0.669979161506271,0
2.280029296875,-1.57597303390503,2.40946197509766,1.8646137714386,-1.28873109644562,2.41131139261574,1.94064302965718,1309.864,1331.016,3251.873,3249.335,-0.09501466,0.0326688,0.09075636,-1.07912027835846,-0.439936727285385,0.658852577209473,-1.08549510920706,-0.467058220269158,0.671973181902092,0
2.300048828125,-1.59759616851807,2.40064978599548,1.87785315513611,-1.31049213921077,2.40194822384705,1.95411415175103,1309.814,1332.102,3239.319,3251.687,-0.09461572,0.03290994,0.08973904,-1.08115684986115,-0.440608263015747,0.661971569061279,-1.08844000459651,-0.468325326484384,0.673796212432981,0
2.32000732421875,-1.61925494670868,2.39182448387146,1.89115417003632,-1.33224276726637,2.39258953623693,1.96757882664355,1327.775,1335.209,3233.708,3230.118,-0.09416831,0.03316427,0.08863416,-1.0829461812973,-0.441268146038055,0.665050685405731,-1.09109983431736,-0.469469776906228,0.675442773735451,0
2.34002685546875,-1.64094460010529,2.38298559188843,1.90451884269714,-1.35411046309062,2.38318047763645,1.98111597206157,1300.169,1333.515,3244.869,3240.925,-0.09373688,0.03335613,0.08765893,-1.08448171615601,-0.441940158605576,0.668231546878815,-1.09348983658457,-0.470498128112872,0.676922298990446,0
2.36004638671875,-1.66265869140625,2.37413430213928,1.91793143749237,-1.37602321127603,2.37375203426358,1.99468100703729,1307.758,1334.904,3227.67,3240.208,-0.0932133,0.03356133,0.0866406,-1.08570003509521,-0.442564964294434,0.670630097389221,-1.09560053017526,-0.471406300598994,0.678228918869363,0
2.3800048828125,-1.68439245223999,2.36527109146118,1.93139314651489,-1.39790843013262,2.36433543599182,2.00822900004707,1324.014,1337.469,3221.626,3221.67,-0.09270091,0.03376842,0.08556585,-1.08668887615204,-0.443156361579895,0.673087000846863,-1.09742594550583,-0.472191725819537,0.679358937915576,0
2.4000244140625,-1.70614123344421,2.35639572143555,1.94490766525269,-1.41989437329222,2.3548754988664,2.02183934619858,1289.437,1334.926,3235.333,3237.322,-0.09223379,0.03390661,0.08463787,-1.08744704723358,-0.443751692771912,0.67572695016861,-1.09897654259203,-0.472858904427064,0.68031883137712,0
2.4200439453125,-1.7278995513916,2.34750986099243,1.95845913887024,-1.44190854257966,2.3454034168267,2.03546716566781,1293.89,1335.462,3220.179,3237.545,-0.09163564,0.03406718,0.08365306,-1.08790743350983,-0.444295138120651,0.677572846412659,-1.10024571396254,-0.473404993411248,0.681104508914477,0
2.44000244140625,-1.74966239929199,2.33861422538757,1.97204744815826,-1.46387808506052,2.33595053645515,2.04906735901791,1313.234,1338.077,3213.112,3216.12,-0.09099276,0.0342479,0.08258521,-1.0881450176239,-0.444790452718735,0.679415702819824,-1.10123038958312,-0.473828671822132,0.681714070030222,0
2.46002197265625,-1.77142560482025,2.32970905303955,1.98567569255829,-1.48593173759011,2.32646146587939,2.06271962049488,1283.357,1336.142,3224.246,3228.886,-0.09037757,0.03437298,0.08164904,-1.08815407752991,-0.445264428853989,0.681415140628815,-1.10193621258339,-0.474132367740737,0.682151008090402,0
2.48004150390625,-1.79318284988403,2.32079577445984,1.99932885169983,-1.50799669231329,2.31696753228548,2.07637887856809,1289.251,1336.455,3208.543,3228.554,-0.08965212,0.03452303,0.08065967,-1.08787357807159,-0.445662796497345,0.682658910751343,-1.10235947007672,-0.474314483615674,0.682413024641327,0
2.5,-1.81493055820465,2.31187582015991,2.0130078792572,-1.52999999932945,2.30750012397766,2.08999997377396,1306.933,1338.454,3202.727,3208.018,-0.08890165,0.03469197,0.07959903,-1.08737826347351,-0.445995986461639,0.683947920799255,-1.10250000050292,-0.474374949932098,0.682500019669533,0
2.52001953125,-1.83666372299194,2.30294990539551,2.02671575546265,-1.55207058900185,2.29800376582252,2.10366272014916,1274.999,1335.998,3214.763,3221.983,-0.08818046,0.03480809,0.07867683,-1.08666038513184,-0.446292608976364,0.685396671295166,-1.10235860927677,-0.474314113237503,0.682412491765153,0
2.5400390625,-1.85837697982788,2.29401993751526,2.0404372215271,-1.57413551786515,2.2885098433554,2.11732196221386,1281.581,1335.598,3199.276,3220.943,-0.08732825,0.03495622,0.0776966,-1.08566105365753,-0.446497291326523,0.686070144176483,-1.10193449000042,-0.47413162656141,0.682149941729488,0
2.55999755859375,-1.88006591796875,2.28508758544922,2.05417275428772,-1.59612191359838,2.27904971150017,2.13093258853001,1301.024,1337.234,3192.696,3199.442,-0.08643875,0.03512995,0.07663988,-1.08445107936859,-0.446616172790527,0.686775207519531,-1.10123038958312,-0.473828671822132,0.681714070030222,0
2.58001708984375,-1.90172648429871,2.27615404129028,2.06792569160461,-1.6181586096433,2.26956793682606,2.14457435313522,1270.218,1334.71,3203.758,3213.156,-0.08558282,0.03525596,0.07571815,-1.08302283287048,-0.446675717830658,0.68764740228653,-1.10024227275454,-0.473403512755585,0.681102378642802,0
2.60003662109375,-1.92335295677185,2.26722145080566,2.08168125152588,-1.64017270144046,2.26009588812827,2.15820212463428,1276.331,1333.714,3188.683,3212.567,-0.08460383,0.03541621,0.07473654,-1.08132219314575,-0.446625113487244,0.687772870063782,-1.09897224258044,-0.472857054252202,0.680316169465104,0
2.6199951171875,-1.94494128227234,2.25829195976257,2.09544014930725,-1.66209156852628,2.2506648119635,2.17177094750084,1295.246,1334.848,3182.67,3191.179,-0.08358544,0.03560607,0.0736736,-1.07941508293152,-0.446472406387329,0.68794310092926,-1.09742594550583,-0.472191725819537,0.679358937915576,0
2.6400146484375,-1.96648705005646,2.24936699867249,2.10920548439026,-1.68404365734903,2.24121944141343,2.18536033620513,1264.886,1332.198,3193.432,3204.502,-0.08259581,0.0357542,0.07273742,-1.07729089260101,-0.44624263048172,0.688272953033447,-1.09559452046326,-0.471403714787811,0.678225198571351,0
2.6600341796875,-1.98798501491547,2.24044942855835,2.12296271324158,-1.7059562766819,2.23179105348221,2.198925291415,1272.13,1330.75,3178.372,3202.935,-0.08147888,0.03594192,0.07173426,-1.07489800453186,-0.445886492729187,0.687859177589417,-1.09348297402779,-0.470495175346408,0.676918050740891,0
2.6800537109375,-2.00943088531494,2.23154091835022,2.13671255111694,-1.72782382660604,2.22238205765848,2.2124623465139,1291.747,1331.527,3172.164,3181.147,-0.08032573,0.03616186,0.07064738,-1.07229793071747,-0.44541147351265,0.687493085861206,-1.09109212156704,-0.469466458325234,0.675437999175592,0
2.70001220703125,-2.03082036972046,2.22264432907104,2.15045523643494,-1.74957429229274,2.21302343991116,2.22592692089233,1274.833,1330.588,3173.948,3188.672,-0.07926686,0.03635325,0.06964822,-1.06946885585785,-0.444830775260925,0.68713915348053,-1.08843144721369,-0.468321644481621,0.673790915005369,0
2.72003173828125,-2.05214881896973,2.2137610912323,2.16418933868408,-1.77133515528999,2.20366034849157,2.23939793170129,1251.902,1325.24,3183.749,3196.139,-0.07809294,0.03653909,0.06870262,-1.06642639636993,-0.444162279367447,0.686711072921753,-1.08548570791771,-0.467054175156991,0.671967362056136,0
2.74005126953125,-2.07341146469116,2.20489430427551,2.17789936065674,-1.79303427916751,2.19432382169042,2.25283072305409,1271.513,1324.646,3163.809,3186.051,-0.0767326,0.03678661,0.06764057,-1.0631195306778,-0.443339705467224,0.68549907207489,-1.08226375787775,-0.46566786006566,0.669972821498637,0
2.760009765625,-2.09460353851318,2.19604706764221,2.19158720970154,-1.81460030360772,2.18504456385877,2.26618111951479,1293.282,1325.798,3155.258,3164.508,-0.07538503,0.03706288,0.06650067,-1.05960142612457,-0.44236746430397,0.68439644575119,-1.07877792518082,-0.464168003639063,0.667814925005998,0
2.780029296875,-2.11572074890137,2.18722128868103,2.20525813102722,-1.83615965364354,2.17576817783687,2.27952738420123,1259.885,1322.683,3166.479,3180.638,-0.07413548,0.0372939,0.06549198,-1.05586695671082,-0.44128230214119,0.683543562889099,-1.07500824518964,-0.462546015651526,0.665481313516697,0
2.800048828125,-2.13675832748413,2.17842030525208,2.2188982963562,-1.85764080987419,2.16652543642485,2.29282524319738,1262.587,1319.696,3154.923,3180.723,-0.07277514,0.03756389,0.06441087,-1.05187439918518,-0.440055072307587,0.682011365890503,-1.07096642698373,-0.460806934192852,0.662979235508738,0
2.82000732421875,-2.15771174430847,2.16964673995972,2.23250818252563,-1.87897323600723,2.1573466894188,2.30603103117811,1282.126,1319.532,3149.874,3157.529,-0.07135034,0.03787538,0.06322883,-1.04766941070557,-0.438691884279251,0.68048894405365,-1.06666760390385,-0.458957270716794,0.660318059240952,0
2.84002685546875,-2.17857646942139,2.16090250015259,2.24608969688416,-1.90028201942005,2.14817811521475,2.31922218318877,1256.965,1316.841,3157.869,3167.368,-0.06994739,0.03816015,0.06215167,-1.04323577880859,-0.437208324670792,0.679071247577667,-1.06208716414723,-0.456986435452194,0.657482548835001,0
2.86004638671875,-2.19934749603271,2.15219116210938,2.2596287727356,-1.92149642800033,2.13905014786462,2.33235491268238,1266.863,1313.996,3142.672,3163.981,-0.06844111,0.03848533,0.06100573,-1.03853750228882,-0.435565859079361,0.676950633525848,-1.0572396359531,-0.454900679494516,0.654481697963038,0
2.8800048828125,-2.22001981735229,2.14351558685303,2.27312707901001,-1.94254691640495,2.12999271078668,2.34538616777867,1285.595,1313.466,3136.986,3142.944,-0.06693269,0.03883894,0.0597841,-1.03362584114075,-0.43377497792244,0.67491489648819,-1.0521429102862,-0.45270770082608,0.651326581984514,0
2.9000244140625,-2.24058961868286,2.13487839698792,2.2865879535675,-1.96355695821617,2.12095267674793,2.3583923845069,1254.964,1310.25,3146.577,3156.92,-0.06549086,0.03915512,0.0586817,-1.02849161624908,-0.431862652301788,0.67304915189743,-1.04676782045836,-0.450394949835786,0.647999145330045,0
2.9200439453125,-2.26105189323425,2.12628221511841,2.29999756813049,-1.98445677645803,2.11196006883178,2.37133036759502,1261.062,1306.694,3133.376,3155.263,-0.06393398,0.03951165,0.05750043,-1.02310276031494,-0.429799646139145,0.670486688613892,-1.04113166921817,-0.447969871412971,0.644510099225252,0
2.94000244140625,-2.28140163421631,2.11773061752319,2.31335687637329,-2.00517798053537,2.10304431360073,2.38415778000673,1281.423,1306.165,3127.539,3132.011,-0.06233555,0.03990472,0.05621897,-1.01750040054321,-0.427591621875763,0.667965710163116,-1.03525504859546,-0.445441325732794,0.640872191117535,0
2.96002197265625,-2.30163502693176,2.1092255115509,2.32666826248169,-2.02584216016808,2.09415309439512,2.39694989157076,1254.842,1303.587,3134.835,3143.333,-0.06079198,0.04026739,0.0550397,-1.01166915893555,-0.425257533788681,0.66557252407074,-1.02910434715508,-0.442794850733705,0.637064613927399,0
2.98004150390625,-2.3217465877533,2.10076975822449,2.33991861343384,-2.04638065841765,2.08531595237754,2.4096642003716,1262.787,1300.073,3121.185,3140.302,-0.0591552,0.04066783,0.053783,-1.00558280944824,-0.422771871089935,0.66251528263092,-1.02269958857548,-0.440039062045142,0.633099763265664,0
3,-2.34173250198364,2.09236717224121,2.35310912132263,-2.06672639957428,2.07656174835205,2.42225918334961,1281.441,1299.342,3116.002,3118.167,-0.05750564,0.04109712,0.05244042,-0.999280154705048,-0.420143812894821,0.6595299243927,-1.01606400046349,-0.437183953857422,0.628992018127441,0
3.02001953125,-2.36158752441406,2.08401918411255,2.36624264717102,-2.08699882657197,2.06783908936099,2.4348087813708,1253.169,1296.627,3123.665,3130.565,-0.05592638,0.04149198,0.0512065,-0.992748320102692,-0.41739484667778,0.656671941280365,-1.0091596546337,-0.434213206731958,0.624717899159203,0
3.0400390625,-2.38130664825439,2.07572913169861,2.37930560112,-2.10713056392826,2.05917696519221,2.44727128580198,1260.698,1292.719,3110.695,3127.224,-0.05424806,0.04192259,0.04989519,-0.985967040061951,-0.414504021406174,0.653149783611298,-1.00200923318578,-0.431136580142566,0.620291447661128,0
3.05999755859375,-2.40088605880737,2.06749963760376,2.39229917526245,-2.12705600675913,2.05060360379452,2.45960608409476,1279.915,1291.911,3105.065,3104.658,-0.05255216,0.04238101,0.04849742,-0.978969573974609,-0.411477297544479,0.649678528308868,-0.994638524886308,-0.427965170275055,0.615728628108227,0
3.08001708984375,-2.42032098770142,2.05933284759521,2.40522575378418,-2.14689219650438,2.04206864550612,2.47188563047583,1253.011,1289.478,3111.746,3116.183,-0.05093082,0.04280453,0.04720664,-0.971744179725647,-0.408333837985992,0.646329522132874,-0.987005430654711,-0.424680863071165,0.611003379164165,0
3.10003662109375,-2.43960666656494,2.05123162269592,2.41807246208191,-2.16657319653803,2.03360046101514,2.4840691070327,1259.837,1285.425,3098.917,3113.385,-0.04922427,0.04325902,0.04584385,-0.96427583694458,-0.405056893825531,0.64233535528183,-0.979135219574012,-0.421294531111384,0.606131343595068,0
3.1199951171875,-2.45873832702637,2.04319858551025,2.43084049224854,-2.18603502400946,2.02522658035469,2.49611690533293,1278.148,1284.513,3093.61,3091.225,-0.04750494,0.04373762,0.0443967,-0.956594884395599,-0.40165314078331,0.638400673866272,-0.971056158224178,-0.417818336715394,0.601130019760458,0
3.1400146484375,-2.47771215438843,2.03523588180542,2.44353199005127,-2.20539207344272,2.01689778275692,2.50809984103626,1251.464,1282.373,3099.712,3102.534,-0.04586336,0.04418079,0.04305352,-0.94868940114975,-0.398140758275986,0.63457727432251,-0.962722140342815,-0.41423244164655,0.595970865687568,0
3.1600341796875,-2.49652338027954,2.02734541893005,2.45613431930542,-2.22457999991466,2.00864175404465,2.51997808157008,1258.26,1278.261,3087.152,3099.357,-0.04413923,0.04465251,0.04163823,-0.94054913520813,-0.394506603479385,0.630120575428009,-0.954160941629351,-0.410548797012349,0.590671075857482,0
3.1800537109375,-2.5151674747467,2.01953029632568,2.46864891052246,-2.24359429055267,2.0004604359809,2.53174883325128,1276.449,1277.397,3081.993,3076.902,-0.04240391,0.0451455,0.04014217,-0.932200014591217,-0.390756160020828,0.625725328922272,-0.945376094901151,-0.406768922885412,0.585232837252444,0
3.20001220703125,-2.53363990783691,2.01179242134094,2.48107481002808,-2.26237335188561,1.99238033051557,2.54337396678712,1261.05,1276.289,3080.875,3083.37,-0.04079111,0.04560876,0.03872217,-0.923624753952026,-0.386900454759598,0.621295928955078,-0.93639902618694,-0.402906341007952,0.579675604081262,0
3.22003173828125,-2.55193686485291,2.00413298606873,2.49341058731079,-2.28102768446584,1.98435389234802,2.55492188728337,1243.426,1271.487,3086.424,3087.307,-0.03912503,0.04606353,0.03733234,-0.914847254753113,-0.382959872484207,0.616791605949402,-0.927178570605173,-0.398939036560826,0.573967702844936,0
3.24005126953125,-2.5700535774231,1.99655520915985,2.50564384460449,-2.29949529515787,1.97640779539255,2.56635421803604,1259.11,1268.733,3070.865,3076.99,-0.03733645,0.04655468,0.03584381,-0.905849933624268,-0.378908783197403,0.611665010452271,-0.917745706354326,-0.394880338597406,0.568128310524024,0
3.260009765625,-2.5879864692688,1.98906016349792,2.51777625083923,-2.31771654397337,1.96856770107001,2.57763403905129,1277.31,1268.561,3063.685,3056.204,-0.0355793,0.04705727,0.0342946,-0.896645903587341,-0.37474650144577,0.606619775295258,-0.908134108040216,-0.390744736359816,0.562178273303667,0
3.280029296875,-2.60573124885559,1.98165011405945,2.52981090545654,-2.33579875395963,1.96078743127139,2.58882778840789,1249.584,1266.932,3069.146,3068.685,-0.03394838,0.04751574,0.03286074,-0.887231647968292,-0.370495080947876,0.601727783679962,-0.898289055119065,-0.386508685126782,0.556083716560567,0
3.300048828125,-2.62328314781189,1.97432708740234,2.54173636436462,-2.35368185965298,1.95309283048767,2.59989828272254,1251.895,1262.539,3059.129,3067.416,-0.0322594,0.04799086,0.03136987,-0.877611875534058,-0.366155564785004,0.596271991729736,-0.888243810122448,-0.382186496836394,0.549865231386282,0
3.32000732421875,-2.64063954353333,1.96709227561951,2.55355334281921,-2.37130830610839,1.94550866300381,2.61080989274252,1268.158,1261.639,3054.734,3045.49,-0.03054539,0.04848357,0.0298022,-0.867803037166595,-0.361731708049774,0.590848028659821,-0.878034183119985,-0.377793579561194,0.543544985919778,0
3.34002685546875,-2.65779542922974,1.95994782447815,2.56526279449463,-2.3887820321449,1.9379902068497,2.62162696154813,1245.339,1260.606,3058.041,3054.145,-0.02890169,0.04894204,0.02833343,-0.857793092727661,-0.35723289847374,0.585474789142609,-0.867602121152829,-0.373304954734798,0.537087042614081,0
3.36004638671875,-2.67474722862244,1.9528945684433,2.57685327529907,-2.40604503376583,1.93056241952464,2.63231358190229,1253.093,1256.46,3045.85,3049.676,-0.02719407,0.04941772,0.02680998,-0.847587406635284,-0.352653503417969,0.579524993896484,-0.856983060951777,-0.368735869792483,0.530513338493643,0
3.3800048828125,-2.69149112701416,1.94593477249146,2.5883264541626,-2.42304196557559,1.92324911460621,2.64283549236868,1269.101,1255.699,3040.97,3028.823,-0.02549923,0.0499004,0.02523427,-0.837200701236725,-0.347995966672897,0.573657751083374,-0.846214826007803,-0.364102599125748,0.523847288101157,0
3.4000244140625,-2.70802354812622,1.93906927108765,2.59968376159668,-2.43987318937177,1.91600710921667,2.65325482168089,1243.014,1254.677,3044.455,3040.679,-0.02391039,0.05034091,0.02377449,-0.82662707567215,-0.343273550271988,0.567869961261749,-0.835236272052476,-0.359378834064062,0.51705104022176,0
3.4200439453125,-2.72434091567993,1.93229985237122,2.61091470718384,-2.45648288954422,1.90886041925377,2.66353701731738,1247.814,1250.28,3034.116,3037.429,-0.02225657,0.05079528,0.02226167,-0.815880596637726,-0.338487803936005,0.561545729637146,-0.824084890952781,-0.354580706310386,0.510147804107099,0
3.44000244140625,-2.7404408454895,1.92562675476074,2.62202024459839,-2.47281804716281,1.90183185728196,2.67364925803476,1262.998,1249.652,3029.264,3016.962,-0.02059263,0.05125874,0.02068975,-0.804969668388367,-0.33363863825798,0.555271923542023,-0.812800388649434,-0.349725300221754,0.503162159625937,0
3.46002197265625,-2.75631809234619,1.91905212402344,2.63300132751465,-2.48897526921199,1.89487985601472,2.68365134815842,1240.234,1249.13,3031.629,3026.189,-0.0190139,0.05168534,0.0192203,-0.793886303901672,-0.328734397888184,0.549058020114899,-0.801318788528228,-0.344785088448372,0.496054502206447,0
3.48004150390625,-2.77197098731995,1.91257679462433,2.64384770393372,-2.50490104797632,1.88802743832719,2.69351016386359,1246.239,1245.023,3020.811,3022.263,-0.01737872,0.05212404,0.01770329,-0.782644689083099,-0.323776066303253,0.542324841022491,-0.789679509600139,-0.339777031889425,0.488849234094216,0
3.5,-2.78739595413208,1.90620124340057,2.65456104278564,-2.5205447997813,1.88129636896134,2.70319439144611,1260.785,1244.474,3016.252,3002.355,-0.01575047,0.05256741,0.0161395,-0.771251201629639,-0.3187635242939,0.535667896270752,-0.777924000354857,-0.334718964672089,0.481572013878822,0
3.52001953125,-2.80259037017822,1.89992713928223,2.66514253616333,-2.53599921507943,1.87464676580493,2.71276141071155,1237.393,1244.112,3018.47,3012.375,-0.01422075,0.05297148,0.01468605,-0.759700655937195,-0.313705891370773,0.529073774814606,-0.765985728654519,-0.329582259876133,0.474181654997567,0
3.5400390625,-2.81755042076111,1.89375495910645,2.67558240890503,-2.55121320561109,1.86810061070885,2.72217959559352,1242.043,1239.899,3008.731,3008.987,-0.0126367,0.05338506,0.01319224,-0.748012781143188,-0.308607250452042,0.521991014480591,-0.753905903732742,-0.324384648683532,0.466703667929126,0
3.55999755859375,-2.8322741985321,1.88768577575684,2.68588185310364,-2.56613872308604,1.86167857751006,2.73141920191151,1256.181,1239.357,3004.285,2989.419,-0.01104946,0.05380267,0.01165535,-0.736190676689148,-0.303465932607651,0.514972329139709,-0.741727567798258,-0.319144650954242,0.459164697851087,0
3.58001708984375,-2.84675884246826,1.88171994686127,2.69604182243347,-2.58086439685043,1.85534253147694,2.74053509545279,1234.639,1239.229,3005.421,2998.675,-0.009556487,0.05418342,0.01022518,-0.724229216575623,-0.298287868499756,0.507999539375305,-0.729381927869994,-0.313832666990361,0.451522158631107,0
3.60003662109375,-2.86100172996521,1.87585854530334,2.7060534954071,-2.59534166117872,1.84911336908442,2.74949721171974,1239.591,1235.163,2996.181,2994.757,-0.008016115,0.05457097,0.008760401,-0.71215033531189,-0.293078392744064,0.500582635402679,-0.716911837553691,-0.308467135501249,0.443802578692534,0
3.6199951171875,-2.87500071525574,1.87010180950165,2.71591806411743,-2.60952509409627,1.84301063413925,2.75827743234631,1251.993,1234.691,2991.921,2976.916,-0.006481069,0.05495973,0.007263477,-0.699954628944397,-0.287835210561752,0.493234217166901,-0.704361775018033,-0.303067194200314,0.436033492140578,0
3.6400146484375,-2.88875341415405,1.86445069313049,2.72563672065735,-2.62349913748426,1.83699799365897,2.76692803087948,1231.459,1234.645,2992.805,2985.608,-0.005037636,0.05531313,0.005870192,-0.687639236450195,-0.282564103603363,0.485931307077408,-0.691660998977508,-0.297602405088683,0.428171106749629,0
3.6600341796875,-2.90225791931152,1.85890531539917,2.73520088195801,-2.63721784221104,1.83109521827128,2.77542056261789,1236.033,1230.708,2984.042,2981.826,-0.003549461,0.05567212,0.004446769,-0.67522782087326,-0.277271270751953,0.478212416172028,-0.6788538526303,-0.292091847805727,0.42024287307172,0
3.67999267578125,-2.91551208496094,1.85346651077271,2.74461221694946,-2.65063849381582,1.82532068681534,2.78372858527554,1247.94,1230.298,2980.031,2964.459,-0.002066613,0.05603162,0.002996335,-0.66271835565567,-0.271953463554382,0.470566898584366,-0.665986083416798,-0.286555206197011,0.41227711095171,0
3.70001220703125,-2.92851448059082,1.84813368320465,2.75387144088745,-2.66384123964357,1.81963991412768,2.79190171387692,1228.623,1230.386,2980.246,2972.834,-0.0006743124,0.05635715,0.001648111,-0.650108814239502,-0.266615092754364,0.462957352399826,-0.65298533214413,-0.280961346123326,0.404229026602262,0
3.72003173828125,-2.94126319885254,1.84290814399719,2.76297092437744,-2.67678283166196,1.81407150862839,2.79991317582983,1233.148,1226.568,2972.342,2968.618,0.0007572464,0.05668664,0.0002760257,-0.637424528598785,-0.261263489723206,0.454978764057159,-0.639897267894093,-0.275329917714721,0.396126891360527,0
3.74005126953125,-2.9537558555603,1.83779060840607,2.77191233634949,-2.68946158755233,1.8086161941722,2.80776192969886,1243.647,1226.167,2968.34,2952.962,0.002179345,0.05701493,-0.001113734,-0.62466162443161,-0.255894899368286,0.447065651416779,-0.626728467014511,-0.269663750589942,0.387974776299086,0
3.760009765625,-2.96599245071411,1.83278024196625,2.78069472312927,-2.70183851231475,1.80329074921818,2.81542383572149,1232.616,1226.115,2965.035,2957.342,0.003498111,0.05731521,-0.002423477,-0.611820101737976,-0.250513166189194,0.439114093780518,-0.613526094901139,-0.263983138701136,0.379801879044709,0
3.780029296875,-2.97797083854675,1.82787775993347,2.78931760787964,-2.71398789452788,1.79806320946631,2.82294488206675,1222.614,1223.668,2966.238,2957.901,0.004822745,0.05760155,-0.00369487,-0.598922967910767,-0.245129182934761,0.431138515472412,-0.600216179640806,-0.2582562540006,0.371562407459372,0
3.800048828125,-2.98969054222107,1.82308268547058,2.79777431488037,-2.72587020252115,1.79295058429007,2.83030059674741,1230.243,1221.341,2957.079,2951.183,0.006197512,0.0578944,-0.004994492,-0.585978984832764,-0.239740341901779,0.422838389873505,-0.586845888408904,-0.252503391206207,0.363285560271529,0
3.82000732421875,-3.00115013122559,1.81839609146118,2.8060667514801,-2.73744929742843,1.78796842323393,2.8374686080838,1240.338,1221.187,2952.64,2936.913,0.00754523,0.05818319,-0.006297311,-0.572979509830475,-0.234340697526932,0.414616823196411,-0.573463232144022,-0.246745208083563,0.355001058539243,0
3.84002685546875,-3.01234841346741,1.81381738185883,2.81419563293457,-2.7487950044681,1.78308668245712,2.84449214121233,1224.019,1221.227,2952.137,2944.286,0.008789973,0.05844097,-0.007502657,-0.559927761554718,-0.228934958577156,0.406449675559998,-0.559993461530387,-0.240949542090342,0.346662628875244,0
3.86004638671875,-3.02328538894653,1.8093466758728,2.82215595245361,-2.75987065010211,1.77832114155852,2.85134849346595,1226.498,1217.813,2946.151,2941.108,0.01004773,0.05869811,-0.008715461,-0.546851694583893,-0.223533913493156,0.398019641637802,-0.54648465285111,-0.235137079108075,0.338300032788974,0
3.8800048828125,-3.03396058082581,1.80498373508453,2.82994914054871,-2.77064299647982,1.77368610185671,2.85801708903178,1233.755,1217.439,2943.28,2928.414,0.01129037,0.05895144,-0.00993146,-0.533746957778931,-0.218135252594948,0.389663189649582,-0.532985466132484,-0.229328756186666,0.329943393154704,0
3.9000244140625,-3.04437255859375,1.80072915554047,2.83757567405701,-2.78117737042527,1.76915345504432,2.86453836832583,1219.836,1217.535,2942.517,2933.851,0.01246176,0.0591797,-0.01106117,-0.520615994930267,-0.212741389870644,0.381328493356705,-0.51942076458699,-0.223492244065531,0.321546196721701,0
3.9200439453125,-3.05452227592468,1.79658198356628,2.84503030776978,-2.79144000531776,1.76473772995491,2.87089142820138,1224.702,1214.326,2935.916,2929.326,0.01365489,0.05940882,-0.01219888,-0.507482707500458,-0.207359403371811,0.372734159231186,-0.505839340129745,-0.217648536542653,0.313138648009699,0
