t,x_s1,x_s2,x_s3,x_s_d1,x_s_d2,x_s_d3,propellers_rpms1,propellers_rpms2,propellers_rpms3,propellers_rpms4,rollRad,pitchRad,yawRad,v_s1,v_s2,v_s3,v_s_d1,v_s_d2,v_s_d3,insideCount
0,-0.0599999986588955,2.94000005722046,1.17999994754791,-0.0599999986588955,2.94000005722046,1.17999994754791,0,0,0,0,0,0,0,0,0,0,-1.06581410364015E-15,4.44089209850063E-16,4.44089209850063E-16,0
0.019989013671875,-0.0599999986588955,2.94000005722046,1.17811644077301,-0.0600018659130177,2.93999925379318,1.18000110346716,0,0,0,0,-0.01635288,0.0001297794,-0.01587137,-1.10653664009419E-09,-7.76775763711157E-08,-0.0941759571433067,-0.000279680311988734,-0.000120338624884473,0.000173135436141649,5
0.03997802734375,-0.0599999986588955,2.94000005722046,1.17242503166199,-0.060014847005691,2.93999366839165,1.1800091393819,0,0,0,0,-0.03270202,0.0005238493,-0.03175127,-1.08383135799528E-09,-7.60859677484405E-08,-0.284568399190903,-0.00110975851463131,-0.000477498085781228,0.000686993385685745,5
0.05999755859375,-0.0599058829247952,2.93990302085876,1.16596508026123,-0.0600498857373401,2.93997859220429,1.18003083002592,1868.072,3252.779,3183.935,1722.446,-0.04942134,0.0003294809,-0.01369504,0.00470571499317884,-0.00484924810007215,-0.322995662689209,-0.00247936261166862,-0.00106680046642749,0.00153484356504269,5
0.079986572265625,-0.059820368885994,2.93960738182068,1.16000294685364,-0.0601174907153006,2.93994950367094,1.18007268072775,1925.918,2314.482,3251.728,2829.28,-0.07543351,-0.002135855,0.02094678,0.00427568424493074,-0.0147781055420637,-0.298104643821716,-0.00437104534358026,-0.00188073869847162,0.00270588528944111,5
0.0999755859375,-0.0599374547600746,2.93904495239258,1.15498650074005,-0.0602280337026576,2.93990194011169,1.18014111210282,979.7985,1498.691,3915.455,3896.663,-0.1031986,-0.008062987,0.06330869,-0.00585421733558178,-0.0281175076961517,-0.250819474458694,-0.00677334142420609,-0.00291437958958193,0.00419302100058057,4
0.1199951171875,-0.0604638606309891,2.93818354606628,1.15081322193146,-0.0603918861403606,2.93983143898525,1.18024254456713,346.0985,980.2968,4173.12,4613.439,-0.1214322,-0.01542183,0.1040046,-0.0263202358037233,-0.0430699847638607,-0.20866596698761,-0.00967801353495435,-0.00416417885169243,0.00599115140585487,4
0.139984130859375,-0.061563603579998,2.93704128265381,1.14728260040283,-0.0606183773949454,2.93973398612584,1.18038275344299,353.3564,747.382,3974.569,4854.985,-0.1254019,-0.0211668,0.1351072,-0.0549871101975441,-0.0571137107908726,-0.176532119512558,-0.0130632593357409,-0.00562075554695178,0.00808677981816243,4
0.160003662109375,-0.0633408799767494,2.93568086624146,1.14427471160889,-0.0609177895434042,2.93960515744296,1.18056810382587,820.7548,814.631,3463.234,4692.448,-0.118459,-0.02352423,0.1522708,-0.0888639092445374,-0.0680151954293251,-0.150393977761269,-0.0169265510445065,-0.00728302204135792,0.0104783414199936,3
0.17999267578125,-0.0658469349145889,2.9341721534729,1.14182496070862,-0.0612985250199726,2.93944133760391,1.18080379722281,1348.95,1083.718,3006.194,4255.175,-0.1079832,-0.02277961,0.155777,-0.125302672386169,-0.0754305645823479,-0.122485175728798,-0.0212433804254414,-0.00914043312572283,0.0131506644458931,3
0.199981689453125,-0.0690850615501404,2.93255376815796,1.140061378479,-0.0617700327574899,2.93923846099686,1.18109568297336,1636.155,1380.915,2919.139,3666.219,-0.09982966,-0.02030128,0.1501559,-0.161906361579895,-0.0809167847037315,-0.0881809741258621,-0.0260066742439309,-0.011189945384795,0.0160993702266893,3
0.220001220703125,-0.0730104297399521,2.93082594871521,1.13903558254242,-0.0623420644491781,2.93899233174064,1.18144979784016,1641.033,1580.459,3148.642,3113.209,-0.09583492,-0.01735582,0.1421911,-0.196268498897552,-0.0863889157772064,-0.0512920692563057,-0.03121219533433,-0.0134297356845702,0.019321835755004,3
0.239990234375,-0.077550120651722,2.92897343635559,1.13863265514374,-0.0630214373585105,2.93870001655724,1.18187036203406,1524.98,1624.802,3416.358,2777.409,-0.09475368,-0.01467668,0.137733,-0.22698475420475,-0.0926248356699944,-0.0201447159051895,-0.0368316683029241,-0.015847637913056,0.022800557215184,3
0.259979248046875,-0.0826390534639359,2.92699217796326,1.13863503932953,-0.0638172488896441,2.93835760108779,1.18236300728159,1438.804,1500.552,3533.834,2744.186,-0.09439041,-0.01258823,0.1393011,-0.254446744918823,-0.0990575551986694,0.000121947377920151,-0.0428604193878216,-0.0184416410810803,0.0265326413259761,3
0.279998779296875,-0.0882449895143509,2.9249005317688,1.13885188102722,-0.0647390625194898,2.93796097043536,1.18293365383054,1399.726,1275.582,3477.511,2977.93,-0.09320638,-0.01110645,0.1456853,-0.280296444892883,-0.104585416615009,0.0108418464660645,-0.0492963837173861,-0.0212108567320638,0.030516809833474,3
0.29998779296875,-0.0943707078695297,2.92273235321045,1.13920629024506,-0.0657918945890516,2.93750796620855,1.18358540703494,1351.48,1062.253,3343.689,3324.667,-0.09052937,-0.009933591,0.1533074,-0.306286215782166,-0.108405791223049,0.0177229288965464,-0.0561078595514081,-0.0241416444928383,0.0347334378503248,3
0.319976806640625,-0.101036041975021,2.92052555084229,1.13972449302673,-0.0669846297797139,2.93699476557717,1.18432376693582,1280.895,940.9532,3238.095,3590.26,-0.08597749,-0.008522648,0.158356,-0.333266764879227,-0.110340960323811,0.0259104408323765,-0.0632924014512957,-0.0272329521594955,0.0391810115335476,3
0.339996337890625,-0.108251646161079,2.91831183433533,1.14046132564545,-0.068326768706371,2.93641728069206,1.18515461486636,1252.213,943.6486,3172.093,3650.135,-0.07943997,-0.006292517,0.1584772,-0.360780447721481,-0.110680051147938,0.0368413701653481,-0.0708499516420146,-0.0304847548730522,0.0438594951176439,4
0.3599853515625,-0.116003096103668,2.91611480712891,1.14145195484161,-0.0698213312158394,2.93577421219747,1.18607982025561,1320.772,1047.97,3118.968,3497.968,-0.07154316,-0.002960902,0.1534699,-0.387572467327118,-0.10985653847456,0.0495288223028183,-0.0787457139191101,-0.0338820807988248,0.0487473480944833,4
0.3800048828125,-0.124251440167427,2.91394972801208,1.142706990242,-0.0714797725314022,2.93506063123087,1.18710647443246,1455.368,1181.447,3091.379,3231.027,-0.06361386,0.001260209,0.1450347,-0.412417024374008,-0.108253642916679,0.0627535730600357,-0.0869921272359981,-0.0374302820709642,0.0538522707687797,4
0.399993896484375,-0.132943153381348,2.91182637214661,1.1442164182663,-0.0733036822025899,2.9342758538535,1.18823556140379,1579.602,1273.829,3104.323,2981.991,-0.05702627,0.005827111,0.1357443,-0.434586226940155,-0.106162339448929,0.0754721537232399,-0.0955525119207663,-0.0411135764513579,0.0591515566763244,4
0.41998291015625,-0.142023533582687,2.90975022315979,1.14595746994019,-0.075301871434707,2.93341608884986,1.18947253572543,1630.556,1288.284,3160.294,2844.54,-0.05244776,0.01017523,0.1278573,-0.454019159078598,-0.103801690042019,0.0870501697063446,-0.104427768518458,-0.0449323514193797,0.064645763297398,4
0.44000244140625,-0.151445940136909,2.90772438049316,1.14789545536041,-0.077483988232608,2.93247718495301,1.19082336997196,1605.684,1237.534,3220.298,2843.657,-0.04965251,0.01397343,0.12247,-0.471120417118073,-0.101293101906776,0.0969001948833466,-0.113620829717891,-0.048887868829098,0.0703367061060819,4
0.459991455078125,-0.161176517605782,2.90575170516968,1.1499959230423,-0.0798493430620752,2.93145943885026,1.19228763728888,1543.729,1158.995,3250.166,2937.812,-0.04787724,0.01718871,0.1193413,-0.48652920126915,-0.0986387580633163,0.105020627379417,-0.123092454730403,-0.0529632444654124,0.0762000931848968,4
0.47998046875,-0.171193331480026,2.90383625030518,1.15223813056946,-0.082406855753501,2.93035901258777,1.1938708594761,1474.67,1086.064,3248.799,3066.447,-0.0462884,0.01998881,0.1173762,-0.500841021537781,-0.0957742482423782,0.112111121416092,-0.132845337826091,-0.057159637597476,0.0822375924153778,5
0.5,-0.181480795145035,2.90198349952698,1.15461528301239,-0.085166398670376,2.92917165836334,1.1955791479969,1429.29,1045.579,3218.072,3171.091,-0.04433311,0.02264152,0.115229,-0.514373064041138,-0.0926368907094002,0.118855983018875,-0.142884000065179,-0.0614789935111996,0.0884520025491718,5
0.519989013671875,-0.192023932933807,2.9001989364624,1.15713369846344,-0.0881248588203387,2.92789871561062,1.19741057576073,1425.104,1045.79,3175.471,3209.976,-0.04191389,0.02538102,0.1118812,-0.527156054973602,-0.089224636554718,0.125920131802559,-0.153166947611899,-0.0659034585682559,0.0948176369253132,5
0.53997802734375,-0.202804177999496,2.89848613739014,1.15980923175812,-0.0912913676125048,2.92653625533937,1.19937079554481,1446.208,1073.467,3149.565,3183.309,-0.03929015,0.02829185,0.1070414,-0.539013803005219,-0.0856349840760231,0.133775472640991,-0.16369851368286,-0.0704348972306956,0.101337178011302,5
0.55999755859375,-0.213797450065613,2.89684557914734,1.16265261173248,-0.094676112580471,2.92507989413848,1.20146611391775,1482.031,1113.26,3140,3115.495,-0.03687945,0.03132721,0.1010606,-0.5496626496315,-0.0820293575525284,0.142167776823044,-0.17448465888317,-0.0750758741803766,0.108014315705644,5
0.579986572265625,-0.224975571036339,2.89527416229248,1.16566681861877,-0.0982734311149,2.92353206847056,1.2036930254546,1523.412,1149.441,3143.434,3034.236,-0.03511804,0.03434943,0.09464812,-0.558906376361847,-0.0785723030567169,0.150712624192238,-0.185481935470438,-0.0798076950675377,0.114822153786096,5
0.5999755859375,-0.2363101541996,2.89376592636108,1.1688506603241,-0.102092760004862,2.92188871794891,1.20605737197736,1540.954,1167.004,3164.235,2978.121,-0.03429033,0.0371637,0.08861078,-0.566729485988617,-0.0754126533865929,0.159193009138107,-0.196696165293826,-0.0846328648712294,0.121764296254622,5
0.6199951171875,-0.247775375843048,2.89231276512146,1.17219412326813,-0.106144683970236,2.92014528826426,1.20856570593183,1531.677,1166.595,3183.677,2966.237,-0.03441923,0.03963005,0.083465,-0.573261201381683,-0.0726606622338295,0.167174533009529,-0.208134604141382,-0.0895545055543457,0.128845234789665,5
0.639984130859375,-0.259350419044495,2.89090538024902,1.17568576335907,-0.110420882305709,2.91830535958365,1.21121287640506,1509.22,1156.914,3192.475,2986.142,-0.03533695,0.04170188,0.07928981,-0.578753471374512,-0.0703745260834694,0.174579963088036,-0.219752140575416,-0.0945532069255159,0.136037043262338,5
0.660003662109375,-0.271020114421844,2.88953351974487,1.17931962013245,-0.114938248900541,2.91636166293851,1.21400934151928,1467.429,1144.424,3198.579,3029.815,-0.03677825,0.04338859,0.07589731,-0.583483457565308,-0.0685887560248375,0.181694760918617,-0.231574097577923,-0.0996398647564507,0.143355397804799,5
0.67999267578125,-0.282772868871689,2.88818717002869,1.18308842182159,-0.119686638739014,2.91431856344567,1.21694882102647,1428.872,1139.701,3189.713,3076.371,-0.03845818,0.04477762,0.07288039,-0.587639153003693,-0.0673180893063545,0.188441440463066,-0.243554411173546,-0.104794659005432,0.150771782621969,5
0.699981689453125,-0.294599801301956,2.88685584068298,1.18699181079865,-0.124676182095571,2.91217170233105,1.22003758604909,1403.554,1146.122,3178.993,3101.368,-0.04018391,0.04596664,0.06985807,-0.591344773769379,-0.0665710270404816,0.195170938968658,-0.25570106256044,-0.110021023759057,0.158291138455704,5
0.720001220703125,-0.306491941213608,2.88552856445313,1.19102847576141,-0.129918284978346,2.90991617190799,1.22328269744952,1390.542,1162.322,3164.621,3108.948,-0.04193413,0.04701718,0.06664225,-0.594608902931213,-0.0663603097200394,0.201830506324768,-0.268023157655716,-0.11532287703907,0.16591910230247,5
0.739990234375,-0.318440198898315,2.88419437408447,1.19519793987274,-0.135400001298574,2.90755754251682,1.2266761409821,1396.663,1185.562,3150.459,3092.217,-0.04381699,0.04795661,0.06321334,-0.597413003444672,-0.0667072683572769,0.20847062766552,-0.280473432677602,-0.12067988256057,0.173626415629864,5
0.759979248046875,-0.330435216426849,2.88284111022949,1.19950342178345,-0.141131974150567,2.90509123473139,1.23022450522921,1393.378,1207.776,3150.549,3072.983,-0.04599918,0.04873671,0.05980635,-0.599751651287079,-0.0676573514938354,0.215275481343269,-0.293060978423328,-0.126095951839638,0.181418706074426,5
0.779998779296875,-0.342467963695526,2.88145613670349,1.20394170284271,-0.147126184485884,2.90251209348295,1.23393520697061,1382.62,1225.968,3152.45,3062.734,-0.04854676,0.04931356,0.05666324,-0.601636290550232,-0.0692522749304771,0.221911177039146,-0.305795832832518,-0.131575403921268,0.189302187598958,5
0.79998779296875,-0.354530781507492,2.88002586364746,1.20850706100464,-0.153366821193532,2.89982692185086,1.2377984583754,1377.325,1240.904,3151.652,3053.123,-0.05146612,0.0496636,0.05392711,-0.603142499923706,-0.0715146437287331,0.228269040584564,-0.318629798715703,-0.137097500901303,0.197247023847227,5
0.82000732421875,-0.366618573665619,2.87853670120239,1.21319770812988,-0.159875221826383,2.89702653888221,1.24182746840525,1353.464,1251.16,3157.576,3059.938,-0.054745,0.04974215,0.05174897,-0.604387760162354,-0.0744639337062836,0.234530135989189,-0.331592781842754,-0.14267511039705,0.205271727915392,4
0.8399658203125,-0.378728151321411,2.8769748210907,1.21800541877747,-0.166623119864544,2.89412310687084,1.24600473873783,1326.121,1259.647,3154.51,3079.837,-0.05826996,0.0495603,0.05009821,-0.605480551719666,-0.0780927464365959,0.240386918187141,-0.344616121128287,-0.148278689461635,0.213333795320821,4
0.8599853515625,-0.390859246253967,2.87532687187195,1.22292900085449,-0.173653699721778,2.89109804476993,1.25035700258242,1295.849,1268.518,3156.333,3097.674,-0.06187748,0.04914693,0.04887417,-0.606553494930267,-0.0823950693011284,0.246177837252617,-0.357770416714212,-0.153938615363784,0.221476930914505,4
0.8800048828125,-0.403012424707413,2.87358045578003,1.22795879840851,-0.180948461186242,2.88795931270381,1.25487280742661,1278.324,1280.763,3142.051,3115.547,-0.06548607,0.04855541,0.04792268,-0.607658624649048,-0.0873226076364517,0.251488834619522,-0.371007022483504,-0.159633957038354,0.229671020432672,4
0.89996337890625,-0.415189892053604,2.87172317504883,1.23309600353241,-0.188485507600594,2.88471633219242,1.2595385981964,1269.853,1296.128,3135.114,3116.437,-0.06908879,0.04781924,0.04714603,-0.608874678611755,-0.0928589701652527,0.256857872009277,-0.384276397333556,-0.165343398332914,0.237885395572837,4
0.91998291015625,-0.427394390106201,2.86974334716797,1.23834216594696,-0.196312316554895,2.88134867495511,1.26438376578173,1236.584,1310.564,3138.236,3132.801,-0.07268619,0.0469275,0.04662465,-0.610221743583679,-0.0989923104643822,0.262306869029999,-0.397650971463704,-0.171098103938772,0.246164894078718,4
0.94000244140625,-0.439628392457962,2.86763000488281,1.24368798732758,-0.204407453948074,2.87786556348678,1.26939504145298,1233.987,1325.864,3126.285,3132.826,-0.07617706,0.04594527,0.04624338,-0.611702024936676,-0.105667501688004,0.267288833856583,-0.411081631631503,-0.176876941799768,0.254479112513653,4
0.9599609375,-0.451895654201508,2.86537265777588,1.24913501739502,-0.212746045182651,2.87427770063182,1.27455702664937,1238.205,1341.909,3122.928,3119.884,-0.07964982,0.04486569,0.04606371,-0.613363862037659,-0.112865768373013,0.272354245185852,-0.424518689171827,-0.18265853227144,0.262797291226931,3
0.97998046875,-0.464200228452682,2.86296129226685,1.25468504428864,-0.221379956358585,2.87056276985637,1.27990182895749,1207.794,1353.301,3130.471,3134.902,-0.08316093,0.04364055,0.04628075,-0.615228235721588,-0.120569370687008,0.277499347925186,-0.438035925118965,-0.188474621271639,0.271165104193453,3
1,-0.476546704769135,2.86038708686829,1.26032829284668,-0.230284798736574,2.86673126495361,1.28541435058594,1203.853,1362.922,3122.222,3140.543,-0.08657883,0.04232543,0.04678069,-0.617323577404022,-0.128711760044098,0.282159835100174,-0.451584000205995,-0.194303979492187,0.279552008056641,3
1.02001953125,-0.488941252231598,2.85764169692993,1.2660665512085,-0.239461107372567,2.86278295570393,1.29109492275982,1203.66,1373.16,3121.126,3137.394,-0.08993868,0.04092141,0.04756581,-0.619728207588196,-0.137271091341972,0.286912083625793,-0.465154707681581,-0.200143075797255,0.287952922446475,3
1.03997802734375,-0.50139057636261,2.85471749305725,1.27189970016479,-0.248880035413094,2.85873025410248,1.29692568790267,1179.184,1381.02,3123.502,3157.164,-0.09327082,0.03940919,0.04871206,-0.622467935085297,-0.14620965719223,0.291659593582153,-0.478698517198992,-0.205970598662363,0.296337185718871,3
1.05999755859375,-0.513902425765991,2.85160756111145,1.27782785892487,-0.258599401509697,2.85454828239877,1.30294243851408,1155.041,1386.056,3130.652,3174.018,-0.096383,0.03782903,0.05012997,-0.625591993331909,-0.15549398958683,0.296410292387009,-0.492290296490434,-0.211818761581115,0.30475114456651,3
1.08001708984375,-0.526484251022339,2.84830713272095,1.28384208679199,-0.268590868588476,2.85024923324404,1.30912763259543,1162.507,1394.003,3117.837,3177.356,-0.09920541,0.0362484,0.05165986,-0.629092574119568,-0.165023297071457,0.300713270902634,-0.505880764601332,-0.21766636033551,0.313164291730931,3
1.0999755859375,-0.539144515991211,2.84481167793274,1.2899466753006,-0.278822628233634,2.845846792911,1.31546157922208,1171.919,1403.082,3114.119,3172.139,-0.1018664,0.03466524,0.05330398,-0.63301420211792,-0.174769997596741,0.305228531360626,-0.519420764586993,-0.223492244065532,0.321546196721701,3
1.1199951171875,-0.551891565322876,2.84111738204956,1.29614734649658,-0.289357002179081,2.84131414609862,1.32198285851614,1144.961,1408.189,3124.622,3192.475,-0.1044108,0.03304503,0.05518606,-0.637352764606476,-0.184714525938034,0.310034811496735,-0.532985466132485,-0.229328756186667,0.329943393154705,3
1.1400146484375,-0.5647332072258,2.83722186088562,1.30243718624115,-0.300162704591434,2.83666475422696,1.32867210305637,1149.906,1412.941,3118.634,3197.083,-0.1066937,0.03146239,0.05713988,-0.642081081867218,-0.19477105140686,0.314490884542465,-0.54652589017629,-0.235154822377061,0.338325560657667,3
1.15997314453125,-0.577678024768829,2.83312344551086,1.30882036685944,-0.311204994190806,2.83191356549821,1.33550780633558,1163.474,1418.888,3119.548,3188.014,-0.1087816,0.02992031,0.05916707,-0.647237002849579,-0.204918533563614,0.319161951541901,-0.559993461530388,-0.240949542090342,0.346662628875245,3
1.17999267578125,-0.5907341837883,2.82882070541382,1.31530225276947,-0.322550701230474,2.8270318247214,1.34253133946411,1142.886,1420.611,3131.859,3205.414,-0.1107215,0.02837493,0.06141439,-0.652807772159576,-0.21513132750988,0.324093520641327,-0.573463232144024,-0.246745208083563,0.355001058539242,3
1.20001220703125,-0.603909373283386,2.82431435585022,1.32187557220459,-0.334165615614823,2.82203425154496,1.34972152476313,1153.753,1422.175,3125.325,3209.883,-0.1124035,0.02689421,0.06371959,-0.65876317024231,-0.225315406918526,0.328668892383575,-0.586886736182789,-0.252520966862155,0.363310846989412,3
1.219970703125,-0.617212474346161,2.81960511207581,1.32854604721069,-0.346012104131023,2.81693703848901,1.35705506548116,1168.93,1424.797,3126.506,3204.25,-0.1139183,0.02547438,0.06607141,-0.665152430534363,-0.235457509756088,0.333522319793701,-0.600216179640808,-0.2582562540006,0.371562407459373,3
1.239990234375,-0.630651712417603,2.81469416618347,1.33532071113586,-0.358161486344149,2.81170949873715,1.36457611182642,1147.032,1423.168,3141.411,3225.203,-0.1152936,0.02407406,0.06858838,-0.671962976455688,-0.245546534657478,0.338733792304993,-0.613526094901141,-0.263983138701136,0.379801879044709,2
1.260009765625,-0.644234538078308,2.80958437919617,1.34219312667847,-0.37057666480527,2.80636759428526,1.37226169871082,1158.449,1422.76,3136.185,3230.786,-0.1163908,0.0227718,0.07107801,-0.679144501686096,-0.255491644144058,0.34362381696701,-0.626768731761373,-0.26968107538565,0.387999702095469,2
1.27996826171875,-0.657969176769257,2.80427861213684,1.34916925430298,-0.383217166996937,2.80092873932693,1.38008677171809,1178.111,1424.084,3137.551,3222.764,-0.1172973,0.02156863,0.07351544,-0.686733543872833,-0.265282511711121,0.348803967237473,-0.639897267894095,-0.27532991771472,0.396126891360527,2
1.29998779296875,-0.671863317489624,2.79878044128418,1.35625684261322,-0.396158759015336,2.79536033382764,1.388098233671,1161.843,1421.119,3153.188,3239.798,-0.1180627,0.02041607,0.07603593,-0.694702923297882,-0.274914562702179,0.354377537965775,-0.652985332144132,-0.280961346123326,0.404229026602261,2
1.32000732421875,-0.685922920703888,2.79309439659119,1.36344993114471,-0.409361504843077,2.78967956113998,1.39627136227237,1177.3,1419.843,3148.151,3243.059,-0.1185847,0.01938317,0.07847434,-0.702983379364014,-0.28430250287056,0.359655916690826,-0.6659860834168,-0.286555206197011,0.41227711095171,2
1.3399658203125,-0.700155138969421,2.78722548484802,1.37075519561768,-0.422782156447859,2.78390502968405,1.40457938493002,1199.116,1419.683,3150.799,3233.873,-0.1189655,0.0184618,0.08082396,-0.71161150932312,-0.293447345495224,0.365261107683182,-0.678853852630301,-0.292091847805726,0.42024287307172,2
1.3599853515625,-0.714566290378571,2.78117823600769,1.37818098068237,-0.436500861174643,2.77800225429635,1.41307191666844,1183.264,1414.542,3168.928,3250.512,-0.1192457,0.01759598,0.08323209,-0.720558166503906,-0.3023581802845,0.371290564537048,-0.69166099897751,-0.297602405088682,0.428171106749628,2
1.3800048828125,-0.729161202907562,2.77495908737183,1.38572120666504,-0.450474904562636,2.77198961381608,1.4217225152016,1199.32,1411.862,3164.72,3253.687,-0.1193144,0.01685465,0.08553397,-0.729744911193848,-0.310956656932831,0.377012759447098,-0.704361775018035,-0.303067194200314,0.436033492140578,2
1.39996337890625,-0.743945419788361,2.76857423782349,1.39338207244873,-0.464658337480184,2.7658868788709,1.43050273582817,1222.254,1410.377,3167.316,3244.521,-0.1192707,0.01622858,0.08771683,-0.73921149969101,-0.319248259067535,0.383042454719543,-0.716911837553692,-0.30846713550125,0.443802578692535,2
1.41998291015625,-0.758924067020416,2.76202917098999,1.40117216110229,-0.479135601808478,2.75965771647838,1.43946485209513,1207.387,1403.789,3186.031,3260.667,-0.1191514,0.0156593,0.0899241,-0.74893057346344,-0.327252358198166,0.389503806829453,-0.729381927869995,-0.313832666990362,0.451522158631107,2
1.44000244140625,-0.774100244045258,2.75533127784729,1.40908515453339,-0.493861275572861,2.75332167044526,1.4485807456364,1223.615,1400.615,3181.487,3263.925,-0.1188537,0.01521513,0.09199066,-0.758814454078674,-0.334898889064789,0.395651608705521,-0.741727567798258,-0.319144650954242,0.459164697851088,2
1.4599609375,-0.789478361606598,2.7484872341156,1.41712713241577,-0.508786793047814,2.74689963724648,1.45782035195439,1246.934,1398.667,3184.012,3254.162,-0.1184744,0.01488644,0.09390045,-0.768903195858002,-0.34220078587532,0.402101993560791,-0.753905903732742,-0.324384648683532,0.466703667929125,2
1.47998046875,-0.805061757564545,2.74150347709656,1.42530679702759,-0.524000783579472,2.74035348215039,1.46723853683636,1232.419,1391.379,3203.592,3268.863,-0.1180451,0.01461151,0.09580287,-0.779167056083679,-0.349188059568405,0.40898472070694,-0.76598572865452,-0.329582259876133,0.474181654997567,2
1.5,-0.820851922035217,2.73438763618469,1.43361723423004,-0.539455198877605,2.73370387899399,1.4768055561018,1249.082,1388.277,3198.445,3271.111,-0.1174678,0.01445719,0.0975407,-0.789507448673248,-0.355797469615936,0.415519207715988,-0.777924000354858,-0.334718964672088,0.481572013878822,1
1.52001953125,-0.836851298809052,2.7271466255188,1.44206392765045,-0.555147149984933,2.72695207081487,1.48651962134853,1273.154,1386.255,3200.529,3259.958,-0.1168457,0.01441081,0.0991031,-0.799968123435974,-0.362047493457794,0.422334402799606,-0.789715229532175,-0.33979240117828,0.488871346433721,1
1.53997802734375,-0.853061378002167,2.71978735923767,1.45065259933472,-0.571024729446907,2.7201203919406,1.49634859938949,1269.623,1381.23,3211.858,3268.98,-0.1162704,0.01441627,0.100617,-0.810507774353027,-0.367961972951889,0.429434239864349,-0.801318788528229,-0.344785088448372,0.496054502206448,1
1.55999755859375,-0.869483530521393,2.71231603622437,1.45938718318939,-0.587181951496087,2.71316839067337,1.50635068951315,1258.597,1372.263,3230.901,3279.032,-0.1155663,0.0144832,0.1020714,-0.821103930473328,-0.373565703630447,0.436728984117508,-0.812800388649436,-0.349725300221754,0.503162159625937,1
1.58001708984375,-0.886116623878479,2.70474028587341,1.46825790405273,-0.603567408310176,2.70611818636293,1.51649406782863,1284.629,1370.942,3218.914,3274.983,-0.1147077,0.01467227,0.1033175,-0.831658184528351,-0.378782421350479,0.443538933992386,-0.824119146742882,-0.35459544561987,0.510169010073001,0
1.5999755859375,-0.902961313724518,2.69706749916077,1.4772709608078,-0.620126809287134,2.69899313873865,1.52674512586702,1310.215,1369.833,3217.68,3263.379,-0.1138901,0.01494673,0.1043806,-0.842231094837189,-0.383637279272079,0.450653821229935,-0.835236272052476,-0.359378834064062,0.517051040221759,0
1.6199951171875,-0.92001736164093,2.6893036365509,1.48643612861633,-0.636958033083316,2.69175113334911,1.53716445517924,1289.152,1361.524,3239.937,3279.701,-0.1131396,0.01523088,0.1054337,-0.852805495262146,-0.388196438550949,0.458258718252182,-0.846214826007804,-0.364102599125749,0.523847288101157,0
1.6400146484375,-0.937282741069794,2.68145513534546,1.49574494361877,-0.654007271984653,2.68441532215046,1.54771874622704,1299.346,1358.574,3235.925,3282.789,-0.1123055,0.01560126,0.1063124,-0.863267481327057,-0.392422467470169,0.465439796447754,-0.857015715678588,-0.368749920209162,0.530533553325099,0
1.65997314453125,-0.954755902290344,2.67352843284607,1.50520038604736,-0.671217966514002,2.67701004110563,1.55837298599979,1322.894,1357.233,3236.849,3268.087,-0.1114512,0.01605402,0.1069949,-0.873662769794464,-0.396336108446121,0.472770392894745,-0.86760212115283,-0.373304954734798,0.537087042614082,0
1.67999267578125,-0.972435355186462,2.66552877426147,1.51480853557587,-0.688691692550512,2.66949158495151,1.56919005480539,1308.811,1350.072,3254.743,3278.287,-0.1106176,0.01651635,0.107659,-0.883969247341156,-0.39998060464859,0.480404943227768,-0.878034183119987,-0.377793579561193,0.543544985919778,0
1.70001220703125,-0.990317106246948,2.65746259689331,1.52455949783325,-0.706372354049449,2.66188409024902,1.58013522651994,1323.754,1348.446,3245.248,3279.438,-0.1097414,0.01704739,0.1081653,-0.894087076187134,-0.40331107378006,0.487549692392349,-0.888274735793774,-0.382199803288802,0.549884375850026,0
1.719970703125,-1.00839877128601,2.6493353843689,1.53445756435394,-0.724201244699276,2.65421281668394,1.59117215914002,1343.88,1347.3,3245.443,3267.385,-0.1089281,0.01762902,0.1085047,-0.904085457324982,-0.406361609697342,0.494905114173889,-0.898289055119065,-0.386508685126782,0.556083716560567,0
1.739990234375,-1.02667772769928,2.64115142822266,1.54450964927673,-0.74228345468553,2.64643254688532,1.60236590849663,1321.755,1339.663,3266.19,3281.135,-0.1081733,0.01819267,0.1088467,-0.913949429988861,-0.409195065498352,0.502606749534607,-0.908134108040217,-0.390744736359816,0.562178273303667,0
1.760009765625,-1.04514920711517,2.63291597366333,1.55470442771912,-0.760560719141003,2.63856835059778,1.61368040586141,1332.903,1338.394,3257.233,3282.536,-0.1073547,0.0188137,0.109028,-0.923569142818451,-0.411770522594452,0.509740233421326,-0.91777478390713,-0.394892849856044,0.568146310914365,0
1.77996826171875,-1.06380927562714,2.6246337890625,1.5650440454483,-0.778972314193065,2.6306463556073,1.62507806026454,1355.31,1338.481,3255.057,3267.058,-0.1065675,0.01948188,0.1090297,-0.933010578155518,-0.414111107587814,0.51698362827301,-0.927178570605173,-0.398939036560826,0.573967702844936,0
1.79998779296875,-1.08265447616577,2.61630821228027,1.57553446292877,-0.797626646773287,2.62261991743975,1.63662598076079,1335.266,1332.184,3272.953,3278.522,-0.1058473,0.02012081,0.1090391,-0.942263126373291,-0.416273206472397,0.524521827697754,-0.936399026186941,-0.402906341007953,0.579675604081262,0
1.82000732421875,-1.10167908668518,2.60794377326965,1.58616411685944,-0.816463410111527,2.61451498441355,1.64828683458664,1345.339,1331.802,3262.521,3280.022,-0.1050995,0.02079794,0.108907,-0.951225280761719,-0.418220996856689,0.53148341178894,-0.94540321420156,-0.406780591562751,0.585249625391268,0
1.8399658203125,-1.12087845802307,2.59954404830933,1.59693539142609,-0.835419998744244,2.60635849391067,1.66002186597783,1364.381,1332.276,3260.878,3265.213,-0.1044103,0.02150195,0.1086182,-0.959970474243164,-0.419984579086304,0.538562417030334,-0.954160941629351,-0.41054879701235,0.590671075857483,0
1.8599853515625,-1.14024817943573,2.59111166000366,1.60785341262817,-0.854607925216182,2.59810246519841,1.67190010651166,1340.842,1326.345,3279.34,3277.177,-0.1037908,0.02216082,0.1083585,-0.968489170074463,-0.421622931957245,0.545903563499451,-0.962722140342816,-0.41423244164655,0.595970865687568,0
1.8800048828125,-1.15978181362152,2.58264970779419,1.61890518665314,-0.873964974649439,2.58977366760063,1.68388304221498,1350.265,1326.632,3267.493,3278.034,-0.1031298,0.02284787,0.1079702,-0.976679980754852,-0.423096239566803,0.552590429782867,-0.971056158224177,-0.417818336715394,0.601130019760457,0
1.89996337890625,-1.1794741153717,2.57416105270386,1.63009226322174,-0.893426802120876,2.58139978694019,1.69593084051521,1370.058,1327.969,3264.092,3261.674,-0.1025237,0.02355208,0.1074373,-0.98462301492691,-0.424428820610046,0.559353947639465,-0.979135219574012,-0.421294531111384,0.606131343595068,0
1.91998291015625,-1.19932055473328,2.5656476020813,1.64141952991486,-0.91310780215452,2.5729316024492,1.70811431707208,1344.893,1322.813,3281.418,3274.067,-0.1019985,0.02419655,0.1069551,-0.992314159870148,-0.425678372383118,0.566363036632538,-0.98700543065471,-0.424680863071164,0.611003379164165,0
1.94000244140625,-1.219313621521,2.55711150169373,1.65287339687347,-0.932943991899774,2.5643966441608,1.72039386345315,1352.143,1323.587,3268.909,3275.649,-0.1014382,0.02485693,0.1063609,-0.9996577501297,-0.426806688308716,0.57269561290741,-0.994638524886308,-0.427965170275055,0.615728628108227,0
1.9599609375,-1.23944842815399,2.54855465888977,1.66445517539978,-0.952869434730639,2.55582328276311,1.73272866174593,1370.525,1325.502,3265.177,3258.833,-0.1009274,0.02552545,0.1056339,-1.00673651695251,-0.427837878465652,0.579086899757385,-1.00200923318578,-0.431136580142566,0.620291447661127,0
1.97998046875,-1.25971937179565,2.53997802734375,1.67616903781891,-0.973001172086935,2.54716115859433,1.74519116617712,1343.808,1321.115,3281.84,3271.089,-0.1004896,0.0261267,0.1049726,-1.01354658603668,-0.428826332092285,0.585693061351776,-1.0091596546337,-0.434213206731958,0.624717899159203,0
2,-1.28011918067932,2.5313835144043,1.68800067901611,-0.993273599084619,2.53843849960327,1.7577407641983,1350.851,1322.51,3268.124,3271.994,-0.1000065,0.02673786,0.1042116,-1.01999545097351,-0.429729908704758,0.591580450534821,-1.01606400046349,-0.437183953857422,0.628992018127441,0
2.02001953125,-1.30064260959625,2.52277207374573,1.69995081424713,-1.01368176147806,2.52965743746343,1.77037438889544,1369.036,1325.039,3263.392,3254.481,-0.0995708,0.0273506,0.1033326,-1.02616894245148,-0.430569410324097,0.597508072853088,-1.0227194988233,-0.440047628868552,0.633112088657522,0
2.03997802734375,-1.32128357887268,2.51414442062378,1.71202039718628,-1.03415783849082,2.52084715356021,1.78305005597715,1353.409,1324.356,3269.327,3262.132,-0.09928051,0.02789954,0.1025,-1.03204941749573,-0.431381851434708,0.603480637073517,-1.02910434715509,-0.442794850733705,0.637064613927399,0
2.05999755859375,-1.342036485672,2.50550031661987,1.72420823574066,-1.05482201812353,2.5119559343546,1.79584216754118,1329.708,1319.607,3283.588,3270.688,-0.09891886,0.02840322,0.1017053,-1.03764379024506,-0.432202458381653,0.609392940998077,-1.03525504859546,-0.445441325732794,0.640872191117535,0
2.08001708984375,-1.36289381980896,2.49684119224548,1.73649752140045,-1.07560676837143,2.50301283698163,1.80870891805959,1348.142,1323.142,3262.528,3263.922,-0.09843948,0.02893442,0.1007831,-1.04287004470825,-0.432957917451859,0.614466488361359,-1.0411492471255,-0.447977434695423,0.644520980787238,0
2.0999755859375,-1.38385033607483,2.48816800117493,1.74889028072357,-1.09644304044274,2.49404757120739,1.82160756304102,1368.33,1327.042,3254.336,3245.992,-0.09804587,0.02945656,0.0997635,-1.04782330989838,-0.43366402387619,0.619636356830597,-1.04676782045836,-0.450394949835787,0.647999145330045,0
2.1199951171875,-1.40490067005157,2.47948026657104,1.76139235496521,-1.11745308225396,2.48500753716864,1.83461377976925,1333.339,1323.686,3271.597,3262.683,-0.09777689,0.02988691,0.09886156,-1.05251085758209,-0.434386402368546,0.625101327896118,-1.0521429102862,-0.45270770082608,0.651326581984514,0
2.1400146484375,-1.42603754997253,2.470778465271,1.77398896217346,-1.13856809990831,2.47592233495728,1.84768498154507,1333.479,1325.088,3259.981,3265.403,-0.0974424,0.03031795,0.09788828,-1.05684530735016,-0.435089588165283,0.629830777645111,-1.05725481901126,-0.454907212340279,0.654491096999312,0
2.15997314453125,-1.44725549221039,2.46206283569336,1.7866792678833,-1.15971797923886,2.46682213274057,1.86077776435915,1351.4,1328.349,3254.878,3244.85,-0.09708714,0.03075468,0.09681172,-1.06090342998505,-0.435783863067627,0.634515881538391,-1.06208716414724,-0.456986435452193,0.657482548835001,0
2.17999267578125,-1.4685492515564,2.45333290100098,1.79946553707123,-1.18102676265167,2.45765355853653,1.8739689163698,1325.086,1326.217,3267.294,3255.121,-0.09676702,0.03111987,0.09584637,-1.06468141078949,-0.436501055955887,0.639311194419861,-1.06666760390386,-0.458957270716794,0.660318059240953,0
2.20001220703125,-1.48991131782532,2.44458913803101,1.81233215332031,-1.20242455577657,2.44844668594002,1.88721516963236,1332.379,1328.335,3250.393,3255.176,-0.09638672,0.03148688,0.09482855,-1.06810748577118,-0.437186866998672,0.643332958221436,-1.07097916161324,-0.460812413548163,0.662987118851036,0
2.219970703125,-1.51133692264557,2.43583202362061,1.82528042793274,-1.22384034501537,2.43923207011845,1.90047256334669,1347.925,1331.322,3244.912,3237.713,-0.0960469,0.03184382,0.0937444,-1.07127618789673,-0.437860012054443,0.647413194179535,-1.07500824518964,-0.462546015651526,0.665481313516697,0
2.239990234375,-1.53282070159912,2.42706060409546,1.83831393718719,-1.24539969505118,2.42995568409656,1.91381882803312,1313.532,1328.552,3260.018,3253.236,-0.09576727,0.03211922,0.09279558,-1.07418823242188,-0.43856605887413,0.651678025722504,-1.07877792518082,-0.464168003639063,0.667814925005999,0
2.260009765625,-1.55435609817505,2.4182755947113,1.85141670703888,-1.26703177594152,2.42064800401982,1.92721011658316,1317.686,1330.131,3244.887,3253.873,-0.09538005,0.0324044,0.09178422,-1.07676732540131,-0.439251810312271,0.655141413211823,-1.08227399942825,-0.465672266718726,0.669979161506271,0
2.27996826171875,-1.5759379863739,2.40947723388672,1.86458849906921,-1.28866484336891,2.41133989946375,1.94060201584662,1336.458,1333.54,3237.946,3233.233,-0.09497205,0.03269641,0.09068575,-1.07909572124481,-0.439923614263535,0.658591568470001,-1.08548570791771,-0.467054175156991,0.671967362056137,0
2.29998779296875,-1.59756135940552,2.40066504478455,1.87783241271973,-1.31042570636616,2.40197680804417,1.95407302665558,1306.393,1331.675,3250.251,3245.999,-0.09460667,0.03291766,0.0897157,-1.08117151260376,-0.440614819526672,0.662197649478912,-1.08843144721369,-0.468321644481621,0.673790915005368,0
2.32000732421875,-1.61921989917755,2.39183950424194,1.89113306999207,-1.33224276726637,2.39258953623693,1.96757882664355,1311.476,1333.228,3234.366,3246.418,-0.09415179,0.03314926,0.08869398,-1.0829256772995,-0.441272139549255,0.665034532546997,-1.09109983431736,-0.469469776906228,0.675442773735451,0
2.3399658203125,-1.64090871810913,2.38300132751465,1.90449118614197,-1.354043721977,2.38320919447311,1.98107465613292,1328.068,1336.151,3228.679,3226.872,-0.09369214,0.03338541,0.08760201,-1.08444201946259,-0.441908270120621,0.667905271053314,-1.09348297402779,-0.470495175346408,0.676918050740891,0
2.3599853515625,-1.66262292861938,2.37415027618408,1.91790974140167,-1.37595634130987,2.37378080654189,1.99463961134278,1295.631,1333.954,3241.805,3240.87,-0.09326923,0.03355337,0.08664929,-1.0857161283493,-0.442557275295258,0.670930087566376,-1.09559452046326,-0.471403714787811,0.678225198571351,0
2.3800048828125,-1.68435668945313,2.36528706550598,1.93137288093567,-1.39790843013262,2.36433543599182,2.00822900004707,1301.378,1334.989,3225.887,3240.518,-0.09272967,0.03373942,0.0856434,-1.08668065071106,-0.443161725997925,0.673158407211304,-1.09742594550583,-0.472191725819537,0.679358937915576,0
2.39996337890625,-1.70610499382019,2.35641241073608,1.94488096237183,-1.41982729721844,2.35490435982705,2.02179782291363,1319.814,1337.731,3219.247,3219.851,-0.09216721,0.0339375,0.08456562,-1.08741641044617,-0.44372895359993,0.675404846668243,-1.09897224258044,-0.472857054252202,0.680316169465103,0
2.41998291015625,-1.72786343097687,2.34752655029297,1.95843720436096,-1.4418413890156,2.34543231112926,2.03542559441269,1288.092,1335.573,3231.416,3233.813,-0.09164257,0.03407253,0.08362927,-1.08791971206665,-0.444289833307266,0.677814185619354,-1.10024227275454,-0.473403512755585,0.681102378642803,0
2.44000244140625,-1.74962592124939,2.33863067626953,1.97202622890472,-1.46387808506052,2.33595053645515,2.04906735901791,1293.3,1336.067,3215.793,3233.965,-0.09100287,0.03422902,0.0826413,-1.08812761306763,-0.444789230823517,0.679449856281281,-1.10123038958312,-0.473828671822132,0.681714070030222,0
2.4599609375,-1.77138829231262,2.32972598075867,1.98564851284027,-1.48586448079375,2.32649040459993,2.06267798533405,1311.3,1338.372,3209.571,3213.354,-0.09033336,0.0344027,0.0815792,-1.08811700344086,-0.445235639810562,0.681115031242371,-1.10193449000042,-0.474131626561409,0.682149941729488,0
2.47998046875,-1.79314589500427,2.32081294059753,1.99930727481842,-1.50792940965705,2.3169964821328,2.07633722739875,1279.769,1336.137,3221.424,3227.119,-0.08969207,0.03452075,0.08065356,-1.08788096904755,-0.445657581090927,0.682937979698181,-1.10235860927677,-0.474314113237503,0.682412491765153,0
2.5,-1.81489300727844,2.31189298629761,2.01298713684082,-1.52999999932945,2.30750012397766,2.08999997377396,1286.028,1336.189,3205.742,3226.398,-0.08892614,0.03466739,0.0796706,-1.08735883235931,-0.445999383926392,0.683988213539124,-1.10250000050292,-0.474374949932098,0.682500019669533,0
2.51995849609375,-1.83662545681,2.30296754837036,2.02668857574463,-1.55200330634561,2.29803271566984,2.10362106897983,1304.862,1338.137,3199.394,3205.178,-0.08812666,0.03483656,0.0786121,-1.08662343025208,-0.446268647909164,0.685073971748352,-1.10235947007672,-0.474314483615674,0.682413024641328,0
2.53997802734375,-1.85833883285522,2.29403758049011,2.04041504859924,-1.57406826106879,2.28853878207593,2.11728032705303,1273.613,1335.729,3210.915,3218.919,-0.08735914,0.03495466,0.07769058,-1.0856671333313,-0.446492791175842,0.686324000358582,-1.10193621258339,-0.474132367740737,0.682151008090402,0
2.55999755859375,-1.88002753257751,2.28510522842407,2.0541512966156,-1.59612191359838,2.27904971150017,2.13093258853001,1279.834,1335.133,3195.609,3218.222,-0.08646645,0.03510477,0.07671143,-1.08443295955658,-0.446618616580963,0.686813473701477,-1.10123038958312,-0.473828671822132,0.681714070030222,0
2.58001708984375,-1.90168738365173,2.27617216110229,2.06789803504944,-1.6181586096433,2.26956793682606,2.14457435313522,1298.842,1336.581,3189.35,3196.906,-0.08553647,0.03528211,0.07565431,-1.08299005031586,-0.446653485298157,0.687341213226318,-1.10024227275454,-0.473403512755585,0.681102378642802,0
2.5999755859375,-1.9233136177063,2.26724004745483,2.08165550231934,-1.64010562536668,2.26012474908893,2.15816060134934,1281.337,1336.087,3191.315,3204.883,-0.08469705,0.03542474,0.0746906,-1.0813170671463,-0.446610152721405,0.687872409820557,-1.09897654259203,-0.472858904427064,0.680318831377119,0
2.6199951171875,-1.94490230083466,2.25830984115601,2.09542202949524,-1.66209156852628,2.2506648119635,2.17177094750084,1257.789,1331.152,3201.624,3212.516,-0.08373404,0.03555625,0.07378722,-1.07942974567413,-0.44650599360466,0.688327729701996,-1.09742594550583,-0.472191725819537,0.679358937915576,0
2.6400146484375,-1.96644759178162,2.24938440322876,2.10918164253235,-1.68404365734903,2.24121944141343,2.18536033620513,1277.032,1331.486,3181.03,3202.999,-0.08258089,0.03574657,0.07277373,-1.07727181911469,-0.446267753839493,0.687976181507111,-1.09559452046326,-0.471403714787811,0.678225198571351,0
2.65997314453125,-1.9879457950592,2.24046635627747,2.1229362487793,-1.70588953556828,2.23181977031887,2.19888397548635,1298.677,1333.302,3172.195,3181.772,-0.08143947,0.0359623,0.07168636,-1.07490491867065,-0.445899933576584,0.687728822231293,-1.09348983658457,-0.470498128112872,0.676922298990445,0
2.67999267578125,-2.00939249992371,2.23155784606934,2.13669109344482,-1.72775723139253,2.2224107117184,2.21242112090437,1264.221,1330.324,3184.328,3198.445,-0.08038858,0.03612761,0.07073782,-1.07232570648193,-0.445441484451294,0.687741160392761,-1.09109983431736,-0.469469776906228,0.675442773735451,0
2.70001220703125,-2.03078198432922,2.22266054153442,2.15043210983276,-1.74957429229274,2.21302343991116,2.22592692089233,1266.428,1328.1,3172.327,3199.176,-0.07922105,0.03633053,0.06972124,-1.06948435306549,-0.444856524467468,0.687051475048065,-1.08843144721369,-0.468321644481621,0.673790915005369,0
2.719970703125,-2.05211091041565,2.21377754211426,2.16415953636169,-1.77126890221328,2.20368885533958,2.23935691789074,1286.199,1328.533,3167.317,3175.68,-0.07798108,0.03657446,0.06860656,-1.06643342971802,-0.444151222705841,0.686371922492981,-1.08549510920706,-0.467058220269158,0.671973181902092,0
2.739990234375,-2.07337379455566,2.20491075515747,2.17787551879883,-1.79296822271738,2.1943522439355,2.25278983096475,1260.014,1325.927,3176.022,3186.272,-0.07675496,0.03678812,0.06760656,-1.06315660476685,-0.443340867757797,0.685796201229095,-1.08227399942825,-0.465672266718727,0.669979161506271,0
2.760009765625,-2.09456610679626,2.19606328010559,2.19156527519226,-1.81460030360772,2.18504456385877,2.26618111951479,1270.145,1323.761,3160.105,3183.206,-0.07541699,0.03704287,0.06654101,-1.05961167812347,-0.442379206418991,0.684493660926819,-1.07877792518082,-0.464168003639063,0.667814925005998,0
2.77996826171875,-2.11568355560303,2.18723773956299,2.2052309513092,-1.83609403998392,2.17579640956157,2.27948676622032,1288.83,1323.722,3154.311,3162.457,-0.07407317,0.03732565,0.06540266,-1.05585825443268,-0.441277474164963,0.683280944824219,-1.0750201524698,-0.462551139021528,0.665488684690339,0
2.79998779296875,-2.13672113418579,2.17843651771545,2.21887588500977,-1.85757544288233,2.1665535620153,2.29278477791556,1256.842,1320.417,3165.039,3177.269,-0.07278685,0.03756878,0.0643906,-1.05188739299774,-0.440064549446106,0.682251334190369,-1.07097916161324,-0.460812413548163,0.662987118851036,0
2.82000732421875,-2.15767455101013,2.16966247558594,2.2324857711792,-1.87897323600723,2.1573466894188,2.30603103117811,1263.056,1317.439,3151.4,3175.809,-0.07137272,0.0378551,0.06330027,-1.04765820503235,-0.438703298568726,0.680500268936157,-1.06666760390385,-0.458957270716794,0.660318059240952,0
2.8399658203125,-2.17853879928589,2.16091823577881,2.24606156349182,-1.90021719432543,2.14820600764196,2.31918205336715,1283.877,1317.34,3145.217,3152.598,-0.06990798,0.03818064,0.06210949,-1.04321849346161,-0.437198758125305,0.678784251213074,-1.06210153574728,-0.456992619150195,0.65749144554004,0
2.8599853515625,-2.19930958747864,2.15220713615417,2.259605884552,-1.92143189875059,2.13907791299805,2.33231496600284,1256.767,1314.639,3153.571,3164.082,-0.06848798,0.03847549,0.06102608,-1.03855383396149,-0.435571134090424,0.677213788032532,-1.05725481901126,-0.454907212340279,0.654491096999312,0
2.8800048828125,-2.21998238563538,2.14353108406067,2.27310490608215,-1.94254691640495,2.12999271078668,2.34538616777867,1264.583,1311.617,3139.182,3161.906,-0.06696678,0.03881072,0.05986734,-1.03362834453583,-0.433786869049072,0.674950480461121,-1.0521429102862,-0.45270770082608,0.651326581984514,0
2.89996337890625,-2.24055218696594,2.13489389419556,2.28656029701233,-1.96349306806643,2.12098016689448,2.3583528334607,1283.722,1311.136,3134.053,3139.581,-0.06542695,0.03917833,0.05862019,-1.02848982810974,-0.431856662034988,0.672768414020538,-1.04678460577819,-0.450402172089984,0.648009536242619,0
2.91998291015625,-2.26101446151733,2.12629795074463,2.29997491836548,-1.98439323028747,2.1119874109737,2.37129102948832,1254.423,1308.19,3142.908,3152.542,-0.06394622,0.03951193,0.05748655,-1.02312421798706,-0.429803729057312,0.670728385448456,-1.0411492471255,-0.447977434695422,0.644520980787238,0
2.94000244140625,-2.28136467933655,2.11774587631226,2.31333470344543,-2.00517798053537,2.10304431360073,2.38415778000673,1262.203,1304.653,3129.26,3149.671,-0.06235525,0.03988625,0.05627398,-1.01750183105469,-0.427598923444748,0.667992532253265,-1.03525504859546,-0.445441325732794,0.640872191117535,0
2.9599609375,-2.30159759521484,2.10924100875854,2.32664084434509,-2.02577934803935,2.09418012069934,2.39691100787092,1282.223,1304.041,3123.542,3126.76,-0.06073765,0.04029306,0.05497063,-1.01166379451752,-0.425248920917511,0.665313184261322,-1.02912348666547,-0.442803085930327,0.637076462196068,0
2.97998046875,-2.32170963287354,2.10078573226929,2.3398962020874,-2.04631823718085,2.08534281049189,2.40962555865248,1254.56,1301.306,3131.19,3138.864,-0.05918662,0.04066639,0.05377712,-1.0055969953537,-0.422774583101273,0.662768840789795,-1.0227194988233,-0.440047628868552,0.633112088657521,0
3,-2.34169507026672,2.09238243103027,2.35308742523193,-2.06672639957428,2.07656174835205,2.42225918334961,1261.656,1297.536,3117.862,3136.414,-0.05754079,0.04107557,0.05250838,-0.999277710914612,-0.420152187347412,0.659557402133942,-1.01606400046349,-0.437183953857422,0.628992018127441,0
3.01995849609375,-2.36154985427856,2.08403468132019,2.36621570587158,-2.08693723170091,2.06786559191325,2.43477065121144,1280.596,1296.735,3112.601,3113.96,-0.05587525,0.04151423,0.05115063,-0.992743492126465,-0.417389988899231,0.656410813331604,-1.00918107987623,-0.434222425415264,0.624731162404951,0
3.03997802734375,-2.38126945495605,2.07574462890625,2.37928342819214,-2.10706940546153,2.05920327997188,2.4472334257977,1252.947,1294.173,3119.783,3125.97,-0.05427842,0.04191907,0.04989889,-0.985980808734894,-0.414507865905762,0.653385937213898,-1.00203140433628,-0.431146119769234,0.620305172659443,0
3.05999755859375,-2.40084886550903,2.06751489639282,2.39227747917175,-2.12705600675913,2.05060360379452,2.45960608409476,1260.507,1290.264,3106.611,3122.759,-0.05258678,0.04235853,0.04856915,-0.978970646858215,-0.411485761404037,0.649700284004211,-0.994638524886308,-0.427965170275055,0.615728628108227,0
3.08001708984375,-2.42028379440308,2.05934834480286,2.40519905090332,-2.14689219650438,2.04206864550612,2.47188563047583,1279.54,1289.466,3101.171,3100.119,-0.05088022,0.04282494,0.0471523,-0.971745491027832,-0.408330380916595,0.646076381206512,-0.987005430654711,-0.424680863071165,0.611003379164165,0
3.0999755859375,-2.4395694732666,2.05124735832214,2.41804766654968,-2.16651343412374,2.03362617511243,2.48403211125138,1263.876,1288.124,3100.818,3106.725,-0.04929405,0.04326394,0.04581026,-0.964286029338837,-0.405054181814194,0.642434656620026,-0.979159571260203,-0.421305008961644,0.606146418448853,0
3.1199951171875,-2.45870184898376,2.04321384429932,2.43082213401794,-2.18603502400946,2.02522658035469,2.49611690533293,1244.965,1282.918,3107.428,3111.49,-0.04764235,0.04369704,0.04449962,-0.956614196300507,-0.401678204536438,0.63871842622757,-0.971056158224178,-0.417818336715394,0.601130019760458,0
3.1400146484375,-2.4776759147644,2.03525066375732,2.4435088634491,-2.20539207344272,2.01689778275692,2.50809984103626,1261.954,1280.279,3090.794,3101.003,-0.04585377,0.04417466,0.04307998,-0.94870513677597,-0.398169487714767,0.634336173534393,-0.962722140342815,-0.41423244164655,0.595970865687568,0
3.15997314453125,-2.49648761749268,2.02735996246338,2.45610976219177,-2.22452176174551,2.00866681230185,2.51994202936911,1281.628,1280.152,3083.36,3079.352,-0.04409343,0.04466934,0.04159007,-0.940579295158386,-0.394529104232788,0.630046486854553,-0.954187384555097,-0.410560174664568,0.590687445288169,0
3.17999267578125,-2.51513195037842,2.01954436302185,2.46862840652466,-2.24353658854737,2.00048526354177,2.53171311296128,1252.438,1278.04,3090.036,3092.813,-0.04245878,0.04511996,0.04021733,-0.932231366634369,-0.390782535076141,0.625930666923523,-0.945403214201559,-0.406780591562751,0.585249625391267,0
3.20001220703125,-2.53360509872437,2.01180553436279,2.4810528755188,-2.26237335188561,1.99238033051557,2.54337396678712,1255.174,1273.647,3079.545,3091.668,-0.04075755,0.04559347,0.03877903,-0.923657476902008,-0.386926352977753,0.62121844291687,-0.93639902618694,-0.402906341007952,0.579675604081262,0
3.219970703125,-2.55190300941467,2.00414633750916,2.49338364601135,-2.2809710931091,1.98437824202785,2.55488685453773,1272.337,1272.689,3075.226,3069.017,-0.0390249,0.04608985,0.03725493,-0.914879858493805,-0.382966250181198,0.616541266441345,-0.927207006545169,-0.398951271751399,0.573985306046387,0
3.239990234375,-2.5700204372406,1.99656796455383,2.50562191009521,-2.2994392795179,1.97643189735754,2.5663195416865,1248.653,1271.146,3079.38,3078.283,-0.03735723,0.04655376,0.03582884,-0.905884265899658,-0.378913223743439,0.611916899681091,-0.917774783907129,-0.394892849856044,0.568146310914365,0
3.260009765625,-2.58795404434204,1.98907279968262,2.51775574684143,-2.31771654397337,1.96856770107001,2.57763403905129,1257.528,1267.029,3066.556,3073.318,-0.03561658,0.04704079,0.03433906,-0.896668910980225,-0.374756932258606,0.606686592102051,-0.908134108040216,-0.390744736359816,0.562178273303667,0
3.27996826171875,-2.60569906234741,1.98166275024414,2.5297863483429,-2.33574392582143,1.96081102228753,2.58879384717852,1274.076,1266.177,3061.355,3052.45,-0.03389032,0.04753888,0.03278995,-0.887254357337952,-0.370501637458801,0.601534605026245,-0.898319376918855,-0.386521731750139,0.556102487199064,0
3.29998779296875,-2.62325167655945,1.97433960437775,2.5417160987854,-2.35362764460945,1.95311615770631,2.59986472102797,1247.04,1264.596,3066.171,3064.489,-0.03226579,0.047995,0.03135474,-0.877634048461914,-0.366164267063141,0.596483051776886,-0.888274735793772,-0.382199803288803,0.549884375850026,0
3.32000732421875,-2.6406078338623,1.96710467338562,2.55353307723999,-2.37130830610839,1.94550866300381,2.61080989274252,1251.986,1260.196,3055.052,3061.705,-0.03056883,0.04847016,0.02985857,-0.8678138256073,-0.361741870641708,0.590849936008453,-0.878034183119985,-0.377793579561194,0.543544985919778,0
3.3399658203125,-2.65776395797729,1.95995986461639,2.56523847579956,-2.38872907693451,1.93801299199733,2.62159417975029,1268.698,1259.441,3050.093,3039.932,-0.02885642,0.04895967,0.02829092,-0.857808232307434,-0.357236295938492,0.58526736497879,-0.867634212728789,-0.373318762843399,0.537106908828335,0
3.3599853515625,-2.67471599578857,1.95290684700012,2.57683348655701,-2.40599272667425,1.93058492580486,2.63228120132087,1244.765,1258.491,3053.233,3049.864,-0.02722869,0.04941204,0.02682573,-0.847606658935547,-0.352658152580261,0.579749524593353,-0.857015715678588,-0.368749920209162,0.530533553325099,0
3.3800048828125,-2.69146013259888,1.94594669342041,2.58830690383911,-2.42304196557559,1.92324911460621,2.64283549236868,1251.298,1254.324,3041.766,3045.883,-0.02553865,0.04988074,0.02530361,-0.837217330932617,-0.348005026578903,0.573676824569702,-0.846214826007803,-0.364102599125748,0.523847288101157,0
3.39996337890625,-2.70799326896667,1.9390811920166,2.59966039657593,-2.43982220956584,1.91602904440295,2.65322326275251,1266.83,1253.677,3037.073,3025.092,-0.02385393,0.05035812,0.02372482,-0.826652109622955,-0.34327906370163,0.567678034305573,-0.835270008391825,-0.3593933498684,0.517071924622901,0
3.41998291015625,-2.7243115901947,1.93231129646301,2.61089539527893,-2.45643259034873,1.90888206159239,2.66350587971929,1241.964,1252.86,3040.202,3035.874,-0.02226616,0.05079548,0.02225613,-0.815903902053833,-0.338491886854172,0.561747252941132,-0.824119146742881,-0.354595445619869,0.510169010073001,0
3.44000244140625,-2.74041128158569,1.92563855648041,2.62200117111206,-2.47281804716281,1.90183185728196,2.67364925803476,1247.446,1248.569,3029.734,3032.081,-0.02061553,0.05124629,0.02073658,-0.804986715316772,-0.333644598722458,0.555284738540649,-0.812800388649434,-0.349725300221754,0.503162159625937,0
3.4599609375,-2.75628924369812,1.91906380653381,2.63297867774963,-2.48892635951887,1.8949009004893,2.68362107072849,1262.594,1247.95,3024.919,3011.712,-0.01896171,0.05170454,0.01916432,-0.793908178806305,-0.328736931085587,0.54887866973877,-0.801354035689029,-0.344800254316973,0.496076321878038,0
3.47998046875,-2.77194261550903,1.91258800029755,2.64382934570313,-2.50485284867397,1.88804817714046,2.69348032619939,1239.74,1247.434,3027.107,3021.272,-0.01740056,0.05212437,0.01769922,-0.78266179561615,-0.32377752661705,0.542531549930573,-0.789715229532172,-0.33979240117828,0.488871346433721,0
3.5,-2.78736782073975,1.90621268749237,2.65454316139221,-2.5205447997813,1.88129636896134,2.70319439144611,1244.851,1243.264,3016.956,3017.693,-0.01578615,0.05255397,0.01619194,-0.771264493465424,-0.318768888711929,0.535686254501343,-0.777924000354857,-0.334718964672089,0.481572013878822,0
3.51995849609375,-2.80256223678589,1.89993834495544,2.66512131690979,-2.53595246190338,1.87466688239045,2.71273246826842,1258.754,1242.658,3012.36,2998.47,-0.01417441,0.05298788,0.01464017,-0.759721755981445,-0.313710391521454,0.528903543949127,-0.766022343765667,-0.329598014335553,0.474204321495588,0
3.53997802734375,-2.81752300262451,1.89376616477966,2.67556476593018,-2.55116718971613,1.86812041006291,2.72215110956251,1236.46,1242.352,3014.132,3007.84,-0.01265481,0.05338446,0.01319369,-0.748028635978699,-0.308609813451767,0.52217710018158,-0.753942941956194,-0.324400585196356,0.466726596353819,0
3.55999755859375,-2.83224678039551,1.88769686222076,2.68586444854736,-2.56613872308604,1.86167857751006,2.73141920191151,1241.322,1238.277,3004.45,3004.197,-0.01108354,0.05378931,0.0117078,-0.73620480298996,-0.303471237421036,0.514978528022766,-0.741727567798258,-0.319144650954242,0.459164697851087,0
3.58001708984375,-2.84673166275024,1.8817310333252,2.69602131843567,-2.58086439685043,1.85534253147694,2.74053509545279,1254.817,1237.785,3000.059,2985.256,-0.009513344,0.05419755,0.01018224,-0.724252223968506,-0.298292905092239,0.507846713066101,-0.729381927869994,-0.313832666990361,0.451522158631107,0
3.5999755859375,-2.86097526550293,1.87586939334869,2.70603466033936,-2.59529790318687,1.84913219692586,2.7494701234383,1241.412,1237.717,2997.22,2990.639,-0.008058193,0.05457383,0.008741289,-0.712165594100952,-0.293080151081085,0.500671565532684,-0.716950039288888,-0.308483572640672,0.443826227386424,0
3.6199951171875,-2.87497472763062,1.87011253833771,2.71590328216553,-2.60952509409627,1.84301063413925,2.75827743234631,1228.725,1234.63,2999.267,2992.404,-0.006583334,0.05493546,0.007337407,-0.699970662593842,-0.287846624851227,0.493436247110367,-0.704361775018033,-0.303067194200314,0.436033492140578,0
3.6400146484375,-2.88872814178467,1.86446070671082,2.72561883926392,-2.62349913748426,1.83699799365897,2.76692803087948,1239.281,1232.034,2988.028,2983.864,-0.005032842,0.05531043,0.005882506,-0.687671840190887,-0.282585203647614,0.485779523849487,-0.691660998977508,-0.297602405088683,0.428171106749629,0
3.65997314453125,-2.9022331237793,1.85891509056091,2.73518300056458,-2.63717640706374,1.8311130466576,2.77539491228788,1251.625,1232.01,2982.709,2967.231,-0.003512177,0.05568239,0.004410393,-0.67526251077652,-0.277289986610413,0.478202939033508,-0.678893054168409,-0.29210871513241,0.420267140691237,0
3.67999267578125,-2.91548824310303,1.85347545146942,2.7445969581604,-2.65063849381582,1.82532068681534,2.78372858527554,1231.049,1231.856,2983.462,2976.647,-0.002106028,0.05601701,0.003046418,-0.662744224071503,-0.271968960762024,0.470695614814758,-0.665986083416798,-0.286555206197011,0.41227711095171,0
3.70001220703125,-2.92849087715149,1.84814286231995,2.75385355949402,-2.66384123964357,1.81963991412768,2.79190171387692,1233.371,1227.99,2976.198,2973.847,-0.0006700513,0.05635412,0.001659793,-0.650144457817078,-0.266632616519928,0.462826609611511,-0.65298533214413,-0.280961346123326,0.404229026602262,0
3.719970703125,-2.94124031066895,1.84291732311249,2.76295375823975,-2.67674377421065,1.81408831395855,2.7998889974069,1243.389,1227.533,2972.699,2957.919,0.0007656229,0.05669159,0.000248705,-0.637461245059967,-0.261278927326202,0.455013811588287,-0.639937296597115,-0.275347140947358,0.396151671034529,0
3.739990234375,-2.95373392105103,1.83779883384705,2.77189826965332,-2.68942333385363,1.80863265367006,2.80773824883709,1226.317,1227.646,2972.612,2964.507,0.002128216,0.05699986,-0.001070058,-0.624692559242249,-0.255910784006119,0.447221964597702,-0.62676873176137,-0.26968107538565,0.387999702095468,0
3.760009765625,-2.96597170829773,1.83278810977936,2.78067970275879,-2.70183851231475,1.80329074921818,2.81542383572149,1231.934,1224.029,2964.483,2959.614,0.003528891,0.05731215,-0.002408563,-0.611861824989319,-0.250533759593964,0.439073264598846,-0.613526094901139,-0.263983138701136,0.379801879044709,0
3.77996826171875,-2.97795057296753,1.82788562774658,2.78929972648621,-2.71395125899829,1.79807897271122,2.82292220292874,1242.098,1223.637,2960.525,2944.615,0.004909819,0.05762045,-0.003756122,-0.598964095115662,-0.24514365196228,0.431002736091614,-0.600256853941589,-0.258273755015919,0.371587586789143,0
3.79998779296875,-2.989670753479,1.82309055328369,2.79775929450989,-2.72583438304408,1.79296599641037,2.83027842278479,1224.785,1223.681,2960.259,2952.284,0.006195883,0.05789729,-0.005003547,-0.586001336574554,-0.239744678139687,0.422975182533264,-0.586886736182787,-0.252520966862155,0.36331084698941,0
3.82000732421875,-3.00113105773926,1.81840372085571,2.80605220794678,-2.73744929742843,1.78796842323393,2.8374686080838,1227.931,1220.113,2953.616,2948.805,0.007508031,0.0581749,-0.006263755,-0.573000848293304,-0.234345987439156,0.41464826464653,-0.573463232144022,-0.246745208083563,0.355001058539243,0
3.8399658203125,-3.01233005523682,1.81382465362549,2.81417989730835,-2.7487608239245,1.78310138939013,2.8444709818276,1236.512,1219.71,2950.12,2935.165,0.008809878,0.05844972,-0.007532485,-0.55995762348175,-0.228944003582001,0.406387239694595,-0.560034590932614,-0.240967238923098,0.346688089934488,0
3.8599853515625,-3.02326726913452,1.80935406684875,2.82214307785034,-2.75983729406747,1.77833549372837,2.85132784449154,1221.925,1219.866,2949.411,2940.872,0.01003526,0.05869776,-0.00871333,-0.546872735023499,-0.223540902137756,0.398158490657806,-0.546525890176286,-0.235154822377061,0.338325560657667,0
3.8800048828125,-3.03394269943237,1.8049910068512,2.82993602752686,-2.77064299647982,1.77368610185671,2.85801708903178,1226.075,1216.59,2942.553,2936.974,0.01128134,0.05894662,-0.009904296,-0.533770620822906,-0.218144327402115,0.389652162790298,-0.532985466132484,-0.229328756186666,0.329943393154704,0
3.89996337890625,-3.04435586929321,1.80073595046997,2.8375608921051,-2.78114566623477,1.76916709647178,2.86451874192163,1234.452,1216.272,2939.42,2923.723,0.01250536,0.05919124,-0.01109526,-0.520645022392273,-0.212750613689423,0.3812375664711,-0.519462149665189,-0.223510050908514,0.32157181605655,0
3.91998291015625,-3.05450582504272,1.79658889770508,2.84501814842224,-2.79140913007042,1.76475101471128,2.87087231495249,1219.68,1216.421,2938.595,2930.303,0.01364182,0.05940822,-0.01219355,-0.50749933719635,-0.207362830638885,0.372858226299286,-0.505880764601328,-0.217666360335509,0.313164291730931,0
