t,x_s1,x_s2,x_s3,x_s_d1,x_s_d2,x_s_d3,propellers_rpms1,propellers_rpms2,propellers_rpms3,propellers_rpms4,rollRad,pitchRad,yawRad,v_s1,v_s2,v_s3,v_s_d1,v_s_d2,v_s_d3,insideCount
0,-0.0599999986588955,2.94000005722046,1.17999994754791,-0.0599999986588955,2.94000005722046,1.17999994754791,0,0,0,0,0,0,0,0,0,0,-1.06581410364015E-15,4.44089209850063E-16,4.44089209850063E-16,0
0.0200004577636719,-0.0599999986588955,2.94000005722046,1.17811644077301,-0.0600018691155303,2.93999925241522,1.18000110544967,0,0,0,0,-0.01635288,0.0001297794,-0.01587137,-1.10653664009419E-09,-7.76775763711157E-08,-0.0941759571433067,-0.000279999361409376,-0.000120475902936966,0.000173332942931458,9
0.0400009155273438,-0.0599999986588955,2.94000005722046,1.17242503166199,-0.0600148724204753,2.93999365745638,1.18000915511487,0,0,0,0,-0.03270202,0.0005238493,-0.03175127,-1.08383135799528E-09,-7.60859677484405E-08,-0.284568399190903,-0.00111101934050116,-0.00047804058392963,0.00068777389696065,9
0.0600013732910156,-0.0599058866500854,2.93990302085876,1.16596508026123,-0.0600498951959519,2.93997858813451,1.18003083588125,1868.158,3252.8,3183.883,1722.412,-0.04942188,0.0003295469,-0.01369504,0.00470569217577577,-0.00484922388568521,-0.322996377944946,-0.0024796740721389,-0.00106693447916665,0.00153503637391071,9
0.0799980163574219,-0.0598203726112843,2.93960738182068,1.16000306606293,-0.0601175407449857,2.93994948214456,1.18007271169851,1925.485,2314.352,3252.117,2829.462,-0.07543244,-0.002136388,0.02094808,0.0042757336050272,-0.0147785618901253,-0.298098176717758,-0.00437227586895222,-0.00188126815916228,0.00270664704326441,9
0.0999984741210938,-0.059937447309494,2.93904495239258,1.15498650074005,-0.0602281887669101,2.93990187339187,1.18014120809498,980.123,1498.836,3915.017,3896.615,-0.1031954,-0.008062987,0.06330845,-0.00585371162742376,-0.0281167738139629,-0.250825703144073,-0.00677637982016689,-0.00291568692648091,0.00419490191241918,8
0.119998931884766,-0.0604638457298279,2.93818354606628,1.15081310272217,-0.0603919230601972,2.93983142309968,1.18024256742227,346.4363,980.3826,4172.827,4613.373,-0.1214316,-0.01542077,0.1040022,-0.0263198725879192,-0.0430683642625809,-0.208670407533646,-0.00967861374975049,-0.00416443710735115,0.00599152296740588,8
0.139999389648438,-0.0615636110305786,2.93704128265381,1.14728271961212,-0.0606185767455666,2.93973390035084,1.18038287685052,352.9347,747.0944,3975.34,4854.957,-0.1254008,-0.0211668,0.1351058,-0.0549883767962456,-0.0571136437356472,-0.176519200205803,-0.0130660253322238,-0.00562194567796536,0.00808849210174802,7
0.159999847412109,-0.0633408576250076,2.93568110466003,1.14427483081818,-0.0609177249752248,2.93960518522485,1.18056806385509,820.9657,814.9543,3462.733,4692.378,-0.118459,-0.0235237,0.1522694,-0.0888623595237732,-0.0680146142840385,-0.150395378470421,-0.0169257706321904,-0.00728268625174051,0.0104778583075938,7
0.180000305175781,-0.0658468976616859,2.93417239189148,1.1418251991272,-0.0612986871007165,2.9394412678651,1.18080389755851,1348.713,1083.389,3006.706,4255.232,-0.1079805,-0.02277961,0.1557774,-0.125302076339722,-0.0754305049777031,-0.122479163110256,-0.0212451141043368,-0.00914117907931815,0.0131517376757159,7
0.200000762939453,-0.0690849646925926,2.93255400657654,1.14006149768829,-0.0617705288407759,2.93923824754608,1.18109599007255,1636.46,1381.203,2918.471,3666.28,-0.09982806,-0.02030074,0.1501554,-0.161903500556946,-0.080915279686451,-0.0881876945495605,-0.0260114285934326,-0.0111919910485645,0.016102313395512,7
0.220001220703125,-0.0730102881789207,2.93082618713379,1.13903558254242,-0.0623420644491781,2.93899233174064,1.18144979784016,1641.386,1580.675,3148.263,3113.093,-0.09584025,-0.01735475,0.1421882,-0.196266412734985,-0.0863864943385124,-0.0512940622866154,-0.03121219533433,-0.0134297356845702,0.019321835755004,7
0.239997863769531,-0.077550008893013,2.92897367477417,1.1386331319809,-0.0630217183703222,2.93869989564571,1.18187053599376,1524.115,1624.232,3417.763,2777.446,-0.0947574,-0.01467775,0.1377335,-0.226986140012741,-0.0926252380013466,-0.0201223883777857,-0.0368338920540454,-0.0158485947310391,0.02280193382306,7
0.259998321533203,-0.0826389044523239,2.92699241638184,1.13863551616669,-0.063818066443955,2.93835724931701,1.18236351338666,1438.875,1500.755,3533.385,2744.256,-0.09438989,-0.01258876,0.1393033,-0.254444569349289,-0.0990586131811142,0.000119354575872421,-0.04286636357961,-0.0184441987007453,0.0265363210638542,7
0.279998779296875,-0.0882447585463524,2.92490077018738,1.1388521194458,-0.0647390625194898,2.93796097043536,1.18293365383054,1400.585,1275.99,3476.505,2977.718,-0.09320957,-0.01110591,0.1456851,-0.28029328584671,-0.104584835469723,0.010828890837729,-0.0492963837173861,-0.0212108567320638,0.030516809833474,7
0.299999237060547,-0.0943705141544342,2.92273259162903,1.1392068862915,-0.065792536715479,2.93750768991949,1.18358580454179,1350.7,1061.606,3345.009,3324.83,-0.09053203,-0.009935189,0.1533105,-0.306288033723831,-0.108406759798527,0.0177401658147573,-0.0561118672418845,-0.0241433688900884,0.0347359188016424,7
0.319999694824219,-0.101035833358765,2.92052578926086,1.13972496986389,-0.0669860785243584,2.93699414222283,1.18432466377777,1280.925,941.1552,3237.539,3590.509,-0.08597856,-0.008523713,0.1583591,-0.333265602588654,-0.110342144966125,0.0259051844477654,-0.0633008373176985,-0.0272365818771378,0.0391862337367069,7
0.340000152587891,-0.108251422643661,2.91831231117249,1.14046168327332,-0.0683270389802989,2.93641716440073,1.1851547821788,1253.053,944.178,3171.137,3649.792,-0.07944689,-0.006291984,0.1584758,-0.36077943444252,-0.110679857432842,0.0368327125906944,-0.0708514254995047,-0.0304853890327553,0.0438604075056398,7
0.360000610351563,-0.116002961993217,2.91611504554749,1.14145278930664,-0.0698225328270578,2.93577369517774,1.1860805641102,1319.682,1047.218,3120.703,3498.111,-0.07154902,-0.002963033,0.1534725,-0.3875772356987,-0.109858773648739,0.0495539009571075,-0.0787518717320621,-0.0338847303337087,0.0487511600740379,8
0.380001068115234,-0.124251306056976,2.91394996643066,1.14270770549774,-0.0714794406858296,2.93506077401475,1.18710626900424,1455.417,1181.676,3090.79,3231.227,-0.06361493,0.001259009,0.1450379,-0.41241779923439,-0.108257472515106,0.0627483278512955,-0.0869905243502129,-0.0374295923939903,0.0538512785061227,8
0.400001525878906,-0.132943093776703,2.91182661056519,1.14421725273132,-0.0733044112230977,2.93427554017634,1.18823601270221,1579.561,1273.629,3104.794,2981.756,-0.05701935,0.005826207,0.1357481,-0.434589415788651,-0.106166139245033,0.07547876983881,-0.0955558400788823,-0.0411150084648172,0.0591536169647403,8
0.419998168945313,-0.142023459076881,2.90975046157837,1.14595782756805,-0.0753034649285836,2.93341540321397,1.18947352217404,1631.273,1288.581,3158.99,2844.814,-0.05244137,0.01017544,0.1278581,-0.454018384218216,-0.10380307585001,0.0870274156332016,-0.104434660908044,-0.0449353170220673,0.0646500300148815,8
0.439998626708984,-0.151445895433426,2.90772461891174,1.14789569377899,-0.0774835548069347,2.93247737144397,1.19082310166083,1606.676,1237.966,3219.641,2843.056,-0.04965783,0.01397432,0.1224642,-0.471121519804001,-0.101291723549366,0.0968954041600227,-0.113619049702587,-0.0488871029382406,0.0703356041918149,8
0.459999084472656,-0.161176592111588,2.90575170516968,1.1499969959259,-0.0798502821969742,2.93145903476675,1.19228821865812,1541.508,1158.225,3252.586,2938.389,-0.04788417,0.01718557,0.1193429,-0.486535459756851,-0.098640039563179,0.1050626039505,-0.123096124252221,-0.0529648233581361,0.0762023647937057,8
0.479999542236328,-0.171193435788155,2.90383625030518,1.15223908424377,-0.0824093896672336,2.93035792231548,1.19387242808941,1474.66,1086.284,3248.027,3066.791,-0.04628574,0.01998748,0.1173774,-0.500842034816742,-0.0957780778408051,0.112101994454861,-0.13285477482153,-0.0571636980729742,0.0822434343651008,8
0.5,-0.181480884552002,2.90198349952698,1.15461575984955,-0.085166398670376,2.92917165836334,1.1955791479969,1431.711,1046.315,3216.434,3169.67,-0.04433417,0.02264394,0.1152223,-0.514372587203979,-0.0926388949155807,0.118834108114243,-0.142884000065179,-0.0614789935111996,0.0884520025491718,8
0.520000457763672,-0.192024111747742,2.9001989364624,1.15713477134705,-0.0881266117110474,2.92789796139072,1.19741166088358,1423.439,1045.054,3177.575,3210.387,-0.04192082,0.02537883,0.111885,-0.527160704135895,-0.0892273336648941,0.125953018665314,-0.153172907027918,-0.0659060227384819,0.0948213260877149,9
0.540000915527344,-0.202804386615753,2.89848613739014,1.15981006622314,-0.0912951145137283,2.92653464315245,1.19937311505516,1445.627,1073.418,3148.876,3184.466,-0.03929441,0.02828924,0.1070485,-0.539014518260956,-0.0856394246220589,0.133761987090111,-0.163710711144578,-0.0704401454577151,0.101344728821151,9
0.560001373291016,-0.213797688484192,2.89684557914734,1.16265308856964,-0.0946767781905844,2.92507960774504,1.20146652596211,1484.262,1113.898,3138.642,3114.094,-0.03688744,0.03132789,0.1010581,-0.549664437770844,-0.0820325613021851,0.142151057720184,-0.174486736240074,-0.0750767680090178,0.108015601688526,9
0.579998016357422,-0.22497595846653,2.8952739238739,1.16566812992096,-0.0982755538235842,2.92353115512831,1.2036943395124,1521.109,1148.76,3145.803,3034.926,-0.03512923,0.03434529,0.09465611,-0.558914124965668,-0.0785772874951363,0.150753855705261,-0.185488294752812,-0.0798104312890852,0.11482609048482,9
0.599998474121094,-0.236310660839081,2.89376544952393,1.1688517332077,-0.102097262171133,2.92188678079254,1.20606015903275,1540.262,1166.911,3163.595,2979.316,-0.03429139,0.03716028,0.08861998,-0.566734373569489,-0.0754200965166092,0.159179419279099,-0.196709126405959,-0.0846384416756885,0.121772319800455,9
0.619998931884766,-0.247775986790657,2.89231204986572,1.17219471931458,-0.106145477944935,2.92014494663912,1.20856619743999,1534.901,1167.277,3181.92,2964.201,-0.03441763,0.0396318,0.08346048,-0.573266386985779,-0.0726661533117294,0.167147934436798,-0.208136802817102,-0.0895554515830839,0.128846595874672,9
0.639999389648438,-0.259351223707199,2.89090442657471,1.17568707466125,-0.110424235525481,2.91830391678686,1.21121495220784,1507.098,1156.455,3194.621,2986.729,-0.03534281,0.04169879,0.07929619,-0.57876318693161,-0.0703801214694977,0.17461995780468,-0.219761081350814,-0.0945570538913933,0.136042578028218,9
0.659999847412109,-0.271021008491516,2.88953256607056,1.17932057380676,-0.114937365519793,2.91636204303257,1.21400879466451,1466.798,1144.357,3197.64,3031.265,-0.03678092,0.04338551,0.0759046,-0.583489835262299,-0.068595290184021,0.181675463914871,-0.231571827761751,-0.0996388881179631,0.143353992680462,9
0.680000305175781,-0.28277400135994,2.88818597793579,1.18308985233307,-0.119688496929273,2.91431776391831,1.21694997133476,1429.171,1139.671,3190.664,3075.184,-0.03844699,0.04477655,0.07288269,-0.587649941444397,-0.0673244073987007,0.188462302088737,-0.243559016194652,-0.104796640417365,0.150774633349401,9
0.700000762939453,-0.294601023197174,2.88685441017151,1.18699264526367,-0.124681059317553,2.91216960379868,1.22004060528183,1404.23,1146.251,3177.448,3102.043,-0.04017005,0.04596731,0.06985666,-0.591350793838501,-0.0665746331214905,0.195138514041901,-0.255712729184339,-0.110026043581393,0.158298360651655,9
0.720001220703125,-0.306493312120438,2.88552713394165,1.19102895259857,-0.129918284978346,2.90991617190799,1.22328269744952,1393.683,1162.894,3163.458,3106.674,-0.04193307,0.04702107,0.06662886,-0.594614863395691,-0.0663603916764259,0.201816260814667,-0.268023157655716,-0.11532287703907,0.16591910230247,9
0.739997863769531,-0.31844174861908,2.884192943573,1.19519972801208,-0.135402141159277,2.90755662179454,1.22667746565781,1392.479,1185.098,3153.508,3093.922,-0.04383244,0.0479526,0.06321918,-0.597422122955322,-0.0667099952697754,0.208536118268967,-0.280478211503383,-0.120681938755799,0.173629373950669,9
0.759998321533203,-0.330436915159225,2.88283967971802,1.19950497150421,-0.141137563960274,2.90508882959244,1.2302279655877,1392.086,1207.503,3149.975,3074.749,-0.04600185,0.04873379,0.05981385,-0.599757254123688,-0.0676623806357384,0.215262979269028,-0.293073051970232,-0.126101146749576,0.181426180175103,9
0.779998779296875,-0.342469751834869,2.88145446777344,1.20394253730774,-0.147126184485884,2.90251209348295,1.23393520697061,1387.446,1226.498,3150.637,3059.292,-0.04853877,0.0493181,0.05665208,-0.601642191410065,-0.069255642592907,0.221880257129669,-0.305795832832518,-0.131575403921268,0.189302187598958,9
0.799999237060547,-0.354532778263092,2.88002419471741,1.20850884914398,-0.153370467664426,2.8998253528763,1.23780071571459,1374.525,1240.674,3153.893,3054.106,-0.05147145,0.04966119,0.05393432,-0.603150844573975,-0.0715192705392838,0.228316947817802,-0.318637178554805,-0.1371006762399,0.197251592319181,9
0.819999694824219,-0.366620600223541,2.87853479385376,1.21319890022278,-0.159872691993147,2.89702762739878,1.24182590231796,1352.615,1250.883,3156.327,3062.075,-0.05474713,0.04973945,0.05175881,-0.604392468929291,-0.0744673237204552,0.234500125050545,-0.331587821991737,-0.142672976311719,0.205268657531342,9
0.840000152587891,-0.378730416297913,2.87697291374207,1.21800720691681,-0.166634951706069,2.89411801595997,1.24601206321137,1326.569,1259.574,3155.828,3078.189,-0.05825505,0.04955992,0.05010128,-0.605490744113922,-0.0780970454216003,0.240415558218956,-0.344638604388044,-0.148288363380199,0.213347713529636,8
0.860000610351563,-0.390861570835114,2.87532520294189,1.22292900085449,-0.173659158941841,2.89109569582005,1.2503603820997,1300.266,1269.123,3151.834,3097.211,-0.06187695,0.04915145,0.04886192,-0.606555938720703,-0.0823914781212807,0.246089071035385,-0.357780475378537,-0.153942943326036,0.221483157706883,8
0.880001068115234,-0.403014987707138,2.87357878684998,1.22796046733856,-0.180947045911593,2.88795992165696,1.25487193130418,1277.443,1280.953,3145.494,3113.352,-0.06551536,0.04855438,0.04791845,-0.607670366764069,-0.0873252302408218,0.25157618522644,-0.37100449298811,-0.159632868667153,0.229669454554527,8
0.899997711181641,-0.415192663669586,2.87172150611877,1.23309910297394,-0.188498701076517,2.88471065540831,1.25954676558649,1259.594,1295.192,3138.518,3123.675,-0.06911808,0.04780639,0.04717969,-0.608884930610657,-0.0928698256611824,0.256929159164429,-0.384299280991351,-0.165353244531568,0.237899561647111,8
0.919998168945313,-0.427397191524506,2.86974167823792,1.2383428812027,-0.196318384305134,2.8813460641717,1.26438752200817,1245.953,1310.821,3132.797,3128.233,-0.07266808,0.04693304,0.04661272,-0.610227942466736,-0.0989966094493866,0.262187659740448,-0.397661187980262,-0.171102499820431,0.246171218589148,8
0.939998626708984,-0.439631581306458,2.86762809753418,1.24368965625763,-0.204405885800988,2.87786623821667,1.26939407069523,1236.583,1326.567,3127.951,3128.611,-0.07617759,0.04594859,0.04623392,-0.611716866493225,-0.105674967169762,0.267337024211884,-0.411079067636589,-0.176875838584386,0.254477525278661,8
0.959999084472656,-0.451899081468582,2.86537051200867,1.24913787841797,-0.212762239776093,2.87427073255068,1.27456705187416,1227.897,1341.074,3125.695,3127.996,-0.07966953,0.04485394,0.04609939,-0.613375842571259,-0.112876541912556,0.272408723831177,-0.424544411524882,-0.18266959988136,0.262813214588797,8
0.979999542236328,-0.464203804731369,2.86295914649963,1.25468552112579,-0.221388311353785,2.87055917493534,1.27990700109753,1216.714,1353.422,3125.072,3131.023,-0.08315081,0.04364501,0.04627075,-0.615236937999725,-0.120570190250874,0.277380585670471,-0.438048819599778,-0.188480169406503,0.271173086491326,8
1,-0.476550698280334,2.8603847026825,1.2603303194046,-0.230284798736574,2.86673126495361,1.28541435058594,1204.669,1363.632,3124.976,3137.013,-0.08659641,0.0423261,0.04677387,-0.617344319820404,-0.128720551729202,0.282238781452179,-0.451584000205995,-0.194303979492187,0.279552008056641,8
1.02000045776367,-0.488945603370667,2.85763907432556,1.26607000827789,-0.239452235373992,2.86278677307706,1.29108943057007,1192.099,1372.326,3124.589,3145.866,-0.08996637,0.04090735,0.0476033,-0.619745790958405,-0.137286767363548,0.286987274885178,-0.465141770078335,-0.200137509108014,0.287944913453762,8
1.04000091552734,-0.501395285129547,2.8547146320343,1.27190279960632,-0.24889099213045,2.8587255397331,1.29693247063265,1180.033,1380.114,3123.514,3156.439,-0.09321649,0.03940749,0.04872351,-0.622485518455505,-0.146223351359367,0.291641145944595,-0.478714054341683,-0.205977283860805,0.296346803950333,8
1.05999755859375,-0.513907313346863,2.85160493850708,1.277827501297,-0.258599401509697,2.85454828239877,1.30294243851408,1169.768,1387.533,3122.093,3166.703,-0.09630629,0.03784933,0.05008269,-0.625598788261414,-0.155482426285744,0.296233713626862,-0.492290296490434,-0.211818761581115,0.30475114456651,8
1.07999801635742,-0.526489436626434,2.84830451011658,1.28384351730347,-0.268581219802083,2.85025338484727,1.30912165953701,1161.203,1394.728,3121.079,3175.936,-0.09920488,0.03625697,0.05163265,-0.629108250141144,-0.165015742182732,0.300802886486053,-0.50586781946303,-0.217660790404144,0.31315627807366,8
1.09999847412109,-0.539149880409241,2.84480905532837,1.28995048999786,-0.278834517009062,2.84584167750307,1.31546893894041,1156.986,1401.782,3119.481,3182.485,-0.1018963,0.03465422,0.05332953,-0.633023321628571,-0.174771755933762,0.305347293615341,-0.519436284009554,-0.223498921639497,0.321555803983559,7
1.11999893188477,-0.551896870136261,2.84111499786377,1.29614901542664,-0.289359035362208,2.84131327127672,1.32198411715334,1155.045,1408.324,3119.327,3186.909,-0.1043869,0.03305619,0.05515575,-0.637349784374237,-0.184704557061195,0.309927225112915,-0.532988048794549,-0.229329867434001,0.329944991945551,7
1.13999938964844,-0.564738690853119,2.83721971511841,1.3024400472641,-0.300154365346813,2.83666834237095,1.3286669406667,1153.114,1413.774,3120.6,3191.771,-0.1066868,0.03147229,0.05711245,-0.642086923122406,-0.19476917386055,0.314553737640381,-0.546515580872639,-0.235150386571708,0.338319178707607,7
1.15999984741211,-0.577683389186859,2.83312129974365,1.30882453918457,-0.311219947869739,2.83190713134792,1.33551706337518,1152.583,1417.904,3122.75,3196.321,-0.1087928,0.02991205,0.05919547,-0.647235035896301,-0.204921245574951,0.319226562976837,-0.560011455688534,-0.240957284473894,0.346673768116318,7
1.18000030517578,-0.59073930978775,2.82881903648376,1.31530356407166,-0.322555076427271,2.82702994219644,1.34253404791935,1153.167,1420.842,3125.308,3201.164,-0.1107055,0.02838411,0.0613996,-0.652795314788818,-0.215116545557976,0.3239526450634,-0.573468357077025,-0.246747413199059,0.355004231116904,7
1.20000076293945,-0.603914618492126,2.82431292533875,1.32187843322754,-0.334158899272964,2.82203714139922,1.34971736702757,1154.196,1422.659,3128.081,3207.025,-0.1124259,0.02689633,0.0637131,-0.658769190311432,-0.225311517715454,0.32874321937561,-0.586879077262985,-0.252517671442929,0.363306105753208,7
1.22000122070313,-0.617217779159546,2.81960368156433,1.32855081558228,-0.346030421585499,2.81692915700008,1.35706640485806,1155.704,1423.558,3131.141,3213.522,-0.1139508,0.02545853,0.06611358,-0.665157079696655,-0.235464885830879,0.333617180585861,-0.600236516861372,-0.258265004538453,0.371574997167698,7
1.23999786376953,-0.630656898021698,2.81469297409058,1.3353226184845,-0.358166167196084,2.81170748469733,1.36457900949675,1157.817,1423.789,3134.554,3220.138,-0.115276,0.02408154,0.0685726,-0.671955525875092,-0.245537549257278,0.338592648506165,-0.613531154887641,-0.263985315871967,0.379805011417393,7
1.2599983215332,-0.644240081310272,2.80958318710327,1.34219634532928,-0.370569492049568,2.80637068052165,1.37225725843336,1160.462,1423.435,3138.628,3226.482,-0.1163956,0.02277661,0.0710614,-0.67915552854538,-0.255492925643921,0.343687951564789,-0.626761182173783,-0.269677827009021,0.387995028541113,7
1.27999877929688,-0.657974898815155,2.80427742004395,1.34917402267456,-0.383236695417198,2.80092033679326,1.3800988607405,1166.236,1422.915,3141.654,3231.271,-0.1173112,0.02155631,0.07354725,-0.686739861965179,-0.265291929244995,0.348881632089615,-0.639917282339435,-0.275338529371412,0.396139281255613,8
1.29999923706055,-0.671868741512299,2.79877924919128,1.35625851154327,-0.396166231882091,2.79535711846185,1.3881028597315,1173.124,1422.013,3145.701,3234.781,-0.1180404,0.02042648,0.07601327,-0.694693446159363,-0.274904310703278,0.354225516319275,-0.652992789539212,-0.280964554832093,0.404233643085061,8
1.31999969482422,-0.685928642749786,2.79309320449829,1.36345303058624,-0.409356423791328,2.7896817473746,1.39626821685929,1179.041,1420.425,3150.815,3239.032,-0.1186007,0.01938835,0.07845506,-0.702994346618652,-0.284302622079849,0.359724789857864,-0.665981146317813,-0.286553081901244,0.412274054652251,8
1.34000015258789,-0.700161039829254,2.78722405433655,1.37076032161713,-0.422805463423808,2.78389500134342,1.4045938130584,1185.833,1418.179,3156.219,3242.783,-0.1189959,0.01844625,0.08086053,-0.711620092391968,-0.293460726737976,0.365365654230118,-0.678875903610019,-0.292101335726266,0.4202565236786,8
1.36000061035156,-0.714572012424469,2.78117704391479,1.37818324565887,-0.436511415158101,2.77799771321212,1.41307845008695,1193.724,1415.485,3161.542,3246.003,-0.119235,0.0176027,0.08321893,-0.720548510551453,-0.302354395389557,0.371145039796829,-0.691670720740693,-0.297606588091785,0.42817712498415,8
1.38000106811523,-0.72916716337204,2.77495789527893,1.38572454452515,-0.450472217640295,2.7719907699237,1.42172085186868,1201.808,1412.35,3166.915,3249.405,-0.119332,0.01685773,0.08552198,-0.729757368564606,-0.310962200164795,0.377067446708679,-0.704359365424783,-0.303066157419654,0.436032000487571,8
1.39999771118164,-0.743951618671417,2.76857256889343,1.39338731765747,-0.464682951063699,2.76587628833354,1.43051797280888,1209.712,1408.808,3172.483,3253.077,-0.119299,0.0162114,0.08775885,-0.739224195480347,-0.319266468286514,0.38313701748848,-0.716933326165324,-0.308476381450513,0.44381588116678,8
1.41999816894531,-0.758930146694183,2.76202750205994,1.40117454528809,-0.47914673136562,2.75965292774086,1.43947174182117,1216.853,1404.836,3178.773,3256.96,-0.1191413,0.01566348,0.08991863,-0.748926103115082,-0.327253848314285,0.389362663030624,-0.729391385793766,-0.313836736470737,0.451528013536465,8
1.43999862670898,-0.774106800556183,2.75532937049866,1.40908861160278,-0.4938584461112,2.75332288788357,1.44857899406484,1225.854,1401.015,3183.634,3259.978,-0.1188665,0.01521693,0.09198154,-0.758833348751068,-0.334908157587051,0.39570289850235,-0.741725227577294,-0.31914364402254,0.459163249142831,8
1.45999908447266,-0.789485216140747,2.74848484992981,1.4171324968338,-0.508815552717244,2.74688726276417,1.45783815555978,1235.19,1397.12,3189.134,3261.957,-0.118491,0.01487012,0.09393793,-0.768922924995422,-0.342221736907959,0.402194619178772,-0.753929052770513,-0.324394609067776,0.466717998286247,8
1.47999954223633,-0.805068552494049,2.74150109291077,1.42530906200409,-0.524015393706918,2.74034719582071,1.46724758120123,1242.969,1392.951,3195.287,3264.696,-0.1180308,0.01461831,0.09578829,-0.779165625572205,-0.349189609289169,0.408831000328064,-0.76599717101811,-0.329587183205524,0.474188738365705,8
1.5,-0.820859134197235,2.73438501358032,1.43362081050873,-0.539455198877605,2.73370387899399,1.4768055561018,1251.143,1388.638,3201.249,3266.872,-0.117488,0.01445992,0.0975251,-0.789531767368317,-0.355807811021805,0.415586709976196,-0.777924000354858,-0.334718964672088,0.481572013878822,8
1.52000045776367,-0.836859047412872,2.72714352607727,1.44206976890564,-0.555132087468752,2.72695855179478,1.48651029693349,1260.049,1384.362,3206.771,3268.287,-0.1168728,0.0143925,0.09914316,-0.79999303817749,-0.362073332071304,0.422449707984924,-0.789704067205609,-0.339787598340998,0.488864436421842,8
1.54000091552734,-0.853069484233856,2.71978378295898,1.45065808296204,-0.571043070329722,2.72011250037111,1.49635995326965,1268.702,1380.062,3212.097,3269.731,-0.116199,0.01441087,0.1006418,-0.810522139072418,-0.367985874414444,0.429415822029114,-0.801332006385301,-0.344790775723006,0.496062684689629,8
1.55999755859375,-0.869491398334503,2.71231293678284,1.45938766002655,-0.587181951496087,2.71316839067337,1.50635068951315,1276.728,1375.708,3217.411,3271.337,-0.11548,0.01450944,0.1020199,-0.82109272480011,-0.373548299074173,0.436479568481445,-0.812800388649436,-0.349725300221754,0.503162159625937,8
1.57999801635742,-0.886124908924103,2.70473766326904,1.46826040744781,-0.603551689586986,2.70612494969039,1.51648433719019,1283.481,1371.183,3223.267,3273.2,-0.1147194,0.01468279,0.1032768,-0.83167964220047,-0.378767013549805,0.443639934062958,-0.824108441976122,-0.354590839657789,0.510162383312438,8
1.59999847412109,-0.902969896793365,2.6970648765564,1.47727739810944,-0.620145926473056,2.69898491314762,1.52675696031579,1291.728,1367.14,3227.417,3274.164,-0.1139247,0.01492986,0.1044029,-0.842252612113953,-0.383645087480545,0.450847059488297,-0.835248923368005,-0.359384277571697,0.517058871988737,8
1.61999893188477,-0.920025765895844,2.68930101394653,1.4864399433136,-0.636961261140657,2.69174974440622,1.53716645350051,1299.659,1363.201,3232.062,3274.385,-0.1131108,0.01524396,0.1053989,-0.852790594100952,-0.388192415237427,0.458130389451981,-0.846216901179681,-0.364103492014234,0.523848572731403,8
1.63999938964844,-0.937291085720062,2.68145251274109,1.49574947357178,-0.653994195024907,2.68442094880091,1.54771065096602,1305.593,1359.173,3237.174,3275.513,-0.1122879,0.01561687,0.1062732,-0.863267660140991,-0.392420917749405,0.465475797653198,-0.857007552155828,-0.368746407673381,0.530528499715628,8
1.65999984741211,-0.954764306545258,2.67352557182312,1.50520646572113,-0.671241134177535,2.67700007270724,1.55838732788714,1311.629,1355.262,3241.82,3276.132,-0.1114538,0.01604505,0.1070245,-0.873658657073975,-0.396341770887375,0.472851902246475,-0.867616161431205,-0.373310995874343,0.537095734215228,8
1.68000030517578,-0.972442984580994,2.6655261516571,1.51481127738953,-0.688698391434734,2.66948870260877,1.56919420173384,1318.052,1351.633,3245.7,3276.215,-0.1106139,0.01652382,0.1076529,-0.883940398693085,-0.399965792894363,0.48024046421051,-0.878038122530658,-0.377795274579551,0.543547424602645,8
1.70000076293945,-0.990324854850769,2.65745997428894,1.52456402778625,-0.706362188585011,2.66188846416437,1.5801289336132,1324.12,1348.22,3249.188,3276.233,-0.1097782,0.01704688,0.1081616,-0.894092261791229,-0.403305232524872,0.487636476755142,-0.888268937369113,-0.38219730838866,0.549880786348944,8
1.71999740600586,-1.00840663909912,2.64933252334595,1.53446471691132,-0.724225231782013,2.65420249571236,1.5911870082869,1329.165,1344.939,3252.658,3276.503,-0.1089558,0.01760777,0.1085546,-0.904094934463501,-0.406374722719193,0.495035231113434,-0.898302321135456,-0.386514393123025,0.556091928856661,8
1.73999786376953,-1.02668523788452,2.64114880561829,1.54451334476471,-0.742290383213093,2.64642956573347,1.60237019758524,1332.794,1341.648,3256.628,3276.946,-0.1081451,0.0182002,0.1088364,-0.913930535316467,-0.409191310405731,0.502432525157928,-0.908137821269591,-0.39074633405868,0.562180571969536,8
1.7599983215332,-1.04515671730042,2.63291358947754,1.55470883846283,-0.760550216073323,2.63857286977439,1.61367390396219,1337.843,1339.019,3258.628,3276.581,-0.1073488,0.01882288,0.1090024,-0.923575937747955,-0.411766707897186,0.509772300720215,-0.917769332013572,-0.394890504058555,0.568142935932543,8
1.77999877929688,-1.06381726264954,2.62463116645813,1.56505060195923,-0.779000609654483,2.63063418086074,1.62509557650306,1342.646,1336.608,3261.07,3275.332,-0.106577,0.01946915,0.1090579,-0.9330193400383,-0.414118081331253,0.517086923122406,-0.927192788821983,-0.398945154262308,0.57397650459845,8
1.79999923706055,-1.0826621055603,2.61630582809448,1.57553791999817,-0.79763736303951,2.62261530652977,1.63663261464007,1345.083,1334.163,3263.995,3275.282,-0.1058377,0.02013016,0.1090174,-0.942244172096252,-0.4162637591362,0.524363219738007,-0.936404235539493,-0.402908582446823,0.579678828918647,7
1.81999969482422,-1.10168671607971,2.60794138908386,1.58616924285889,-0.816456197270346,2.61451808789761,1.64828236949435,1347.503,1331.906,3266.355,3274.872,-0.105124,0.020803,0.1088832,-0.951235115528107,-0.418220043182373,0.531568229198456,-0.945399824400851,-0.406779133026206,0.585247526943151,7
1.84000015258789,-1.12088644504547,2.59954142570496,1.59694290161133,-0.835452757515797,2.60634439872645,1.66004214521794,1350.309,1329.997,3267.904,3273.947,-0.1044348,0.02148452,0.1086581,-0.959979593753815,-0.420001357793808,0.53868567943573,-0.954175816030892,-0.41055519705179,0.590680283820602,7
1.86000061035156,-1.14025568962097,2.59110903739929,1.60785710811615,-0.854622615239374,2.59809614449182,1.6719092003358,1352.595,1328.344,3269.039,3273.166,-0.1037759,0.02216879,0.1083476,-0.968467354774475,-0.421622484922409,0.545712172985077,-0.962728579444532,-0.414235212212131,0.595974851798267,7
1.87999725341797,-1.15978956222534,2.58264708518982,1.61891007423401,-0.873957566090845,2.58977685529642,1.6838784559643,1354.073,1326.896,3270.123,3272.466,-0.1031512,0.02285194,0.1079568,-0.976689636707306,-0.423099309206009,0.552645742893219,-0.971053025860989,-0.417816988947023,0.601128080678429,7
1.89999771118164,-1.17948222160339,2.57415819168091,1.63009977340698,-0.893460418296025,2.58138532283915,1.69595165052899,1353.974,1325.442,3271.772,3272.134,-0.1025546,0.02352895,0.1074929,-0.984638869762421,-0.424448817968369,0.55948531627655,-0.979148917665041,-0.421300425017273,0.606139823365946,7
1.91999816894531,-1.19932842254639,2.56564450263977,1.64142322540283,-0.913122862707269,2.57292512231409,1.70812364027167,1355.563,1324.687,3271.271,3270.987,-0.1019842,0.02420052,0.106952,-0.992301762104034,-0.42568165063858,0.566173136234283,-0.987011339258123,-0.424683405378145,0.611007036871143,7
1.93999862670898,-1.21932184696198,2.55710816383362,1.65287828445435,-0.932940197657643,2.56439827671719,1.72039151463653,1356.961,1324.129,3271.376,3268.915,-0.1014473,0.02486211,0.1063407,-0.999677240848541,-0.426813066005707,0.572751522064209,-0.99463709319481,-0.4279645542582,0.615727741822989,7
1.95999908447266,-1.23945713043213,2.54855108261108,1.66446244716644,-0.952907658613767,2.55580683609405,1.73275232415044,1355.909,1323.526,3271.945,3268.288,-0.1009493,0.02550668,0.105675,-1.0067583322525,-0.427858412265778,0.579207420349121,-1.00202309041976,-0.431142542523221,0.620300025949072,7
1.97999954223633,-1.2597279548645,2.53997445106506,1.67617273330688,-0.973020420343666,2.54715287660719,1.74520308176496,1354.888,1323.039,3272.063,3267.361,-0.1004779,0.02613363,0.1049574,-1.01353991031647,-0.428830653429031,0.58551299571991,-1.00916635026771,-0.434216087676217,0.62472204407561,7
2,-1.28012824058533,2.53137969970703,1.68800592422485,-0.993273599084619,2.53843849960327,1.7577407641983,1354.477,1322.848,3271.497,3265.778,-0.1000278,0.02674243,0.1041906,-1.02001893520355,-0.429740101099014,0.591656804084778,-1.01606400046349,-0.437183953857422,0.628992018127441,6
2.02000045776367,-1.30065226554871,2.5227677822113,1.69995868206024,-1.01366225471101,2.52966583068033,1.7703623132774,1353.743,1322.87,3270.458,3264.404,-0.09960116,0.02732976,0.1033806,-1.02619338035583,-0.430596023797989,0.597635507583618,-1.022713277122,-0.440044951844294,0.633108237128032,6
2.04000091552734,-1.32129347324371,2.5141396522522,1.71202766895294,-1.0341813929022,2.52083701875502,1.78306463727984,1352.318,1323.006,3269.411,3263.23,-0.09920008,0.02789348,0.1025326,-1.03206348419189,-0.431408077478409,0.603452503681183,-1.02911152474823,-0.442797939051516,0.637069057199471,6
2.05999755859375,-1.34204602241516,2.50549602508545,1.72420966625214,-1.05482201812353,2.5119559343546,1.79584216754118,1350.307,1323.282,3268.309,3262.137,-0.09881978,0.02843233,0.1016501,-1.03762876987457,-0.432185769081116,0.609101891517639,-1.03525504859546,-0.445441325732794,0.640872191117535,6
2.07999801635742,-1.36290383338928,2.49683737754822,1.73650133609772,-1.07558691007788,2.50302138145056,1.8086966248299,1347.357,1323.525,3267.66,3261.12,-0.0984512,0.02894575,0.1007385,-1.04289031028748,-0.43293821811676,0.614585041999817,-1.04114375428791,-0.447975071280863,0.644517580459114,6
2.09999847412109,-1.38386070728302,2.48816394805908,1.74889838695526,-1.09646699912883,2.4940372624541,1.82162239460902,1346.32,1324.317,3264.936,3259.371,-0.09809008,0.029436,0.09979385,-1.04784345626831,-0.433667808771133,0.619851112365723,-1.04677411523768,-0.450397658303471,0.648003042098304,5
2.11999893188477,-1.40491056442261,2.4794762134552,1.76139736175537,-1.11745709586255,2.485005810225,1.83461626438416,1345.206,1325.186,3262.973,3256.758,-0.09774441,0.0299014,0.09882244,-1.05249488353729,-0.434381544589996,0.624950706958771,-1.0521439094894,-0.452708130755304,0.651327200538896,5
2.13999938964844,-1.42604744434357,2.47077441215515,1.77399492263794,-1.138551967509,2.47592927627801,1.8476749948214,1341.511,1325.871,3261.615,3255.905,-0.0974163,0.03033685,0.09783959,-1.056844830513,-0.435086458921432,0.629875421524048,-1.05725102347782,-0.454905579228273,0.654488747383304,4
2.15999984741211,-1.44726526737213,2.46205878257751,1.78668689727783,-1.15974634010981,2.46680992985011,1.86079532108929,1338.193,1326.532,3259.935,3254.596,-0.09709033,0.0307454,0.09684487,-1.06089532375336,-0.435786873102188,0.634601593017578,-1.06209345202774,-0.456989140951513,0.657486441332569,4
2.18000030517578,-1.4685583114624,2.45332908630371,1.7994692325592,-1.18103490068612,2.45765005696766,1.87397395420079,1335.724,1327.372,3257.534,3252.732,-0.0967601,0.03112872,0.09583832,-1.06464886665344,-0.436483889818192,0.63911896944046,-1.06666929835407,-0.458957999791384,0.660319108186354,3
2.20000076293945,-1.48992037773132,2.44458556175232,1.81233787536621,-1.20241229940639,2.4484519595137,1.88720758235537,1333.287,1328.292,3254.887,3250.838,-0.09642507,0.03148689,0.09482344,-1.0681095123291,-0.437178045511246,0.643434822559357,-1.07097677406178,-0.460811386251471,0.662985640842948,1
2.21999740600586,-1.51134598255157,2.43582820892334,1.8252888917923,-1.22386905090202,2.43921971877738,1.90049033365798,1330.28,1329.21,3252.221,3249.322,-0.09608632,0.03181972,0.09380382,-1.07128131389618,-0.437869936227798,0.647552728652954,-1.07501345493598,-0.46254825725983,0.665484538597853,0
2.23999786376953,-1.53282952308655,2.42705702781677,1.83831858634949,-1.24540792547886,2.42995214277345,1.91382392305993,1326.092,1329.93,3250.301,3248.157,-0.09573585,0.03212729,0.09278312,-1.07416951656342,-0.438561171293259,0.651484608650208,-1.07877930973132,-0.464168599372462,0.667815782108711,0
2.2599983215332,-1.55436491966248,2.41827201843262,1.8514221906662,-1.26701939030951,2.42065333321126,1.92720244928693,1323.794,1331.011,3246.564,3246.318,-0.09536673,0.03241489,0.09175418,-1.07677292823792,-0.439247310161591,0.655182003974915,-1.08227207933222,-0.465671440555045,0.66997797287536,0
2.27999877929688,-1.57594692707062,2.40947341918945,1.86459612846375,-1.28869796983554,2.41132564607061,1.9406225227075,1321.885,1332.104,3243.588,3243.333,-0.09498484,0.03268266,0.09071939,-1.07909977436066,-0.439927995204926,0.658695161342621,-1.08549040888332,-0.467056197851165,0.67197027217779,0
2.29999923706055,-1.59756994247437,2.40066146850586,1.87783646583557,-1.31043816248474,2.40197144852433,1.95408073758635,1317.695,1332.952,3241.168,3242.062,-0.09459175,0.03292815,0.08969168,-1.08115196228027,-0.440602719783783,0.662017822265625,-1.08843305191934,-0.468322334941636,0.673791908394614,0
2.31999969482422,-1.61922860145569,2.39183616638184,1.89113903045654,-1.33223444283894,2.39259311800549,1.96757367342642,1314.16,1333.642,3238.496,3240.266,-0.09417471,0.03315513,0.08866838,-1.08293294906616,-0.441268801689148,0.665131151676178,-1.09109887036509,-0.469469362144493,0.675442177003072,0
2.34000015258789,-1.64091742038727,2.38299775123596,1.90449965000153,-1.35408126380187,2.38319304127467,1.98109789631088,1311.496,1334.362,3235.356,3237.911,-0.09372729,0.03336623,0.08764863,-1.08444654941559,-0.441921234130859,0.668032467365265,-1.09348683453544,-0.470496836415,0.676920440579027,0
2.36000061035156,-1.66263151168823,2.3741466999054,1.91791415214539,-1.37597305876702,2.37377361348711,1.99464996024512,1308.899,1335.041,3231.971,3235.696,-0.09325005,0.03356232,0.0866344,-1.0856968164444,-0.442554473876953,0.670726776123047,-1.09559602313537,-0.471404361345641,0.678226128796969,0
2.37999725341797,-1.68436527252197,2.36528348922729,1.93137860298157,-1.39790005743958,2.36433903852774,2.00822381695123,1305.932,1335.601,3228.661,3233.786,-0.09274512,0.03374455,0.08562642,-1.08668839931488,-0.44316366314888,0.673222124576569,-1.09742530100382,-0.472191448508328,0.679358538938131,0
2.39999771118164,-1.70611381530762,2.35640859603882,1.94488918781281,-1.41986502747765,2.35488812555058,2.02182117974142,1301.983,1335.905,3226.093,3232.175,-0.09220503,0.03391452,0.08462576,-1.0874263048172,-0.443745136260986,0.675532221794128,-1.09897466165884,-0.47285809511406,0.680317666989874,0
2.41999816894531,-1.72787189483643,2.3475227355957,1.9584413766861,-1.44185817738692,2.34542508756209,2.03543598721428,1300.06,1336.433,3221.851,3229.836,-0.09162392,0.03407755,0.08362323,-1.08790934085846,-0.444290041923523,0.677612364292145,-1.10024313330221,-0.473403883025206,0.681102911362803,0
2.43999862670898,-1.74963474273682,2.33862686157227,1.97203171253204,-1.46387388420027,2.33595234396796,2.0490647584853,1298.546,1336.898,3218.427,3226.416,-0.09100927,0.03423434,0.08261957,-1.08814465999603,-0.444793939590454,0.679514467716217,-1.10123022817855,-0.473828602374257,0.681713970113108,0
2.45999908447266,-1.77139747142792,2.32972192764282,1.98565638065338,-1.48590651627916,2.32647231790489,2.06270400730194,1294.869,1337.072,3215.562,3224.695,-0.09036425,0.03438323,0.08162531,-1.08813321590424,-0.445252507925034,0.681233286857605,-1.10193556692257,-0.474132089930926,0.682150608395601,0
2.47999954223633,-1.79315495491028,2.32080841064453,1.99931144714355,-1.50795043548148,2.31698743530794,2.07635024338568,1291.975,1336.997,3212.539,3222.378,-0.08967663,0.03452825,0.08063569,-1.08787739276886,-0.445659846067429,0.682752549648285,-1.10235887855907,-0.474314229102152,0.682412658463722,0
2.5,-1.81490254402161,2.3118884563446,2.01299285888672,-1.52999999932945,2.30750012397766,2.08999997377396,1290.098,1336.892,3209.157,3219.36,-0.08894159,0.03467214,0.07964853,-1.0873795747757,-0.446008741855621,0.684072077274323,-1.10250000050292,-0.474374949932098,0.682500019669533,0
2.52000045776367,-1.83663523197174,2.3029625415802,2.02669668197632,-1.55204956317742,2.29801281264738,2.10364970416224,1288.244,1336.702,3205.325,3216.812,-0.08816341,0.0348158,0.07866423,-1.08664155006409,-0.446290850639343,0.685191214084625,-1.10235887855907,-0.474314229102152,0.682412658463722,0
2.53999710083008,-1.85834872722626,2.29403257369995,2.04041934013367,-1.57408927882895,2.2885297387209,2.11729333804778,1286.427,1336.351,3201.878,3213.954,-0.08734423,0.03496035,0.07768098,-1.08566737174988,-0.446500480175018,0.686130881309509,-1.10193567455836,-0.474132136243598,0.68215067502728,0
2.55999755859375,-1.88003790378571,2.28509998321533,2.05415725708008,-1.59612191359838,2.27904971150017,2.13093258853001,1282.982,1335.705,3199.159,3212.098,-0.08648083,0.03510632,0.07670168,-1.08445918560028,-0.446632713079453,0.686898589134216,-1.10123038958312,-0.473828671822132,0.681714070030222,0
2.57999801635742,-1.90169835090637,2.2761664390564,2.06790614128113,-1.6181376241771,2.2695769662859,2.14456136213196,1282.105,1335.192,3194.787,3209.052,-0.08556683,0.03525969,0.07571324,-1.08301472663879,-0.446678131818771,0.687448978424072,-1.10024334841354,-0.473403975581601,0.681103044526962,0
2.59999847412109,-1.92332482337952,2.26723384857178,2.08166289329529,-1.64013077892511,2.26011392621545,2.15817617260023,1281.625,1334.651,3191.207,3204.964,-0.08461022,0.03542064,0.07471614,-1.081338763237,-0.44663205742836,0.687836170196533,-1.09897493039424,-0.472858210743393,0.680317833349887,0
2.61999893188477,-1.94491350650787,2.25830411911011,2.09542393684387,-1.66209575487342,2.25066301069528,2.17177353904914,1279.033,1333.828,3188.177,3202.538,-0.083619,0.03558645,0.0737203,-1.07943034172058,-0.446490198373795,0.688055157661438,-1.09742562325992,-0.472191587166126,0.67935873843001,0
2.63999938964844,-1.9664591550827,2.24937915802002,2.10918569564819,-1.68402693989188,2.24122663446822,2.18534998730279,1277.025,1332.708,3185.099,3199.662,-0.0825825,0.03576067,0.07272091,-1.07729017734528,-0.446247696876526,0.688091218471527,-1.09559602313537,-0.471404361345641,0.67822612879697,0
2.65999984741211,-1.98795759677887,2.24046087265015,2.12294459342957,-1.70591873485703,2.23180720668066,2.19890205123703,1276.082,1331.56,3181.589,3196.098,-0.08149645,0.03594531,0.07171431,-1.07491886615753,-0.445898234844208,0.687940955162048,-1.09348683453544,-0.470496836414999,0.676920440579028,0
2.68000030517578,-2.0094039440155,2.23155236244202,2.13669681549072,-1.72776555581996,2.22240712994983,2.2124262741215,1275.24,1330.322,3177.938,3192.629,-0.08036675,0.03614065,0.07070095,-1.0723170042038,-0.445435732603073,0.687611877918243,-1.09109887036509,-0.469469362144494,0.675442177003072,0
2.69999694824219,-2.03079342842102,2.22265529632568,2.15043902397156,-1.74955768413056,2.21303058593937,2.22591663964878,1274.165,1328.958,3174.15,3189.574,-0.07919709,0.03634719,0.06967913,-1.06948506832123,-0.444854825735092,0.687106251716614,-1.08843358680109,-0.468322565086308,0.673792239511893,0
2.71999740600586,-2.05212187767029,2.21377229690552,2.16416788101196,-1.77129788800495,2.2036763835632,2.23937486147656,1272.272,1327.364,3171.331,3186.46,-0.07798535,0.03656496,0.06864815,-1.06642544269562,-0.444153308868408,0.686448991298676,-1.08549099645889,-0.467056450668518,0.671970635915057,0
2.73999786376953,-2.0733847618103,2.20490550994873,2.17787981033325,-1.79297647980783,2.19434869114016,2.25279494249708,1271.823,1325.872,3167.061,3183.084,-0.07673047,0.03679752,0.06760035,-1.06313383579254,-0.443324774503708,0.685592353343964,-1.08227271937422,-0.465671715947234,0.669978369091845,0
2.7599983215332,-2.0945770740509,2.19605851173401,2.19157147407532,-1.81458795796224,2.18504987584512,2.26617347697213,1272.071,1324.33,3163.586,3178.33,-0.07543777,0.03704507,0.06653412,-1.05961334705353,-0.442367017269135,0.68458479642868,-1.07878000199166,-0.464168897232749,0.667816210650842,0
2.77999877929688,-2.11569428443909,2.18723297119141,2.20523977279663,-1.83612684690458,2.17578229366013,2.27950707526701,1270.373,1322.62,3160.224,3175.399,-0.07411578,0.03730465,0.06545823,-1.05586123466492,-0.44127756357193,0.683412671089172,-1.07501419914593,-0.462548577472581,0.665484999299265,0
2.79999923706055,-2.13673162460327,2.17843198776245,2.21888136863708,-1.85758769925251,2.16654828844162,2.29279236519255,1269.596,1320.667,3157.089,3171.393,-0.07275649,0.03757844,0.06436735,-1.05187845230103,-0.440055042505264,0.682076036930084,-1.07097677406178,-0.460811386251471,0.662985640842947,0
2.81999969482422,-2.15768480300903,2.16965794563293,2.23249268531799,-1.87896509797278,2.15735019098767,2.30602599334712,1269.008,1318.707,3153.521,3167.522,-0.071361,0.03786654,0.06326199,-1.04766368865967,-0.438696265220642,0.680564701557159,-1.06666929835407,-0.458957999791384,0.660319108186353,0
2.84000015258789,-2.17854928970337,2.16091418266296,2.24607038497925,-1.90025365854909,2.14819031810522,2.31920462645863,1268.85,1316.658,3149.839,3163.361,-0.06993088,0.03816938,0.06214061,-1.04321730136871,-0.437198787927628,0.678884863853455,-1.06209345202774,-0.456989140951513,0.657486441332568,0
2.86000061035156,-2.19932007789612,2.15220284461975,2.25961112976074,-1.9214480311499,2.13907097167731,2.33232495272651,1268.326,1314.552,3146.054,3159.639,-0.068472,0.03848569,0.06100303,-1.03853917121887,-0.4355608522892,0.677039504051208,-1.05725102347782,-0.454905579228273,0.654488747383304,0
2.87999725341797,-2.21999263763428,2.14352750778198,2.27311182022095,-1.94253888918396,2.12999616467562,2.34538119854648,1267.801,1312.379,3142.584,3155.561,-0.06698543,0.03881592,0.059847,-1.03363001346588,-0.433782249689102,0.675039052963257,-1.05214490868305,-0.452708560680416,0.651327819087361,0
2.89999771118164,-2.24056243896484,2.13489031791687,2.28656935691833,-1.96352900640172,2.1209647036328,2.35837508100222,1266.197,1310.087,3139.434,3152.173,-0.06546956,0.03915932,0.05867415,-1.02848923206329,-0.431863188743591,0.672882914543152,-1.04677516433438,-0.450398109700476,0.648003691539142,0
2.91999816894531,-2.26102447509766,2.12629437446594,2.29998016357422,-1.98440911693069,2.11198057539494,2.37130086407726,1266.992,1307.895,3135.014,3147.45,-0.06392119,0.03951911,0.05747432,-1.02311456203461,-0.429801344871521,0.670538127422333,-1.04114485287423,-0.447975543971863,0.644518260536375,0
2.93999862670898,-2.28137493133545,2.11774230003357,2.31334114074707,-2.00517403134858,2.10304601282548,2.38415533527198,1267.709,1305.784,3131.211,3142.185,-0.06235312,0.03989273,0.05625147,-1.01750731468201,-0.427597671747208,0.668048858642578,-1.03525619623725,-0.445441819530995,0.640872901562472,0
2.95999908447266,-2.30160808563232,2.10923743247986,2.32664942741394,-2.02581860575671,2.0941632292003,2.39693531026807,1266.208,1303.478,3127.969,3138.583,-0.06077334,0.04027649,0.05501553,-1.01166665554047,-0.42525440454483,0.665411949157715,-1.02911152474823,-0.442797939051516,0.637069057199471,0
2.97999954223633,-2.32171988487244,2.1007821559906,2.33990144729614,-2.04633774394789,2.08533441727499,2.40963763427052,1265.391,1300.987,3124.469,3134.518,-0.05917384,0.0406719,0.0537613,-1.00559294223785,-0.42277318239212,0.662606716156006,-1.022713277122,-0.440044951844293,0.633108237128031,0
3,-2.34170579910278,2.09237885475159,2.35309410095215,-2.06672639957428,2.07656174835205,2.42225918334961,1265.45,1298.571,3120.735,3129.673,-0.05755144,0.04107974,0.05248627,-0.999287068843842,-0.420155018568039,0.65963751077652,-1.01606400046349,-0.437183953857422,0.628992018127441,0
3.02000045776367,-2.3615608215332,2.08403062820435,2.36622428894043,-2.08697957831524,2.06784737134813,2.43479686578296,1265.252,1296.177,3116.906,3125.098,-0.055912,0.0414977,0.0511934,-0.992749214172363,-0.417400985956192,0.656507790088654,-1.00916635026771,-0.434216087676216,0.62472204407561,0
3.03999710083008,-2.38128042221069,2.07574033737183,2.37928867340088,-2.10708851762775,2.05919505654068,2.44724525713902,1264.934,1293.738,3112.934,3120.743,-0.05425871,0.04192529,0.04988256,-0.985980153083801,-0.414512664079666,0.653216123580933,-1.00202447609459,-0.431143138740389,0.620300883747801,0
3.05999755859375,-2.40086007118225,2.0675106048584,2.39228415489197,-2.12705600675913,2.05060360379452,2.45960608409476,1263.845,1291.243,3109.461,3116.604,-0.05259264,0.04236146,0.04855434,-0.978981792926788,-0.411492973566055,0.649777591228485,-0.994638524886308,-0.427965170275055,0.615728628108227,0
3.07999801635742,-2.42029523849487,2.05934381484985,2.40520739555359,-2.14687337079936,2.04207674568107,2.47187397646763,1264.146,1288.866,3104.852,3111.981,-0.05091272,0.04280726,0.04720202,-0.971753299236298,-0.40834304690361,0.646158277988434,-0.987012816387451,-0.424684040945629,0.611007951284564,0
3.09999847412109,-2.43958115577698,2.05124235153198,2.41805553436279,-2.16653584520328,2.033616532251,2.4840459847772,1264.521,1286.597,3101.04,3106.438,-0.04922747,0.04326149,0.04582752,-0.964297413825989,-0.405066967010498,0.64240288734436,-0.979150439632689,-0.421301079877433,0.606140765536421,0
3.11999893188477,-2.45871353149414,2.04320907592773,2.43082547187805,-2.18603872829175,2.02522498650551,2.49611919846012,1262.956,1284.268,3097.544,3102.402,-0.04754222,0.04372032,0.04444091,-0.956614136695862,-0.401668906211853,0.638499855995178,-0.971054592046769,-0.41781766283301,0.601129050222034,0
3.13999938964844,-2.4776873588562,2.0352463722229,2.44351410865784,-2.20537738341953,2.01690410346351,2.50809074721212,1262.195,1281.774,3093.752,3097.865,-0.04584898,0.04418501,0.04303832,-0.948705554008484,-0.398152410984039,0.634430527687073,-0.962728579444533,-0.414235212212131,0.595974851798267,0
3.15999984741211,-2.49649906158447,2.02735590934753,2.45611810684204,-2.2245472411431,2.00865584922888,2.51995780232997,1262.333,1279.397,3089.61,3092.651,-0.04414669,0.04465546,0.04161844,-0.940573751926422,-0.394520223140717,0.630199074745178,-0.954175816030892,-0.41055519705179,0.590680283820602,0
3.18000030517578,-2.51514339447021,2.01954007148743,2.46863436698914,-2.24354380138856,2.00048216005771,2.53171757805356,1261.925,1277.074,3085.604,3087.785,-0.04244333,0.04512908,0.04018597,-0.932221055030823,-0.390775620937347,0.625817477703094,-0.94539982440085,-0.406779133026206,0.58524752694315,0
3.19999694824219,-2.533616065979,2.01180171966553,2.48106002807617,-2.2623590635174,1.99238647840124,2.54336512160655,1261.124,1274.717,3081.555,3083.304,-0.0407405,0.0456049,0.03874253,-0.923649966716766,-0.386922240257263,0.621281385421753,-0.936405971974636,-0.402909329586355,0.579679903854719,0
3.21999740600586,-2.55191326141357,2.00414276123047,2.49339199066162,-2.28099585204123,1.98436758895103,2.55490218149615,1259.771,1272.342,3077.736,3079.077,-0.03903555,0.04608211,0.03728791,-0.914864003658295,-0.382964134216309,0.616597592830658,-0.927194566064376,-0.398945918960059,0.573977604796153,0
3.23999786376953,-2.5700306892395,1.99656462669373,2.50562691688538,-2.29944628156995,1.97642888457015,2.56632387629027,1259.898,1270.091,3072.96,3074.162,-0.037329,0.04656219,0.0358155,-0.90586519241333,-0.378904044628143,0.61174201965332,-0.917771149318993,-0.394891285994308,0.568144060931169,0
3.2599983215332,-2.58796381950378,1.98906970024109,2.51776218414307,-2.31770615117141,1.96857217280235,2.57762760541179,1259.856,1268.016,3069.003,3068.517,-0.03562777,0.04704329,0.03432901,-0.896657347679138,-0.374746769666672,0.60675835609436,-0.908139677873146,-0.390747132903322,0.562181721295578,0
3.27999877929688,-2.605708360672,1.98165965080261,2.52979469299316,-2.33577134012187,1.96079922667992,2.58881081793642,1257.973,1265.906,3065.11,3064.551,-0.03393613,0.04752204,0.03283786,-0.887242317199707,-0.370497077703476,0.601628184318542,-0.898304216251578,-0.386515208538549,0.556093102023818,0
3.29999923706055,-2.62326097488403,1.97433638572693,2.54172158241272,-2.35363781007389,1.95311178379095,2.59987101393471,1257.269,1263.665,3061.139,3059.543,-0.03224609,0.04800022,0.03133756,-0.877624750137329,-0.366159468889236,0.596344709396362,-0.888268937369113,-0.38219730838866,0.549880786348944,0
3.31999969482422,-2.64061689376831,1.96710193157196,2.55353975296021,-2.37130160722417,1.94551154534655,2.61080574581408,1256.664,1261.566,3056.877,3054.612,-0.03055977,0.04847655,0.02983068,-0.867808222770691,-0.361737310886383,0.590909719467163,-0.878038122530657,-0.377795274579551,0.543547424602645,0
3.34000015258789,-2.65777277946472,1.95995724201202,2.56524634361267,-2.38875886448137,1.93800017524809,2.62161261966077,1256.118,1259.488,3052.464,3049.78,-0.02887985,0.04894994,0.02831843,-0.857796788215637,-0.357234120368958,0.585326254367828,-0.867616161431205,-0.373310995874343,0.537095734215228,0
3.3599967956543,-2.67472505569458,1.95290398597717,2.57683849334717,-2.40600253440574,1.930580705812,2.63228727277387,1255.167,1257.464,3048.365,3045.003,-0.02721005,0.04941921,0.02680321,-0.847595274448395,-0.352654218673706,0.579608380794525,-0.85700959304645,-0.368747285811601,0.530529763124145,0
3.37999725341797,-2.6914689540863,1.94594407081604,2.58831357955933,-2.42303550945299,1.9232518924954,2.64283149572124,1253.051,1255.435,3044.593,3041.005,-0.02554824,0.04988325,0.02528862,-0.837208449840546,-0.348001897335052,0.573756873607635,-0.846218976345105,-0.364104384899943,0.523849857357654,0
3.39999771118164,-2.70800161361694,1.93907833099365,2.59966826438904,-2.43985088596004,1.91601670575165,2.65324101480657,1253.031,1253.419,3039.638,3036.072,-0.02388909,0.05034442,0.0237662,-0.826640486717224,-0.343280076980591,0.567737638950348,-0.835251031898626,-0.359385184813519,0.517060177269636,0
3.41999816894531,-2.72431993484497,1.93230819702148,2.61090040206909,-2.45644516534361,1.90887665092339,2.66351366424015,1253.151,1251.669,3035.414,3030.216,-0.02224219,0.05080086,0.02223969,-0.815896451473236,-0.338492572307587,0.561602652072906,-0.824110582941664,-0.354591760855451,0.510163708672097,0
3.43999862670898,-2.74041938781738,1.92563581466675,2.62200713157654,-2.47281494657125,1.90183319137989,2.67364733862088,1250.725,1249.911,3031.434,3026.602,-0.020615,0.05124895,0.02072099,-0.804980456829071,-0.333643913269043,0.555340588092804,-0.812802561098952,-0.34972623496609,0.503163504475677,0
3.45999908447266,-2.75629758834839,1.91906094551086,2.63298583030701,-2.48895692832918,1.89488774758421,2.68363999427827,1249.529,1247.947,3027.219,3022.153,-0.01899739,0.05169121,0.01920277,-0.793899178504944,-0.328738570213318,0.548935651779175,-0.801332006385299,-0.344790775723006,0.496062684689628,0
3.47999954223633,-2.77195024490356,1.91258537769318,2.64383411407471,-2.50486791119015,1.88804169616054,2.69348965061443,1248.875,1246.212,3023.212,3016.84,-0.01738778,0.05212715,0.01768632,-0.782658100128174,-0.323780089616776,0.54240882396698,-0.789704067205609,-0.339787598340998,0.488864436421841,0
3.5,-2.78737568855286,1.90620994567871,2.65454912185669,-2.5205447997813,1.88129636896134,2.70319439144611,1247.661,1244.508,3018.787,3012.511,-0.01579148,0.0525553,0.01617724,-0.771261811256409,-0.318771302700043,0.535745203495026,-0.777924000354857,-0.334718964672089,0.481572013878822,0
3.52000045776367,-2.802570104599,1.89993536472321,2.66512823104858,-2.53598460495198,1.87465305213461,2.71275236634669,1246.858,1242.753,3014.517,3007.774,-0.01420743,0.05297571,0.01467431,-0.759716808795929,-0.313715547323227,0.528958559036255,-0.765997171018108,-0.329587183205523,0.474188738365705,0
3.53999710083008,-2.81753063201904,1.89376306533813,2.67556929588318,-2.55118156992615,1.86811422266028,2.72216001159753,1245.631,1241.11,3010.335,3003.335,-0.01263883,0.05338745,0.01318034,-0.748028934001923,-0.308616101741791,0.52205502986908,-0.753931367647136,-0.324395605094516,0.466719431305148,0
3.55999755859375,-2.83225464820862,1.88769364356995,2.68586993217468,-2.56613872308604,1.86167857751006,2.73141920191151,1243.749,1239.462,3006.336,2999.406,-0.01108461,0.05379002,0.01169696,-0.736204624176025,-0.303476482629776,0.515037178993225,-0.741727567798258,-0.319144650954242,0.459164697851087,0
3.57999801635742,-2.84673929214478,1.88172793388367,2.6960277557373,-2.58085048488145,1.85534851740854,2.74052648328127,1243.331,1237.822,3001.728,2994.701,-0.009541574,0.05418544,0.01021873,-0.724249958992004,-0.298299521207809,0.507889091968536,-0.72939375026341,-0.313837753835969,0.451529477255809,0
3.59999847412109,-2.86098289489746,1.8758659362793,2.70604062080383,-2.59531431270705,1.84912513636775,2.74948028171299,1242.837,1236.39,2997.569,2989.616,-0.008016115,0.05457226,0.008749423,-0.712170600891113,-0.293088227510452,0.500643372535706,-0.716935713767317,-0.308477408768949,0.443817359206151,0
3.61999893188477,-2.87498235702515,1.87010908126831,2.71590662002563,-2.6095277810186,1.84300947803163,2.75827909567923,1240.741,1234.962,2993.779,2985.797,-0.006513559,0.05494835,0.007297617,-0.699972629547119,-0.287846207618713,0.493299126625061,-0.704359365424783,-0.303066157419654,0.436032000487571,0
3.63999938964844,-2.88873553276062,1.86445748806,2.72562336921692,-2.6234885835008,1.83700253474321,2.76692149746096,1239.312,1233.356,2989.702,2981.805,-0.005025918,0.05531527,0.005859965,-0.687663614749908,-0.282576888799667,0.485838949680328,-0.691670720740692,-0.297606588091786,0.428177124984152,0
3.65999984741211,-2.90224027633667,1.85891175270081,2.73518896102905,-2.6371945352351,1.83110524661191,2.77540613448951,1238.842,1231.876,2985.625,2976.91,-0.003551059,0.05567343,0.004435092,-0.675250232219696,-0.277282744646072,0.478278577327728,-0.678875903610016,-0.292101335726265,0.420256523678599,0
3.68000030517578,-2.91549515724182,1.85347247123718,2.7446014881134,-2.65064357486757,1.82531850058072,2.78373173068862,1237.697,1230.499,2981.476,2972.802,-0.002095908,0.0560214,0.003028505,-0.662738442420959,-0.27196604013443,0.470621109008789,-0.665981146317811,-0.286553081901244,0.412274054652249,0
3.69999694824219,-2.92849802970886,1.848140001297,2.75385880470276,-2.66383127580226,1.81964420129024,2.79189554578451,1236.456,1229.052,2977.462,2968.847,-0.0006615292,0.05635907,0.001640217,-0.650135517120361,-0.266629576683044,0.462871760129929,-0.65299527533123,-0.280965624398954,0.404235181908735,0
3.71999740600586,-2.94124698638916,1.84291458129883,2.76295971870422,-2.67676086214623,1.81408096149726,2.79989957565303,1234.865,1227.669,2973.746,2964.998,0.0007541316,0.05668659,0.0002709678,-0.637448668479919,-0.261276215314865,0.455041199922562,-0.639919784131907,-0.275339605822821,0.396140829984331,0
3.73999786376953,-2.95374035835266,1.83779633045197,2.77190184593201,-2.68942811570037,1.808630596175,2.80774120902801,1234.201,1226.28,2969.507,2960.869,0.002152697,0.05700509,-0.001082309,-0.624684691429138,-0.255908310413361,0.447112441062927,-0.626763698705669,-0.269678909802388,0.38799658639423,0
3.7599983215332,-2.96597743034363,1.83278560638428,2.78068423271179,-2.70183149102237,1.80329377028414,2.81541948920704,1233.859,1225.037,2965.676,2956.104,0.003529821,0.05731399,-0.002416552,-0.611849904060364,-0.250528156757355,0.439114451408386,-0.613533684877225,-0.263986404455806,0.379806577601466,0
3.77999877929688,-2.97795677185059,1.82788276672363,2.78930521011353,-2.7139695770734,1.79807109095524,2.82293354268985,1232.034,1223.815,2961.951,2952.802,0.004879215,0.05761182,-0.00372523,-0.598951101303101,-0.245138555765152,0.431043595075607,-0.60023651686137,-0.258265004538452,0.371574997167698,0
3.79999923706055,-2.98967671394348,1.82308828830719,2.79776310920715,-2.72584109938593,1.7929631065561,2.83028258052034,1230.863,1222.432,2958.304,2949.045,0.00620728,0.05789933,-0.005011537,-0.585996568202972,-0.239742547273636,0.422898232936859,-0.586879077262983,-0.252517671442928,0.363306105753209,0
3.81999969482422,-3.001136302948,1.81840109825134,2.80605673789978,-2.73744492223163,1.78797030575888,2.83746589962856,1230.18,1221.168,2954.492,2945.037,0.007513718,0.05817723,-0.006276005,-0.572993218898773,-0.234342411160469,0.414682745933533,-0.573468357077023,-0.246747413199059,0.355004231116903,0
3.84000015258789,-3.01233553886414,1.81382250785828,2.81418490409851,-2.74878005078916,1.78309311660741,2.84448288417273,1229.424,1219.999,2951.005,2940.882,0.00879577,0.05844489,-0.007515441,-0.559947848320007,-0.228940397500992,0.40641313791275,-0.560011455688534,-0.240957284473894,0.346673768116317,0
3.8599967956543,-3.02327299118042,1.80935168266296,2.82214641571045,-2.75984354851568,1.77833280261403,2.85133171629293,1227.999,1218.765,2947.224,2937.891,0.01004994,0.05870156,-0.008726646,-0.546867966651917,-0.223538964986801,0.398076564073563,-0.546518158200277,-0.23515149552379,0.33832077419619,0
3.87999725341797,-3.03394818305969,1.80498886108398,2.82994031906128,-2.77063893010371,1.77368785150474,2.85801457175126,1227.289,1217.527,2943.978,2933.862,0.01128075,0.05894842,-0.00991335,-0.533761262893677,-0.218140617012978,0.38969749212265,-0.532990631455729,-0.229330978680956,0.329946590735853,0
3.89999771118164,-3.04436111450195,1.80073368549347,2.83756542205811,-2.78116350015273,1.7691594230351,2.8645297819664,1226.484,1216.375,2940.182,2930.552,0.01248366,0.05918494,-0.01107236,-0.520634889602661,-0.2127475887537,0.381258189678192,-0.519438870577852,-0.223500034567577,0.321557405192552,0
3.91999816894531,-3.05451059341431,1.79658651351929,2.84502124786377,-2.79141684911929,1.7647476934202,2.87087709341145,1226.128,1215.241,2936.893,2926.524,0.0136575,0.05941128,-0.0122042,-0.507495999336243,-0.207362323999405,0.372785896062851,-0.505870408491346,-0.2176619043907,0.313157880805522,0
