t,x_s1,x_s2,x_s3,x_s_d1,x_s_d2,x_s_d3,propellers_rpms1,propellers_rpms2,propellers_rpms3,propellers_rpms4,rollRad,pitchRad,yawRad,v_s1,v_s2,v_s3,v_s_d1,v_s_d2,v_s_d3,insideCount
0,-0.0599999986588955,2.94000005722046,1.17999994754791,-0.0599999986588955,2.94000005722046,1.17999994754791,0,0,0,0,0,0,0,0,0,0,-1.06581410364015E-15,4.44089209850063E-16,4.44089209850063E-16,0
0.0200004577636719,-0.0599999986588955,2.94000005722046,1.1771354675293,-0.0600018691155303,2.93999925241522,1.18000110544967,0,0,0,0,-0.01635394,-0.002474609,2.024222E-05,-3.71994488546079E-08,-3.93859025393795E-08,-0.143225952982903,-0.000279999361409376,-0.000120475902936966,0.000173332942931458,9
0.0400009155273438,-0.0599999986588955,2.94000005722046,1.17048275470734,-0.0600148724204753,2.93999365745638,1.18000915511487,0,0,0,0,-0.03270734,-0.004950816,5.430172E-05,-3.62924446051238E-08,-3.87405769686211E-08,-0.332637369632721,-0.00111101934050116,-0.00047804058392963,0.00068777389696065,9
0.05999755859375,-0.0599995739758015,2.93987059593201,1.16407775878906,-0.0600498857373401,2.93997859220429,1.18003083002592,1695.235,2831.989,3014.171,2752.082,-0.03300828,-0.004756405,0.0163444,2.12899576581549E-05,-0.0064786677248776,-0.320250451564789,-0.00247936261166862,-0.00106680046642749,0.00153484356504269,9
0.0799980163574219,-0.0600854456424713,2.93961358070374,1.15838325023651,-0.0601175407449857,2.93994948214456,1.18007271169851,2420.768,2187.3,2779.551,2952.957,-0.02696664,-0.003916977,0.04321668,-0.00429358426481485,-0.0128512140363455,-0.284726977348328,-0.00437227586895222,-0.00188126815916228,0.00270664704326441,9
0.0999984741210938,-0.0603754557669163,2.93927955627441,1.15355825424194,-0.0602281887669101,2.93990187339187,1.18014120809498,2686.042,1336.597,2539.755,3700.403,-0.01274695,-0.002845854,0.0708985,-0.0145004922524095,-0.0166956931352615,-0.241249531507492,-0.00677637982016689,-0.00291568692648091,0.00419490191241918,9
0.119998931884766,-0.0609662309288979,2.93896055221558,1.14950525760651,-0.0603919230601972,2.93983142309968,1.18024256742227,2977.757,980.9217,2172.401,3996.805,0.009147478,-0.001266067,0.09387977,-0.0295387096703053,-0.0159561093896627,-0.202648460865021,-0.00967861374975049,-0.00416443710735115,0.00599152296740588,9
0.139999389648438,-0.0619142949581146,2.93877506256104,1.14610016345978,-0.0606185767455666,2.93973390035084,1.18038287685052,3358.97,891.7781,1703.52,4044.46,0.03462254,0.0007365084,0.1088078,-0.0474032536149025,-0.00927691720426083,-0.170254841446877,-0.0130660253322238,-0.00562194567796536,0.00808849210174802,9
0.159999847412109,-0.0632360726594925,2.93884873390198,1.14330697059631,-0.0609177249752248,2.93960518522485,1.18056806385509,3657.299,996.1227,1325.817,3906.307,0.05733452,0.002393043,0.1147752,-0.0660888999700546,0.00368777103722095,-0.139660090208054,-0.0169257706321904,-0.00728268625174051,0.0104778583075938,9
0.180000305175781,-0.064919076859951,2.93928527832031,1.14116609096527,-0.0612986871007165,2.9394412678651,1.18080389755851,3711.353,1202.422,1178.707,3680.479,0.07180322,0.002858699,0.1130918,-0.084150142967701,0.0218276660889387,-0.107043847441673,-0.0212451141043368,-0.00914117907931815,0.0131517376757159,10
0.200000762939453,-0.0669380575418472,2.94013929367065,1.13973307609558,-0.0617705288407759,2.93923824754608,1.18109599007255,3484.568,1421.528,1291.295,3452.093,0.07574619,0.001873928,0.1066334,-0.100949227809906,0.0427041128277779,-0.0716514736413956,-0.0260114285934326,-0.0111919910485645,0.016102313395512,10
0.219997406005859,-0.0692674517631531,2.94140672683716,1.13902080059052,-0.0623419453860714,2.93899238297017,1.18144972413443,3068.767,1583.86,1582.205,3280.843,0.07063209,-0.0001304949,0.09877751,-0.11646968126297,0.0633745640516281,-0.035610843449831,-0.0312111627562649,-0.0134292913950757,0.0193211965399932,10
0.239997863769531,-0.0718855857849121,2.94303631782532,1.13897037506104,-0.0630217183703222,2.93869989564571,1.18187053599376,2627.296,1655.341,1909.536,3188.438,0.0605255,-0.002402704,0.09227971,-0.130906865000725,0.081475131213665,-0.00252407416701317,-0.0368338920540454,-0.0158485947310391,0.02280193382306,10
0.259998321533203,-0.0747741311788559,2.94495558738708,1.13945722579956,-0.063818066443955,2.93835724931701,1.18236351338666,2317.491,1635.736,2142.433,3161.237,0.0500481,-0.004279167,0.0885496,-0.144427284598351,0.0959604158997536,0.0243415199220181,-0.04286636357961,-0.0184441987007453,0.0265363210638542,10
0.279998779296875,-0.0779177844524384,2.94709873199463,1.14033043384552,-0.0647390625194898,2.93796097043536,1.18293365383054,2221.375,1544.376,2217.862,3172.484,0.04256621,-0.005396097,0.08752025,-0.157182678580284,0.107157520949841,0.0436621755361557,-0.0492963837173861,-0.0212108567320638,0.030516809833474,9
0.299999237060547,-0.0813047215342522,2.94942331314087,1.14146077632904,-0.065792536715479,2.93750768991949,1.18358580454179,2321.82,1413.557,2147.096,3201.059,0.03932263,-0.005715144,0.08799997,-0.169346943497658,0.116234168410301,0.0565175563097,-0.0561118672418845,-0.0241433688900884,0.0347359188016424,9
0.319999694824219,-0.0849254354834557,2.95191335678101,1.14277160167694,-0.0669860785243584,2.93699414222283,1.18432466377777,2531.333,1285.277,1992.023,3227.306,0.03956614,-0.005465872,0.08834622,-0.181035667657852,0.124498836696148,0.0655415058135986,-0.0633008373176985,-0.0272365818771378,0.0391862337367069,9
0.340000152587891,-0.0887696295976639,2.95457077026367,1.14424192905426,-0.0683270389802989,2.93641716440073,1.1851547821788,2746.555,1199.52,1826.753,3231.365,0.04129848,-0.005032309,0.08719033,-0.192209631204605,0.132873252034187,0.0735178962349892,-0.0708514254995047,-0.0304853890327553,0.0438604075056398,9
0.360000610351563,-0.0928236097097397,2.95740389823914,1.14589083194733,-0.0698225328270578,2.93577369517774,1.1860805641102,2888.297,1177.621,1709.541,3203.284,0.0422106,-0.004801679,0.08392632,-0.202699095010757,0.141653060913086,0.0824426710605621,-0.0787518717320621,-0.0338847303337087,0.0487511600740379,9
0.379997253417969,-0.0970700681209564,2.96041440963745,1.14775502681732,-0.0714791088463715,2.935060916796,1.18710606357981,2918.485,1212.729,1669.657,3152.178,0.04053474,-0.005021656,0.07879844,-0.212322875857353,0.150524958968163,0.0932075306773186,-0.0869889214763108,-0.0374289027221294,0.0538502862508218,9
0.399997711181641,-0.101489812135696,2.9635899066925,1.1498681306839,-0.0733040467096699,2.93427569701629,1.18823578705104,2841.545,1279.476,1705.075,3098.151,0.03557606,-0.005736982,0.07265995,-0.220987260341644,0.15877577662468,0.105654589831829,-0.0955541759940907,-0.0411142924556206,0.059152586816983,9
0.419998168945313,-0.106063961982727,2.9669017791748,1.15224468708038,-0.0753034649285836,2.93341540321397,1.18947352217404,2696.403,1350.51,1786.461,3059.121,0.02777207,-0.006820888,0.06657299,-0.228707566857338,0.165598839521408,0.118825063109398,-0.104434660908044,-0.0449353170220673,0.0646500300148815,9
0.439998626708984,-0.11077569425106,2.9703094959259,1.15487396717072,-0.0774835548069347,2.93247737144397,1.19082310166083,2536.668,1405.316,1875.825,3042.321,0.01834331,-0.008068846,0.06144466,-0.235586509108543,0.170385748147964,0.131463184952736,-0.113619049702587,-0.0488871029382406,0.0703356041918149,9
0.459999084472656,-0.115611404180527,2.97376728057861,1.15772342681885,-0.0798502821969742,2.93145903476675,1.19228821865812,2411.952,1432.785,1938.854,3046.733,0.008751022,-0.009289638,0.05777711,-0.241785064339638,0.172892332077026,0.142471194267273,-0.123096124252221,-0.0529648233581361,0.0762023647937057,9
0.479999542236328,-0.12056140601635,2.9772322177887,1.16074991226196,-0.0824093896672336,2.93035792231548,1.19387242808941,2350.316,1432.012,1958.637,3065.135,0.0001874868,-0.0103581,0.05560604,-0.247500568628311,0.17324885725975,0.151322737336159,-0.13285477482153,-0.0571636980729742,0.0822434343651008,9
0.5,-0.12562008202076,2.98066902160645,1.16391253471375,-0.085166398670376,2.92917165836334,1.1955791479969,2354.063,1409.022,1935.677,3090.289,-0.006712231,-0.01123215,0.05457511,-0.252933830022812,0.171839714050293,0.158133789896965,-0.142884000065179,-0.0614789935111996,0.0884520025491718,8
0.520000457763672,-0.13078498840332,2.98405170440674,1.16718280315399,-0.0881266117110474,2.92789796139072,1.19741166088358,2404.505,1377.536,1883.105,3113.916,-0.01193895,-0.01194215,0.05412617,-0.258245050907135,0.169137254357338,0.163511455059052,-0.153172907027918,-0.0659060227384819,0.0948213260877149,8
0.540000915527344,-0.136055380105972,2.98736262321472,1.17054796218872,-0.0912951145137283,2.92653464315245,1.19937311505516,2473.068,1352.231,1819.822,3129.481,-0.01598003,-0.01256746,0.05371588,-0.263519883155823,0.165551453828812,0.168257117271423,-0.163710711144578,-0.0704401454577151,0.101344728821151,8
0.55999755859375,-0.141430705785751,2.99058938026428,1.17401003837585,-0.094676112580471,2.92507989413848,1.20146611391775,2531.793,1343.939,1764.17,3133.634,-0.01957796,-0.01320395,0.05299074,-0.268766731023788,0.161333918571472,0.173102840781212,-0.17448465888317,-0.0750758741803766,0.108014315705644,8
0.579998016357422,-0.146909609436989,2.99372029304504,1.17758071422577,-0.0982755538235842,2.92353115512831,1.2036943395124,2560.965,1355.45,1729.356,3128.018,-0.02344913,-0.01393313,0.05186503,-0.273945033550262,0.156547874212265,0.178532287478447,-0.185488294752812,-0.0798104312890852,0.11482609048482,8
0.599998474121094,-0.152489706873894,2.99674224853516,1.1812744140625,-0.102097262171133,2.92188678079254,1.20606015903275,2553.853,1383.767,1718.672,3117.562,-0.02807132,-0.01479812,0.05049712,-0.279004782438278,0.151100337505341,0.184684410691261,-0.196709126405959,-0.0846384416756885,0.121772319800455,8
0.619998931884766,-0.158168166875839,2.99963855743408,1.18510293960571,-0.106145477944935,2.92014494663912,1.20856619743999,2514.51,1420.041,1730.101,3108.37,-0.03356009,-0.01579787,0.04919917,-0.28392294049263,0.144814401865005,0.191425859928131,-0.208136802817102,-0.0895554515830839,0.128846595874672,8
0.639999389648438,-0.163942530751228,3.0023889541626,1.18907046318054,-0.110424235525481,2.91830391678686,1.21121495220784,2457.437,1455.468,1752.627,3105.641,-0.03968057,-0.01689616,0.04830274,-0.288718521595001,0.137518778443336,0.198376595973969,-0.219761081350814,-0.0945570538913933,0.136042578028218,8
0.659999847412109,-0.169811651110649,3.00497150421143,1.19317293167114,-0.114937365519793,2.91636204303257,1.21400879466451,2399.514,1484.35,1774.898,3110.222,-0.045988,-0.01803652,0.04806203,-0.293456166982651,0.129121646285057,0.20512093603611,-0.231571827761751,-0.0996388881179631,0.143353992680462,8
0.680000305175781,-0.175776347517967,3.00736451148987,1.1973991394043,-0.119688496929273,2.91431776391831,1.21694997133476,2355.883,1501.681,1787.646,3122.109,-0.05197585,-0.01916091,0.04857721,-0.298235267400742,0.119645968079567,0.211310997605324,-0.243559016194652,-0.104796640417365,0.150774633349401,8
0.700000762939453,-0.181839764118195,3.0095489025116,1.20173501968384,-0.124681059317553,2.91216960379868,1.22004060528183,2334.718,1508.153,1786.04,3138.194,-0.05724571,-0.02022777,0.04978899,-0.303171277046204,0.109224148094654,0.216791436076164,-0.255712729184339,-0.110026043581393,0.158298360651655,8
0.719997406005859,-0.188007205724716,3.01151013374329,1.20616710186005,-0.129917262555645,2.90991661182791,1.22328206452116,2336.674,1506.365,1770.357,3155.494,-0.06159412,-0.02121581,0.05151037,-0.308371484279633,0.098060667514801,0.221601903438568,-0.26802079535749,-0.115321860608138,0.165917639927336,8
0.739997863769531,-0.194285497069359,3.01323771476746,1.21068608760834,-0.135402141159277,2.90755662179454,1.22667746565781,2355.388,1501.533,1745.265,3170.625,-0.06504504,-0.02212767,0.05349843,-0.313914388418198,0.0863791033625603,0.225951641798019,-0.280478211503383,-0.120681938755799,0.173629373950669,7
0.759998321533203,-0.200682207942009,3.01472520828247,1.21528828144073,-0.141137563960274,2.90508882959244,1.2302279655877,2381.708,1499.85,1715.915,3181.122,-0.06781633,-0.02298201,0.05552803,-0.3198361992836,0.0743738487362862,0.230107575654984,-0.293073051970232,-0.126101146749576,0.181426180175103,7
0.779998779296875,-0.207204952836037,3.01596856117249,1.21997570991516,-0.147126184485884,2.90251209348295,1.23393520697061,2404.178,1503.833,1691.593,3186.145,-0.07021957,-0.02381292,0.05745995,-0.326136499643326,0.0621715039014816,0.234373688697815,-0.305795832832518,-0.131575403921268,0.189302187598958,7
0.799999237060547,-0.213860660791397,3.01696515083313,1.22475409507751,-0.153370467664426,2.8998253528763,1.23780071571459,2416,1514.312,1675.659,3187.486,-0.07254823,-0.02464809,0.0592532,-0.332785308361053,0.0498244948685169,0.238920286297798,-0.318637178554805,-0.1371006762399,0.197251592319181,7
0.819999694824219,-0.220655560493469,3.0177116394043,1.22963058948517,-0.159872691993147,2.89702762739878,1.24182590231796,2413.647,1531.357,1670.085,3186.156,-0.075009,-0.02550669,0.06097013,-0.339745312929153,0.0373226553201675,0.243825107812881,-0.331587821991737,-0.142672976311719,0.205268657531342,7
0.840000152587891,-0.227595299482346,3.01820397377014,1.2346111536026,-0.166634951706069,2.89411801595997,1.24601206321137,2399.043,1550.478,1673.731,3185.46,-0.07765884,-0.02639299,0.0627288,-0.346986830234528,0.0246224123984575,0.249026477336884,-0.344638604388044,-0.148288363380199,0.213347713529636,7
0.860000610351563,-0.234685301780701,3.01843762397766,1.23969888687134,-0.173659158941841,2.89109569582005,1.2503603820997,2377.313,1568.961,1682.637,3186.907,-0.08041575,-0.02729474,0.06465907,-0.354500234127045,0.0116818295791745,0.254387050867081,-0.357780475378537,-0.153942943326036,0.221483157706883,7
0.879997253417969,-0.241931259632111,3.01840734481812,1.2448935508728,-0.180945630646592,2.88796053060595,1.25487105518773,2355.519,1583.386,1692.001,3191.817,-0.08310181,-0.02819009,0.06685167,-0.362298130989075,-0.00150983035564423,0.259730994701385,-0.371001963495383,-0.159631780297098,0.229667888678032,7
0.899997711181641,-0.249339491128922,3.01810908317566,1.25019204616547,-0.188498701076517,2.88471065540831,1.25954676558649,2339.448,1592.382,1698.129,3199.811,-0.08550878,-0.02905562,0.06933364,-0.370411783456802,-0.014917747117579,0.264924466609955,-0.384299280991351,-0.165353244531568,0.237899561647111,7
0.919998168945313,-0.256917029619217,3.01753997802734,1.25558948516846,-0.196318384305134,2.8813460641717,1.26438752200817,2333.774,1597.111,1696.561,3209.882,-0.08748058,-0.02987001,0.07205606,-0.378877699375153,-0.0284600220620632,0.269873589277267,-0.397661187980262,-0.171102499820431,0.246171218589148,7
0.939998626708984,-0.264671683311462,3.01669931411743,1.26108205318451,-0.204405885800988,2.87786623821667,1.26939407069523,2337.436,1598.145,1690.24,3219.968,-0.08894639,-0.03062422,0.07492499,-0.387732475996017,-0.0420314520597458,0.274630039930344,-0.411079067636589,-0.176875838584386,0.254477525278661,7
0.959999084472656,-0.272611558437347,3.01558899879456,1.26666724681854,-0.212762239776093,2.87427073255068,1.27456705187416,2348.795,1597.547,1679.056,3229.673,-0.08992856,-0.03132037,0.07781401,-0.396993070840836,-0.055520161986351,0.279258668422699,-0.424544411524882,-0.18266959988136,0.262813214588797,7
0.979999542236328,-0.280744671821594,3.01421236991882,1.27234530448914,-0.221388311353785,2.87055917493534,1.27990700109753,2362.898,1599.475,1666.371,3236.475,-0.09054588,-0.03196965,0.08061782,-0.406657934188843,-0.0688337683677673,0.283901542425156,-0.438048819599778,-0.188480169406503,0.271173086491326,7
1,-0.289078742265701,3.01257419586182,1.27811884880066,-0.230284798736574,2.86673126495361,1.28541435058594,2375.451,1603.777,1655.746,3240.958,-0.09095387,-0.03258804,0.0832675,-0.416703969240189,-0.0819140449166298,0.288675665855408,-0.451584000205995,-0.194303979492187,0.279552008056641,7
1.02000045776367,-0.29762065410614,3.01067924499512,1.28399240970612,-0.239452235373992,2.86278677307706,1.29108943057007,2382.712,1611.677,1649.62,3242.948,-0.09130541,-0.03319257,0.0857506,-0.427095264196396,-0.0947422087192535,0.293675720691681,-0.465141770078335,-0.200137509108014,0.287944913453762,7
1.03999710083008,-0.306376457214355,3.00853252410889,1.28997099399567,-0.248889165986195,2.85872632547195,1.29693134016237,2383.433,1621.721,1648.979,3243.85,-0.09170222,-0.03379338,0.08810091,-0.437790602445602,-0.107331030070782,0.298928201198578,-0.478711464817306,-0.205976169660809,0.296345200911388,7
1.05999755859375,-0.315351545810699,3.00613832473755,1.29605913162231,-0.258599401509697,2.85454828239877,1.30294243851408,2378.262,1632.147,1653.584,3244.815,-0.09216987,-0.03439313,0.09038171,-0.448754042387009,-0.11970978230238,0.304408639669418,-0.492290296490434,-0.211818761581115,0.30475114456651,7
1.07999801635742,-0.324550718069077,3.00350022315979,1.30225968360901,-0.268581219802083,2.85025338484727,1.30912165953701,2370.71,1642.62,1659.188,3246.873,-0.09267747,-0.03498435,0.09265517,-0.459957748651505,-0.131903201341629,0.310025304555893,-0.50586781946303,-0.217660790404144,0.31315627807366,7
1.09999847412109,-0.33397850394249,3.0006217956543,1.30857419967651,-0.278834517009062,2.84584167750307,1.31546893894041,2362.813,1649.994,1666.875,3250.199,-0.09314299,-0.03555746,0.09497137,-0.471391528844833,-0.143924117088318,0.315725058317184,-0.519436284009554,-0.223498921639497,0.321555803983559,7
1.11999893188477,-0.343639492988586,2.99750661849976,1.31500244140625,-0.289359035362208,2.84131327127672,1.32198411715334,2358.389,1653.981,1671.953,3255.918,-0.09346364,-0.03610075,0.0973355,-0.483050227165222,-0.15575946867466,0.321414768695831,-0.532988048794549,-0.229329867434001,0.329944991945551,7
1.13999938964844,-0.353538244962692,2.99415922164917,1.32154393196106,-0.300154365346813,2.83666834237095,1.3286669406667,2358.507,1656.463,1673.641,3262.138,-0.09357123,-0.03660408,0.09972399,-0.494936287403107,-0.167374849319458,0.32707417011261,-0.546515580872639,-0.235150386571708,0.338319178707607,7
1.15999984741211,-0.363679170608521,2.99058485031128,1.32819795608521,-0.311219947869739,2.83190713134792,1.33551706337518,2363.606,1656.905,1671.9,3269.025,-0.09343594,-0.03706534,0.102081,-0.507048010826111,-0.178722620010376,0.332700312137604,-0.560011455688534,-0.240957284473894,0.346673768116318,7
1.18000030517578,-0.374066740274429,2.98678970336914,1.33496487140656,-0.322555076427271,2.82702994219644,1.34253404791935,2371.853,1657.816,1667.83,3274.904,-0.0930892,-0.03748772,0.1043468,-0.519377887248993,-0.189756125211716,0.338346183300018,-0.573468357077025,-0.246747413199059,0.355004231116904,7
1.19999694824219,-0.384704887866974,2.98278093338013,1.34184622764587,-0.334156660511822,2.8220381046756,1.34971598112778,2381.097,1659.464,1663.296,3279.687,-0.09259652,-0.03787867,0.1064693,-0.53190690279007,-0.200441271066666,0.344069212675095,-0.58687652428584,-0.252516572968185,0.36330452533874,7
1.21999740600586,-0.395597040653229,2.97856569290161,1.34884488582611,-0.346028131869748,2.8169301422008,1.35706498741494,2388.682,1662.537,1660.615,3282.891,-0.09203991,-0.03825098,0.1084234,-0.544607579708099,-0.210764661431313,0.349934101104736,-0.600233974716476,-0.258263910724523,0.371573423458908,7
1.23999786376953,-0.406745910644531,2.97415113449097,1.35596394538879,-0.358166167196084,2.81170748469733,1.36457900949675,2393.89,1668.494,1658.542,3284.877,-0.09150728,-0.03860998,0.1102086,-0.557443499565125,-0.220731154084206,0.355955988168716,-0.613531154887641,-0.263985315871967,0.379805011417393,7
1.2599983215332,-0.418153584003448,2.96954369544983,1.36320734024048,-0.370569492049568,2.80637068052165,1.37225725843336,2395.003,1674.419,1661.621,3285.686,-0.09104709,-0.03896365,0.1118591,-0.570383369922638,-0.230366408824921,0.362169802188873,-0.626761182173783,-0.269677827009021,0.387995028541113,7
1.27999877929688,-0.42982143163681,2.96474957466125,1.37057793140411,-0.383236695417198,2.80092033679326,1.3800988607405,2393.551,1679.862,1666.568,3287.246,-0.09066146,-0.03931199,0.1134125,-0.583394527435303,-0.239700675010681,0.368528097867966,-0.639917282339435,-0.275338529371412,0.396139281255613,7
1.29999923706055,-0.441750556230545,2.95977449417114,1.37807774543762,-0.396166231882091,2.79535711846185,1.3881028597315,2390.71,1685.118,1672.586,3288.955,-0.09032377,-0.03965021,0.1149104,-0.596454381942749,-0.248759910464287,0.374993115663528,-0.652992789539212,-0.280964554832093,0.404233643085061,7
1.31999969482422,-0.453941464424133,2.95462322235107,1.38570785522461,-0.409356423791328,2.7896817473746,1.39626821685929,2388.614,1688.237,1678.33,3291.955,-0.08998182,-0.03997192,0.1163751,-0.60954624414444,-0.257558554410934,0.38150542974472,-0.665981146317813,-0.286553081901244,0.412274054652251,8
1.34000015258789,-0.466394662857056,2.94930124282837,1.39346849918365,-0.422805463423808,2.78389500134342,1.4045938130584,2388.413,1690.149,1682.536,3295.539,-0.08958607,-0.04027072,0.1178114,-0.62266081571579,-0.266096889972687,0.388032168149948,-0.678875903610019,-0.292101335726266,0.4202565236786,8
1.36000061035156,-0.479110449552536,2.94381403923035,1.40135955810547,-0.436511415158101,2.77799771321212,1.41307845008695,2390.924,1690.499,1684.636,3299.857,-0.08910245,-0.04054343,0.1192008,-0.635790109634399,-0.274363458156586,0.394550532102585,-0.691670720740693,-0.297606588091785,0.42817712498415,8
1.37999725341797,-0.492088973522186,2.93816709518433,1.40938091278076,-0.450469530727146,2.77199192602736,1.42171918854144,2395.674,1690.604,1684.791,3303.977,-0.08852561,-0.04078897,0.1205152,-0.64892578125,-0.282341480255127,0.401070296764374,-0.704356955827446,-0.303065120637236,0.436030508832034,8
1.39999771118164,-0.50533002614975,2.93236684799194,1.41753327846527,-0.464682951063699,2.76587628833354,1.43051797280888,2401.455,1690.298,1684.552,3307.669,-0.08787153,-0.04101375,0.1217249,-0.662055492401123,-0.290017127990723,0.407617539167404,-0.716933326165324,-0.308476381450513,0.44381588116678,8
1.41999816894531,-0.518833220005035,2.92641925811768,1.42581725120544,-0.47914673136562,2.75965292774086,1.43947174182117,2407.839,1692.393,1681.894,3310.581,-0.08719403,-0.04121988,0.1228041,-0.675158679485321,-0.297382086515427,0.414200514554977,-0.729391385793766,-0.313836736470737,0.451528013536465,8
1.43999862670898,-0.532597541809082,2.920330286026,1.43423473834991,-0.4938584461112,2.75332288788357,1.44857899406484,2412.3,1694.331,1682.7,3311.932,-0.08654048,-0.04141641,0.1237548,-0.688217461109161,-0.304444998502731,0.420875430107117,-0.741725227577294,-0.31914364402254,0.459163249142831,8
1.45999908447266,-0.546621680259705,2.9141058921814,1.44278728961945,-0.508815552717244,2.74688726276417,1.45783815555978,2415.025,1696.621,1684.341,3313.39,-0.08594074,-0.04160763,0.1245843,-0.701205968856812,-0.311223745346069,0.427628606557846,-0.753929052770513,-0.324394609067776,0.466717998286247,8
1.47999954223633,-0.56090372800827,2.90775108337402,1.4514764547348,-0.524015393706918,2.74034719582071,1.46724758120123,2415.676,1699.917,1687.469,3314.027,-0.08541343,-0.04179565,0.1253182,-0.714102983474731,-0.31774240732193,0.43445897102356,-0.76599717101811,-0.329587183205524,0.474188738365705,8
1.5,-0.575441539287567,2.90127062797546,1.46030306816101,-0.539455198877605,2.73370387899399,1.4768055561018,2415.185,1702.398,1691.67,3315.057,-0.08494951,-0.04197834,0.125982,-0.726889073848724,-0.324025303125381,0.441333442926407,-0.777924000354858,-0.334718964672088,0.481572013878822,8
1.52000045776367,-0.59023255109787,2.89466881752014,1.46926748752594,-0.555132087468752,2.72695855179478,1.48651029693349,2414.383,1704.287,1696.087,3316.323,-0.08452553,-0.04215358,0.1265979,-0.739550948143005,-0.330091834068298,0.448222488164902,-0.789704067205609,-0.339787598340998,0.488864436421842,8
1.53999710083008,-0.605274140834808,2.8879497051239,1.47836935520172,-0.571040013494911,2.72011381564173,1.49635806094328,2414.292,1705.043,1699.896,3318.179,-0.08410955,-0.04231656,0.1271764,-0.752079010009766,-0.335953086614609,0.455092936754227,-0.801329803423436,-0.344789827850059,0.496061320951293,8
1.55999755859375,-0.620563447475433,2.88111734390259,1.48760795593262,-0.587181951496087,2.71316839067337,1.50635068951315,2415.211,1704.4,1703.317,3320.392,-0.083668,-0.0424657,0.1277167,-0.764467656612396,-0.341612279415131,0.461929529905319,-0.812800388649436,-0.349725300221754,0.503162159625937,8
1.57999801635742,-0.636097609996796,2.87417602539063,1.49698197841644,-0.603551689586986,2.70612494969039,1.51648433719019,2418.167,1704.908,1702.953,3322.86,-0.08319981,-0.04259726,0.1282026,-0.776708543300629,-0.3470638692379,0.468703150749207,-0.824108441976122,-0.354590839657789,0.510162383312438,8
1.59999847412109,-0.651873648166656,2.86712980270386,1.50649094581604,-0.620145926473056,2.69898491314762,1.52675696031579,2421.451,1704.103,1704.203,3324.481,-0.08270873,-0.0427155,0.1286254,-0.788799047470093,-0.352305859327316,0.475450813770294,-0.835248923368005,-0.359384277571697,0.517058871988737,8
1.61999893188477,-0.667888224124908,2.85998296737671,1.51613426208496,-0.636961261140657,2.69174974440622,1.53716645350051,2425.142,1703.312,1704.308,3326.42,-0.08220486,-0.04282257,0.1289684,-0.80072820186615,-0.357337653636932,0.482163935899734,-0.846216901179681,-0.364103492014234,0.523848572731403,8
1.63999938964844,-0.684137940406799,2.8527398109436,1.52591145038605,-0.653994195024907,2.68442094880091,1.54771065096602,2428.193,1703.832,1704.469,3327.302,-0.08171484,-0.0429227,0.1292286,-0.812485814094543,-0.362163752317429,0.488861858844757,-0.857007552155828,-0.368746407673381,0.530528499715628,8
1.65999984741211,-0.700619041919708,2.84540390968323,1.53582227230072,-0.671241134177535,2.67700007270724,1.55838732788714,2430.392,1704.307,1705.318,3327.979,-0.08125731,-0.04301857,0.1294075,-0.824058890342712,-0.366794526576996,0.495542287826538,-0.867616161431205,-0.373310995874343,0.537095734215228,8
1.68000030517578,-0.717327833175659,2.83797907829285,1.54586637020111,-0.688698391434734,2.66948870260877,1.56919420173384,2431.404,1705.303,1706.991,3328.091,-0.08084558,-0.04311285,0.1295173,-0.835435628890991,-0.371244817972183,0.502205431461334,-0.878038122530658,-0.377795274579551,0.543547424602645,8
1.69999694824219,-0.734259843826294,2.83046841621399,1.55604302883148,-0.706358800111611,2.66188992212981,1.58012683598675,2431.587,1705.922,1709.338,3328.277,-0.08047966,-0.04320393,0.129572,-0.846605002880096,-0.375530749559402,0.50883412361145,-0.888267004546665,-0.382196476749158,0.549879589839776,8
1.71999740600586,-0.751411020755768,2.82287502288818,1.56635129451752,-0.724225231782013,2.65420249571236,1.5911870082869,2431.067,1705.783,1712.681,3328.451,-0.08014144,-0.04329288,0.129587,-0.857559680938721,-0.379667103290558,0.515416085720062,-0.898302321135456,-0.386514393123025,0.556091928856661,8
1.73999786376953,-0.768776834011078,2.81520175933838,1.57678949832916,-0.742290383213093,2.64642956573347,1.60237019758524,2431.36,1706.679,1713.337,3329.037,-0.07982719,-0.04337384,0.1295664,-0.868291139602661,-0.383661538362503,0.521908462047577,-0.908137821269591,-0.39074633405868,0.562180571969536,8
1.7599983215332,-0.786352872848511,2.80745124816895,1.58735609054565,-0.760550216073323,2.63857286977439,1.61367390396219,2431.49,1705.845,1716.124,3329.088,-0.07952039,-0.04344841,0.1295205,-0.8788001537323,-0.387521594762802,0.528329133987427,-0.917769332013572,-0.394890504058555,0.568142935932543,8
1.77999877929688,-0.804134547710419,2.79962635040283,1.59804904460907,-0.779000609654483,2.63063418086074,1.62509557650306,2432.442,1704.255,1717.473,3330.061,-0.07920294,-0.04351445,0.1294429,-0.889082431793213,-0.391249686479568,0.534647405147552,-0.927192788821983,-0.398945154262308,0.57397650459845,8
1.79999923706055,-0.822117149829865,2.79172945022583,1.60886645317078,-0.79763736303951,2.62261530652977,1.63663261464007,2433.785,1703.323,1718.028,3330.446,-0.07887271,-0.04357251,0.1293297,-0.899136662483215,-0.394845306873322,0.540868639945984,-0.936404235539493,-0.402908582446823,0.579678828918647,9
1.81999969482422,-0.84029632806778,2.78376340866089,1.61980617046356,-0.816456197270346,2.61451808789761,1.64828236949435,2435.505,1702.022,1718.168,3330.88,-0.0785313,-0.04362311,0.129173,-0.90895938873291,-0.398307740688324,0.546988010406494,-0.945399824400851,-0.406779133026206,0.585247526943151,9
1.84000015258789,-0.858667314052582,2.7757306098938,1.63086640834808,-0.835452757515797,2.60634439872645,1.66004214521794,2437.14,1700.99,1718.225,3330.881,-0.07818828,-0.04366945,0.1289683,-0.918547093868256,-0.401638150215149,0.553011894226074,-0.954175816030892,-0.41055519705179,0.590680283820602,9
1.8599967956543,-0.877225160598755,2.76763391494751,1.64204525947571,-0.854618942724365,2.59809772467243,1.67190692687406,2438.415,1700.13,1718.401,3330.597,-0.07785325,-0.04371206,0.1287147,-0.927894771099091,-0.40484020113945,0.558941662311554,-0.962726969681477,-0.41423451957606,0.595973855278252,9
1.87999725341797,-0.895965158939362,2.75947546958923,1.6533408164978,-0.873957566090845,2.58977685529642,1.6838784559643,2438.934,1698.762,1719.662,3330.085,-0.07752568,-0.04375307,0.1284156,-0.936997890472412,-0.407920479774475,0.564780175685883,-0.971053025860989,-0.417816988947023,0.601128080678429,9
1.89999771118164,-0.914882123470306,2.75125789642334,1.66475081443787,-0.893460418296025,2.58138532283915,1.69595165052899,2439.587,1699.254,1718.702,3329.445,-0.07722368,-0.04379036,0.1280731,-0.945848703384399,-0.410883992910385,0.570501863956451,-0.979148917665041,-0.421300425017273,0.606139823365946,9
1.91999816894531,-0.933971047401428,2.74298310279846,1.67627346515656,-0.913122862707269,2.57292512231409,1.70812364027167,2439.22,1698.209,1720.695,3328.137,-0.07694458,-0.04382658,0.127701,-0.954447209835052,-0.413740605115891,0.576129972934723,-0.987011339258123,-0.424683405378145,0.611007036871143,9
1.93999862670898,-0.953226745128632,2.73465323448181,1.6879061460495,-0.932940197657643,2.56439827671719,1.72039151463653,2438.815,1696.646,1722.031,3327.598,-0.07667401,-0.0438596,0.127303,-0.962788879871368,-0.416497796773911,0.581634223461151,-0.99463709319481,-0.4279645542582,0.615727741822989,9
1.95999908447266,-0.972644329071045,2.72626996040344,1.69964635372162,-0.952907658613767,2.55580683609405,1.73275232415044,2438.328,1695.555,1723.061,3326.641,-0.07640556,-0.04388943,0.126886,-0.970873236656189,-0.41915962100029,0.58701103925705,-1.00202309041976,-0.431142542523221,0.620300025949072,9
1.97999954223633,-0.992218315601349,2.71783542633057,1.71149122714996,-0.973020420343666,2.54715287660719,1.74520308176496,2438.2,1693.684,1723.831,3326.009,-0.07612646,-0.04391393,0.1264496,-0.978699445724487,-0.421727538108826,0.592245161533356,-1.00916635026771,-0.434216087676217,0.62472204407561,9
2,-1.01194357872009,2.70935153961182,1.72343790531158,-0.993273599084619,2.53843849960327,1.7577407641983,2438.456,1691.87,1724.009,3325.222,-0.07583138,-0.0439331,0.1259915,-0.986267983913422,-0.424200266599655,0.59733247756958,-1.01606400046349,-0.437183953857422,0.628992018127441,9
2.02000045776367,-1.03181517124176,2.70081996917725,1.73548328876495,-1.01366225471101,2.52966583068033,1.7703623132774,2439.03,1689.772,1723.924,3324.368,-0.07551766,-0.04394695,0.1255074,-0.993578970432281,-0.426575869321823,0.602271556854248,-1.022713277122,-0.440044951844294,0.633108237128032,9
2.03999710083008,-1.05182778835297,2.69224286079407,1.74762463569641,-1.03417746715556,2.52083870789413,1.78306220705567,2439.66,1687.71,1723.703,3323.272,-0.0751885,-0.04395654,0.1249934,-1.0006320476532,-0.428852558135986,0.607065737247467,-1.02911032850577,-0.442797424341804,0.637068316668402,9
2.05999755859375,-1.07197642326355,2.68362236022949,1.75985896587372,-1.05482201812353,2.5119559343546,1.79584216754118,2439.997,1684.993,1724.175,3322.093,-0.07484015,-0.04396293,0.124447,-1.00742626190186,-0.431030124425888,0.611719071865082,-1.03525504859546,-0.445441325732794,0.640872191117535,9
2.07999801635742,-1.09225559234619,2.67496013641357,1.77218317985535,-1.07558691007788,2.50302138145056,1.8086966248299,2440.839,1684.28,1722.062,3320.713,-0.07449234,-0.04396506,0.1238631,-1.01395690441132,-0.433106511831284,0.616210877895355,-1.04114375428791,-0.447975071280863,0.644517580459114,9
2.09999847412109,-1.11266005039215,2.66625833511353,1.78459477424622,-1.09646699912883,2.4940372624541,1.82162239460902,2440.605,1682.257,1723.039,3318.445,-0.07415039,-0.04396506,0.1232514,-1.02022612094879,-0.435086399316788,0.620577096939087,-1.04677411523768,-0.450397658303471,0.648003042098304,9
2.11999893188477,-1.13318467140198,2.65751886367798,1.79709053039551,-1.11745709586255,2.485005810225,1.83461626438416,2440.27,1679.718,1723.426,3316.995,-0.07380738,-0.04396293,0.1226116,-1.02622985839844,-0.43697389960289,0.624789774417877,-1.0521439094894,-0.452708130755304,0.651327200538896,8
2.13999938964844,-1.15382397174835,2.64874339103699,1.80966758728027,-1.138551967509,2.47592927627801,1.8476749948214,2439.497,1677.975,1723.869,3314.866,-0.07346276,-0.04395867,0.1219516,-1.03196811676025,-0.438771992921829,0.628854215145111,-1.05725102347782,-0.454905579228273,0.654488747383304,8
2.15999984741211,-1.17457270622253,2.63993382453918,1.82232260704041,-1.15974634010981,2.46680992985011,1.86079532108929,2438.857,1675.491,1724.215,3313.123,-0.07310803,-0.04395121,0.1212728,-1.03743970394135,-0.440482199192047,0.632753491401672,-1.06209345202774,-0.456989140951513,0.657486441332569,8
2.18000030517578,-1.19542551040649,2.63109183311462,1.83505237102509,-1.18103490068612,2.45765005696766,1.87397395420079,2438.323,1673.032,1724.402,3311.154,-0.07273732,-0.04393949,0.1205771,-1.04264557361603,-0.442104160785675,0.636486172676086,-1.06666929835407,-0.458957999791384,0.660319108186354,8
2.19999694824219,-1.21637725830078,2.62221908569336,1.84785330295563,-1.20240821395574,2.44845371736898,1.88720505326679,2438.086,1670.164,1724.334,3309.285,-0.07234477,-0.04392245,0.1198627,-1.04758632183075,-0.44363597035408,0.640045642852783,-1.07097597819164,-0.460811043810786,0.662985148161421,8
2.21999740600586,-1.23742246627808,2.61331748962402,1.86072206497192,-1.22386905090202,2.43921971877738,1.90049033365798,2437.77,1666.541,1724.922,3307.317,-0.0719192,-0.04390168,0.1191279,-1.05226349830627,-0.445075213909149,0.643438339233398,-1.07501345493598,-0.46254825725983,0.665484538597853,8
2.23999786376953,-1.25855588912964,2.60438919067383,1.87365484237671,-1.24540792547886,2.42995214277345,1.91382392305993,2438.473,1664.704,1722.457,3305.36,-0.07147605,-0.04387398,0.1183638,-1.05667400360107,-0.446415930986404,0.646637916564941,-1.07877930973132,-0.464168599372462,0.667815782108711,8
2.2599983215332,-1.27977240085602,2.59543609619141,1.88664853572845,-1.26701939030951,2.42065333321126,1.92720244928693,2438.404,1661.539,1722.902,3302.49,-0.07102011,-0.04384255,0.1175755,-1.06082212924957,-0.447657972574234,0.649687588214874,-1.08227207933222,-0.465671440555045,0.66997797287536,8
2.27999877929688,-1.30106639862061,2.58646011352539,1.89969980716705,-1.28869796983554,2.41132564607061,1.9406225227075,2438.432,1657.843,1722.657,3300.417,-0.07054607,-0.0438074,0.1167574,-1.06470477581024,-0.44880136847496,0.652563691139221,-1.08549040888332,-0.467056197851165,0.67197027217779,8
2.29999923706055,-1.32243299484253,2.57746315002441,1.9128053188324,-1.31043816248474,2.40197144852433,1.95408073758635,2438.014,1655.305,1722.342,3297.5,-0.07006244,-0.04376958,0.1159142,-1.06832218170166,-0.449846059083939,0.655278205871582,-1.08843305191934,-0.468322334941636,0.673791908394614,8
2.31999969482422,-1.34386646747589,2.56844735145569,1.92596173286438,-1.33223444283894,2.39259311800549,1.96757367342642,2437.529,1651.923,1722.336,3294.92,-0.06956443,-0.04372857,0.1150459,-1.07167267799377,-0.45079293847084,0.657820284366608,-1.09109887036509,-0.469469362144493,0.675442177003072,7
2.34000015258789,-1.36536157131195,2.55941462516785,1.93916547298431,-1.35408126380187,2.38319304127467,1.98109789631088,2436.938,1648.896,1722.171,3292.032,-0.06905311,-0.0436833,0.1141556,-1.07475614547729,-0.451641976833344,0.660189807415009,-1.09348683453544,-0.470496836415,0.676920440579027,7
2.3599967956543,-1.38691306114197,2.55036687850952,1.9524130821228,-1.37596887940059,2.37377541175173,1.99464737301821,2436.383,1645.424,1722.136,3289.201,-0.06852473,-0.04363376,0.1132443,-1.07757258415222,-0.452392816543579,0.662382304668427,-1.09559564748259,-0.471404199712748,0.678225896250009,7
2.37999725341797,-1.40851533412933,2.54130601882935,1.96570110321045,-1.39790005743958,2.36433903852774,2.00822381695123,2435.626,1641.15,1722.849,3286.375,-0.06796706,-0.0435805,0.112313,-1.08012294769287,-0.453044772148132,0.664401590824127,-1.09742530100382,-0.472191448508328,0.679358538938131,7
2.39999771118164,-1.43016338348389,2.53223419189453,1.97902548313141,-1.41986502747765,2.35488812555058,2.02182117974142,2435.885,1638.609,1720.622,3283.536,-0.06739236,-0.04352085,0.1113559,-1.08240449428558,-0.453592926263809,0.666219234466553,-1.09897466165884,-0.47285809511406,0.680317666989874,7
2.41999816894531,-1.45185196399689,2.52315354347229,1.99238300323486,-1.44185817738692,2.34542508756209,2.03543598721428,2435.437,1634.561,1721.287,3279.954,-0.0668006,-0.04345587,0.1103792,-1.08442199230194,-0.454037547111511,0.667877793312073,-1.10024313330221,-0.473403883025206,0.681102911362803,6
2.43999862670898,-1.47357547283173,2.51406598091125,2.00576996803284,-1.46387388420027,2.33595234396796,2.0490647584853,2435.34,1629.883,1721.041,3277.269,-0.06618381,-0.04338662,0.109376,-1.08617305755615,-0.454377472400665,0.669349789619446,-1.10123022817855,-0.473828602374257,0.681713970113108,6
2.45999908447266,-1.49532866477966,2.50497341156006,2.01918292045593,-1.48590651627916,2.32647231790489,2.06270400730194,2434.981,1626.414,1720.589,3273.698,-0.06554838,-0.04331259,0.1083498,-1.08765888214111,-0.454610794782639,0.6706503033638,-1.10193556692257,-0.474132089930926,0.682150608395601,6
2.47999954223633,-1.51710605621338,2.49587893486023,2.03261828422546,-1.50795043548148,2.31698743530794,2.07635024338568,2434.747,1622.075,1720.292,3270.5,-0.06489218,-0.04323376,0.1072981,-1.08887851238251,-0.454736560583115,0.671769380569458,-1.10235887855907,-0.474314229102152,0.682412658463722,5
2.5,-1.538902759552,2.48678398132324,2.04607248306274,-1.52999999932945,2.30750012397766,2.08999997377396,2434.517,1618.011,1719.848,3267.007,-0.0642168,-0.04315013,0.1062207,-1.08983194828033,-0.454753577709198,0.672710239887238,-1.10250000050292,-0.474374949932098,0.682500019669533,5
2.51999664306641,-1.56071305274963,2.47769069671631,2.05954194068909,-1.55204535801192,2.29801462201262,2.10364710096447,2434.165,1613.717,1719.694,3263.406,-0.06352225,-0.04306172,0.1051186,-1.09051930904388,-0.454661160707474,0.673475921154022,-1.10235893238473,-0.47431425226183,0.68241269178437,5
2.53999710083008,-1.58253192901611,2.46860146522522,2.07302331924438,-1.57408927882895,2.2885297387209,2.11729333804778,2433.563,1608.723,1720.184,3259.89,-0.0628016,-0.04296957,0.1039923,-1.09094083309174,-0.45445916056633,0.67406815290451,-1.10193567455836,-0.474132136243598,0.68215067502728,4
2.55999755859375,-1.60435390472412,2.45951867103577,2.08651256561279,-1.59612191359838,2.27904971150017,2.13093258853001,2433.825,1605.357,1718.141,3256.255,-0.0620671,-0.04287104,0.1028375,-1.09109365940094,-0.454144060611725,0.674461722373962,-1.10123038958312,-0.473828671822132,0.681714070030222,3
2.57999801635742,-1.62617337703705,2.45044422149658,2.10000658035278,-1.6181376241771,2.2695769662859,2.14456136213196,2433.307,1600.692,1718.793,3251.967,-0.06131982,-0.04276717,0.1016616,-1.09098184108734,-0.453717231750488,0.674697697162628,-1.10024334841354,-0.473403975581601,0.681103044526962,1
2.59999847412109,-1.64798533916473,2.44138073921204,2.11350154876709,-1.64013077892511,2.26011392621545,2.15817617260023,2433.06,1595.399,1718.721,3248.504,-0.06055282,-0.04265905,0.1004603,-1.09060323238373,-0.453179001808167,0.674749433994293,-1.09897493039424,-0.472858210743393,0.680317833349887,0
2.61999893188477,-1.66978466510773,2.43233013153076,2.12699413299561,-1.66209575487342,2.25066301069528,2.17177353904914,2432.6,1590.993,1718.549,3244.353,-0.05976879,-0.04254559,0.09923721,-1.08995914459229,-0.452528953552246,0.674629509449005,-1.09742562325992,-0.472191587166126,0.67935873843001,0
2.63999938964844,-1.69156563282013,2.42329454421997,2.14048075675964,-1.68402693989188,2.24122663446822,2.18534998730279,2432.316,1585.856,1718.423,3240.533,-0.05896292,-0.04242682,0.09799057,-1.08904933929443,-0.451766490936279,0.674328446388245,-1.09559602313537,-0.471404361345641,0.67822612879697,0
2.65999984741211,-1.71332311630249,2.41427707672119,2.15395784378052,-1.70591873485703,2.23180720668066,2.19890205123703,2432.063,1581.079,1718.104,3236.389,-0.05813734,-0.04230272,0.0967213,-1.0878746509552,-0.450890481472015,0.67385059595108,-1.09348683453544,-0.470496836414999,0.676920440579028,0
2.67999649047852,-1.73505163192749,2.4052791595459,2.16742157936096,-1.72776139360717,2.22240892083372,2.2124236975135,2432.034,1575.764,1717.797,3232.409,-0.05729045,-0.04217275,0.09542679,-1.08643507957458,-0.449899911880493,0.673192083835602,-1.09109935234628,-0.469469569527535,0.67544247537239,0
2.69999694824219,-1.75674641132355,2.39630317687988,2.18086886405945,-1.74955768413056,2.21303058593937,2.22591663964878,2431.592,1570.187,1718.302,3228.149,-0.056418,-0.04203853,0.09410903,-1.08473229408264,-0.448794364929199,0.672367990016937,-1.08843358680109,-0.468322565086308,0.673792239511893,0
2.71999740600586,-1.77840161323547,2.38735175132751,2.19429588317871,-1.77129788800495,2.2036763835632,2.23937486147656,2432.142,1565.715,1716.394,3224.059,-0.05553117,-0.04189685,0.09276168,-1.08276331424713,-0.447570949792862,0.671346306800842,-1.08549099645889,-0.467056450668518,0.671970635915057,0
2.73999786376953,-1.80001223087311,2.37842702865601,2.20769929885864,-1.79297647980783,2.19434869114016,2.25279494249708,2431.809,1560.565,1716.91,3219.118,-0.05463528,-0.04175091,0.09139291,-1.08053231239319,-0.44623127579689,0.670174419879913,-1.08227271937422,-0.465671715947234,0.669978369091845,0
2.7599983215332,-1.82157301902771,2.36953115463257,2.22107577323914,-1.81458795796224,2.18504987584512,2.26617347697213,2431.727,1554.367,1717.023,3215.156,-0.05372235,-0.04159964,0.0899978,-1.07803761959076,-0.444776833057404,0.668824017047882,-1.07878000199166,-0.464168897232749,0.667816210650842,0
2.77999877929688,-1.84307861328125,2.36066722869873,2.23442196846008,-1.83612684690458,2.17578229366013,2.27950707526701,2431.302,1549.453,1716.957,3210.354,-0.05279717,-0.04144358,0.08858188,-1.07528066635132,-0.44320809841156,0.667310655117035,-1.07501419914593,-0.462548577472581,0.665484999299265,0
2.79999923706055,-1.8645236492157,2.35183668136597,2.2477343082428,-1.85758769925251,2.16654828844162,2.29279236519255,2431.225,1543.539,1716.836,3206.107,-0.05185494,-0.04128219,0.08714207,-1.072261095047,-0.441525638103485,0.665618121623993,-1.07097677406178,-0.460811386251471,0.662985640842947,0
2.81999969482422,-1.88590335845947,2.34304213523865,2.26100945472717,-1.87896509797278,2.15735019098767,2.30602599334712,2430.934,1538.3,1716.803,3201.251,-0.05089887,-0.04111548,0.0856827,-1.06898093223572,-0.439729630947113,0.66376143693924,-1.06666929835407,-0.458957999791384,0.660319108186353,0
2.84000015258789,-1.90721225738525,2.33428573608398,2.2742440700531,-1.90025365854909,2.14819031810522,2.31920462645863,2430.914,1532.126,1716.826,3196.872,-0.04992415,-0.04094291,0.08420095,-1.06544053554535,-0.437820494174957,0.661729574203491,-1.06209345202774,-0.456989140951513,0.657486441332568,0
2.8599967956543,-1.92844498157501,2.32556986808777,2.28743457794189,-1.9214439980555,2.13907270700516,2.33232245604895,2430.873,1526.546,1716.64,3192.061,-0.04893345,-0.04076501,0.08269831,-1.06164145469666,-0.435797870159149,0.659530997276306,-1.05725197237562,-0.454905987512489,0.654489334796247,0
2.87999725341797,-1.94959664344788,2.31689643859863,2.30057787895203,-1.94253888918396,2.12999616467562,2.34538119854648,2430.71,1519.937,1717.199,3187.528,-0.04791879,-0.04058231,0.08117352,-1.05758500099182,-0.433662176132202,0.65716826915741,-1.05214490868305,-0.452708560680416,0.651327819087361,0
2.89999771118164,-1.9706619977951,2.30826854705811,2.31367039680481,-1.96352900640172,2.1209647036328,2.35837508100222,2431.375,1514.986,1715.533,3182.665,-0.04689507,-0.0403927,0.07962371,-1.05327022075653,-0.431411385536194,0.654621124267578,-1.04677516433438,-0.450398109700476,0.648003691539142,0
2.91999816894531,-1.99163615703583,2.29968762397766,2.32670903205872,-1.98440911693069,2.11198057539494,2.37130086407726,2431.297,1508.83,1716.201,3177.447,-0.04586443,-0.04019829,0.07805432,-1.04870104789734,-0.429047882556915,0.651929795742035,-1.04114485287423,-0.447975543971863,0.644518260536375,0
2.93999862670898,-2.01251363754272,2.29115581512451,2.33969044685364,-2.00517403134858,2.10304601282548,2.38415533527198,2431.337,1502.145,1716.476,3172.872,-0.044821,-0.03999855,0.0764624,-1.04387736320496,-0.426573932170868,0.649073243141174,-1.03525619623725,-0.445441819530995,0.640872901562472,0
2.95999908447266,-2.03328967094421,2.28267621994019,2.35261178016663,-2.02581860575671,2.0941632292003,2.39693531026807,2431.13,1496.549,1716.487,3167.668,-0.04376958,-0.03979455,0.07485264,-1.03880083560944,-0.423990666866302,0.646061599254608,-1.02911152474823,-0.442797939051516,0.637069057199471,0
2.97999954223633,-2.05395913124084,2.27425026893616,2.36546945571899,-2.04633774394789,2.08533441727499,2.40963763427052,2431.211,1490.012,1716.594,3162.925,-0.04270485,-0.03958523,0.07322299,-1.03347253799438,-0.421299546957016,0.642883062362671,-1.022713277122,-0.440044951844293,0.633108237128031,0
3,-2.07451677322388,2.26588034629822,2.37826037406921,-2.06672639957428,2.07656174835205,2.42225918334961,2431.115,1484.092,1716.725,3157.696,-0.04163053,-0.03937111,0.07157725,-1.0278947353363,-0.41850158572197,0.639550745487213,-1.01606400046349,-0.437183953857422,0.628992018127441,0
3.01999664306641,-2.09495806694031,2.257568359375,2.39098143577576,-2.08697572864857,2.06784902775215,2.4347944826559,2431.307,1477.53,1716.774,3152.821,-0.0405429,-0.03915113,0.06991359,-1.02206909656525,-0.415597796440125,0.636054635047913,-1.00916768936771,-0.434216663853534,0.624722873042298,0
3.03999710083008,-2.11527824401855,2.24931645393372,2.40362977981567,-2.10708851762775,2.05919505654068,2.44724525713902,2431.097,1470.742,1717.601,3147.749,-0.03943716,-0.03892742,0.06823424,-1.01599848270416,-0.412589401006699,0.632412254810333,-1.00202447609459,-0.431143138740389,0.620300883747801,0
3.05999755859375,-2.1354718208313,2.24112701416016,2.4162015914917,-2.12705600675913,2.05060360379452,2.45960608409476,2432.025,1464.882,1716.191,3142.773,-0.03832182,-0.03869626,0.0665336,-1.00968253612518,-0.409475207328796,0.628588914871216,-0.994638524886308,-0.427965170275055,0.615728628108227,0
3.07999801635742,-2.15553426742554,2.23300218582153,2.42869424819946,-2.14687337079936,2.04207674568107,2.47187397646763,2432.027,1458.761,1716.849,3137.028,-0.03720542,-0.03846031,0.0648201,-1.00312614440918,-0.406257301568985,0.62463766336441,-0.987012816387451,-0.424684040945629,0.611007951284564,0
3.09999847412109,-2.17546057701111,2.22494339942932,2.44110465049744,-2.16653584520328,2.033616532251,2.4840459847772,2432.464,1451.213,1717.224,3132.412,-0.03607678,-0.03822009,0.06308714,-0.99633002281189,-0.402938544750214,0.620525717735291,-0.979150439632689,-0.421301079877433,0.606140765536421,0
3.11999893188477,-2.19524645805359,2.21695327758789,2.45343017578125,-2.18603872829175,2.02522498650551,2.49611919846012,2432.379,1445.491,1717.398,3126.722,-0.034946,-0.03797508,0.06134223,-0.989297270774841,-0.399520397186279,0.616278350353241,-0.971054592046769,-0.41781766283301,0.601129050222034,0
3.13999938964844,-2.21488738059998,2.20903301239014,2.46566772460938,-2.20537738341953,2.01690410346351,2.50809074721212,2432.688,1438.277,1717.74,3121.873,-0.0338051,-0.03772581,0.05958152,-0.982029557228088,-0.396005243062973,0.611874461174011,-0.962728579444533,-0.414235212212131,0.595974851798267,0
3.15999984741211,-2.23437786102295,2.20118498802185,2.47781443595886,-2.2245472411431,2.00865584922888,2.51995780232997,2432.678,1432.165,1718.042,3116.311,-0.03265835,-0.03747174,0.05781038,-0.974530220031738,-0.392394483089447,0.607333481311798,-0.954175816030892,-0.41055519705179,0.590680283820602,0
3.17999649047852,-2.25371360778809,2.19341111183167,2.48986721038818,-2.2435401949712,2.00048371179835,2.53171534550942,2433.132,1425.206,1718.145,3111.273,-0.03150307,-0.03721288,0.05602595,-0.966801404953003,-0.388689756393433,0.602638125419617,-0.9454015193052,-0.406779862296197,0.585248576169681,0
3.19999694824219,-2.27289056777954,2.18571352958679,2.50182342529297,-2.2623590635174,1.99238647840124,2.54336512160655,2433.089,1418.372,1719.009,3105.871,-0.0303366,-0.03694976,0.05423198,-0.958847105503082,-0.384892702102661,0.597813367843628,-0.936405971974636,-0.402909329586355,0.579679903854719,0
3.21999740600586,-2.29190397262573,2.17809343338013,2.51367974281311,-2.28099585204123,1.98436758895103,2.55490218149615,2434.213,1411.863,1718.035,3100.769,-0.02916374,-0.03668078,0.05242247,-0.950668275356293,-0.381003469228745,0.592821598052979,-0.927194566064376,-0.398945918960059,0.573977604796153,0
3.23999786376953,-2.31074953079224,2.17055296897888,2.52543425559998,-2.29944628156995,1.97642888457015,2.56632387629027,2434.195,1405.697,1718.91,3094.776,-0.02799515,-0.03640754,0.05060786,-0.942270338535309,-0.377024620771408,0.587722182273865,-0.917771149318993,-0.394891285994308,0.568144060931169,0
3.2599983215332,-2.32942271232605,2.16309356689453,2.53708362579346,-2.31770615117141,1.96857217280235,2.57762760541179,2434.852,1397.69,1719.439,3090.155,-0.02681697,-0.03613004,0.04877964,-0.933655202388763,-0.372959405183792,0.582471251487732,-0.908139677873146,-0.390747132903322,0.562181721295578,0
3.27999877929688,-2.34791898727417,2.15571761131287,2.54862570762634,-2.33577134012187,1.96079922667992,2.58881081793642,2434.901,1391.971,1719.703,3084.222,-0.02564038,-0.03584881,0.04694686,-0.924826860427856,-0.368809342384338,0.577103078365326,-0.898304216251578,-0.386515208538549,0.556093102023818,0
3.29999923706055,-2.36623501777649,2.1484260559082,2.5600574016571,-2.35363781007389,1.95311178379095,2.59987101393471,2435.552,1384.456,1720.078,3079.313,-0.02445794,-0.03556279,0.04510424,-0.915788114070892,-0.364577114582062,0.571589708328247,-0.888268937369113,-0.38219730838866,0.549880786348944,0
3.31999969482422,-2.38436555862427,2.1412205696106,2.57137656211853,-2.37130160722417,1.94551154534655,2.61080574581408,2435.653,1378.243,1720.645,3073.563,-0.02327549,-0.03527303,0.0432588,-0.906543433666229,-0.360264658927917,0.565962016582489,-0.878038122530657,-0.377795274579551,0.543547424602645,0
3.33999633789063,-2.40230751037598,2.13410329818726,2.58258032798767,-2.38875555478454,1.93800159931817,2.62161057080077,2436.329,1370.969,1720.932,3068.533,-0.02208826,-0.03497956,0.04140656,-0.897095918655396,-0.355874300003052,0.560194432735443,-0.867618167158097,-0.373311858882592,0.53709697585572,0
3.3599967956543,-2.42005681991577,2.1270751953125,2.59366655349731,-2.40600253440574,1.930580705812,2.63228727277387,2436.422,1364.113,1721.921,3063.052,-0.02089516,-0.03468235,0.03955185,-0.887450337409973,-0.351407766342163,0.554317355155945,-0.85700959304645,-0.368747285811601,0.530529763124145,0
3.37999725341797,-2.43760871887207,2.12013792991638,2.60463237762451,-2.42303550945299,1.9232518924954,2.64283149572124,2437.668,1357.446,1721.257,3057.865,-0.0196994,-0.03438034,0.03768949,-0.877609193325043,-0.346866220235825,0.548291802406311,-0.846218976345105,-0.364104384899943,0.523849857357654,0
3.39999771118164,-2.45496034622192,2.11329293251038,2.61547589302063,-2.43985088596004,1.91601670575165,2.65324101480657,2437.9,1351.345,1722.043,3051.87,-0.01851376,-0.03407408,0.03582929,-0.867577910423279,-0.342252016067505,0.54217404127121,-0.835251031898626,-0.359385184813519,0.517060177269636,0
3.41999816894531,-2.47210788726807,2.10654163360596,2.6261944770813,-2.45644516534361,1.90887665092339,2.66351366424015,2438.63,1343.242,1722.937,3047.195,-0.01732386,-0.03376515,0.033964,-0.857360363006592,-0.337569206953049,0.535928308963776,-0.824110582941664,-0.354591760855451,0.510163708672097,0
3.43999862670898,-2.48904705047607,2.09988522529602,2.63678598403931,-2.47281494657125,1.90183319137989,2.67364733862088,2438.896,1337.303,1723.346,3041.426,-0.01613876,-0.0334525,0.03210088,-0.84696090221405,-0.332819491624832,0.529581189155579,-0.812802561098952,-0.34972623496609,0.503163504475677,0
3.45999908447266,-2.50577473640442,2.09332489967346,2.64724826812744,-2.48895692832918,1.89488774758421,2.68363999427827,2439.611,1330.126,1723.84,3036.365,-0.01495312,-0.03313718,0.03023728,-0.836383819580078,-0.328005790710449,0.523112714290619,-0.801332006385299,-0.344790775723006,0.496062684689628,0
3.47999954223633,-2.52228736877441,2.08686256408691,2.65757918357849,-2.50486791119015,1.88804169616054,2.69348965061443,2439.989,1323.785,1724.463,3030.8,-0.0137728,-0.0328176,0.02837824,-0.825634062290192,-0.323130398988724,0.516545236110687,-0.789704067205609,-0.339787598340998,0.488864436421841,0
3.49999618530273,-2.53858137130737,2.08049869537354,2.66777634620667,-2.52054183223243,1.88129764581471,2.703192554392,2440.812,1316.521,1725.015,3025.808,-0.01259196,-0.03249536,0.02652047,-0.814716279506683,-0.318195968866348,0.509862303733826,-0.777926261338517,-0.334719937510192,0.481573413535413,0
3.51999664306641,-2.55465412139893,2.0742347240448,2.67783808708191,-2.53598168290031,1.87465430941181,2.7127505574575,2441.061,1310.034,1725.95,3020.345,-0.01141378,-0.03217045,0.02466919,-0.803635537624359,-0.31320458650589,0.503091394901276,-0.765999459475408,-0.329588167864767,0.474190155029786,0
3.53999710083008,-2.57050180435181,2.06807136535645,2.68776202201843,-2.55118156992615,1.86811422266028,2.72216001159753,2442.398,1303.197,1725.733,3015.324,-0.01023772,-0.03184129,0.02281926,-0.792396187782288,-0.308158308267593,0.496195524930954,-0.753931367647136,-0.324395605094516,0.466719431305148,0
3.55999755859375,-2.58612203598022,2.06201076507568,2.69754672050476,-2.56613872308604,1.86167857751006,2.73141920191151,2442.669,1297.337,1726.643,3009.491,-0.009076053,-0.03150999,0.02098082,-0.781003892421722,-0.303059548139572,0.489231050014496,-0.741727567798258,-0.319144650954242,0.459164697851087,0
3.57999801635742,-2.60151147842407,2.05605220794678,2.7071897983551,-2.58085048488145,1.85534851740854,2.74052648328127,2443.74,1289.235,1727.521,3005.087,-0.007912784,-0.03117603,0.0191444,-0.769463956356049,-0.29791247844696,0.482154309749603,-0.72939375026341,-0.313837753835969,0.451529477255809,0
3.59999847412109,-2.61666679382324,2.05019783973694,2.71669006347656,-2.59531431270705,1.84912513636775,2.74948028171299,2443.915,1284.044,1728.067,2999.206,-0.006763896,-0.03083941,0.01732173,-0.757781326770782,-0.292718648910522,0.475010454654694,-0.716935713767317,-0.308477408768949,0.443817359206151,0
3.61999893188477,-2.6315860748291,2.04444813728333,2.72604513168335,-2.6095277810186,1.84300947803163,2.75827909567923,2445.037,1276.423,1728.713,2994.695,-0.005617139,-0.03050065,0.015505,-0.745961725711823,-0.287481904029846,0.46775695681572,-0.704359365424783,-0.303066157419654,0.436032000487571,0
3.63999938964844,-2.6462664604187,2.03880405426025,2.73525404930115,-2.6234885835008,1.83700253474321,2.76692149746096,2445.32,1270.934,1729.444,2989.04,-0.004484231,-0.03015977,0.01370403,-0.734010517597198,-0.282204151153564,0.460441708564758,-0.691670720740692,-0.297606588091786,0.428177124984152,0
3.65999984741211,-2.66070508956909,2.03326606750488,2.74431467056274,-2.6371945352351,1.83110524661191,2.77540613448951,2446.4,1263.427,1730.201,2984.582,-0.003353985,-0.02981675,0.01191159,-0.721933782100677,-0.276888966560364,0.453027218580246,-0.678875903610016,-0.292101335726265,0.420256523678599,0
3.67999649047852,-2.67489981651306,2.02783536911011,2.75322580337524,-2.65064103434641,1.825319593696,2.783730157985,2446.888,1258.093,1730.699,2979.02,-0.002238653,-0.02947161,0.01013643,-0.709736824035645,-0.27153816819191,0.445551723241806,-0.665983614869008,-0.28655414404986,0.412275582803033,0
3.69999694824219,-2.68884825706482,2.02251243591309,2.76198577880859,-2.66383127580226,1.81964420129024,2.79189554578451,2447.753,1250.592,1731.839,2974.641,-0.001125984,-0.02912539,0.008372788,-0.69742614030838,-0.266155332326889,0.437993884086609,-0.65299527533123,-0.280965624398954,0.404235181908735,0
3.71999740600586,-2.70254850387573,2.0172975063324,2.77059292793274,-2.67676086214623,1.81408096149726,2.79989957565303,2448.817,1245.386,1731.693,2969.247,-3.056502E-05,-0.02877652,0.00662551,-0.68500679731369,-0.260741978883743,0.430363118648529,-0.639919784131907,-0.275339605822821,0.396140829984331,0
3.73999786376953,-2.71599817276001,2.01219153404236,2.77904653549194,-2.68942811570037,1.808630596175,2.80774120902801,2449.407,1238.919,1732.904,2964.396,0.001048635,-0.02842658,0.004896943,-0.672485411167145,-0.255302011966705,0.42267918586731,-0.626763698705669,-0.269678909802388,0.38799658639423,0
3.7599983215332,-2.7291955947876,2.00719499588013,2.78734517097473,-2.70183149102237,1.80329377028414,2.81541948920704,2450.288,1232.39,1733.676,2959.835,0.002115822,-0.02807558,0.003185186,-0.65986841917038,-0.249839052557945,0.414926618337631,-0.613533684877225,-0.263986404455806,0.379806577601466,0
3.77999877929688,-2.74213886260986,2.00230741500854,2.79548764228821,-2.7139695770734,1.79807109095524,2.82293354268985,2450.871,1226.785,1734.392,2954.885,0.003165674,-0.02772351,0.001494805,-0.647161781787872,-0.244355827569962,0.407123744487762,-0.60023651686137,-0.258265004538452,0.371574997167698,0
3.79999923706055,-2.75482606887817,1.99753046035767,2.80347299575806,-2.72584109938593,1.7929631065561,2.83028258052034,2451.591,1220.633,1735.24,2950.328,0.004201062,-0.02737037,-0.0001741707,-0.634372293949127,-0.238855883479118,0.399263381958008,-0.586879077262983,-0.252517671442928,0.363306105753209,0
3.81999969482422,-2.76725649833679,1.99286353588104,2.81130003929138,-2.73744492223163,1.78797030575888,2.83746589962856,2452.458,1214.846,1735.829,2945.687,0.005220115,-0.0270167,-0.001820004,-0.621506571769714,-0.23334202170372,0.391349524259567,-0.573468357077023,-0.246747413199059,0.355004231116903,0
3.83999633789063,-2.77942800521851,1.9883074760437,2.81896805763245,-2.74877791451009,1.78309403578861,2.84448156171422,2453.093,1209.062,1736.75,2941.123,0.006222066,-0.0266625,-0.003441337,-0.608571231365204,-0.227817341685295,0.38339552283287,-0.560014026276881,-0.240958390526246,0.346675359432959,0
3.8599967956543,-2.79133939743042,1.98386168479919,2.82647585868835,-2.75984354851568,1.77833280261403,2.85133171629293,2453.97,1202.967,1737.543,2936.876,0.007210827,-0.0263083,-0.005038701,-0.595573306083679,-0.222284898161888,0.375393241643906,-0.546518158200277,-0.23515149552379,0.33832077419619,0
3.87999725341797,-2.80298972129822,1.97952699661255,2.83382296562195,-2.77063893010371,1.77368785150474,2.85801457175126,2454.962,1198.118,1737.714,2932.105,0.008175559,-0.02595304,-0.006608901,-0.582519114017487,-0.216747060418129,0.367350995540619,-0.532990631455729,-0.229330978680956,0.329946590735853,0
3.89999771118164,-2.81437802314758,1.97530269622803,2.84100866317749,-2.78116350015273,1.7691594230351,2.8645297819664,2455.736,1192.258,1738.762,2927.876,0.009117861,-0.0255983,-0.008151404,-0.569415926933289,-0.211207807064056,0.359280943870544,-0.519438870577852,-0.223500034567577,0.321557405192552,0
