t,x_s1,x_s2,x_s3,x_s_d1,x_s_d2,x_s_d3,propellers_rpms1,propellers_rpms2,propellers_rpms3,propellers_rpms4,rollRad,pitchRad,yawRad,v_s1,v_s2,v_s3,v_s_d1,v_s_d2,v_s_d3,insideCount
0,-0.0599999986588955,2.94000005722046,1.17999994754791,-0.0599999986588955,2.94000005722046,1.17999994754791,0,0,0,0,0,0,0,0,0,0,-1.06581410364015E-15,4.44089209850063E-16,4.44089209850063E-16,0
0.02001953125,-0.0599999986588955,2.94000005722046,1.17811644077301,-0.0600018744611685,2.93999925011514,1.18000110875888,0,0,0,0,-0.01635288,0.0001297794,-0.01587137,-1.10653664009419E-09,-7.76775763711157E-08,-0.0941759571433067,-0.000280531511337879,-0.000120704872184653,0.000173662369087018,5
0.03997802734375,-0.0599999986588955,2.94000005722046,1.17242503166199,-0.060014847005691,2.93999366839165,1.1800091393819,0,0,0,0,-0.03270202,0.0005238493,-0.03175127,-1.08383135799528E-09,-7.60859677484405E-08,-0.284568399190903,-0.00110975851463131,-0.000477498085781228,0.000686993385685745,5
0.05999755859375,-0.0599058791995049,2.93990302085876,1.16596531867981,-0.0600498857373401,2.93997859220429,1.18003083002592,1867.171,3252.586,3184.588,1722.885,-0.04941709,0.000328197,-0.01369238,0.00470605166628957,-0.00484959501773119,-0.322985053062439,-0.00247936261166862,-0.00106680046642749,0.00153484356504269,5
0.08001708984375,-0.0598203614354134,2.93960738182068,1.16000306606293,-0.0601176241590912,2.9399494462538,1.18007276333581,1926.338,2314.582,3251.154,2829.281,-0.07542125,-0.002135322,0.02094574,0.00427595200017095,-0.0147764608263969,-0.298115670681,-0.00437432711648753,-0.0018821507536715,0.00270791686320324,5
0.0999755859375,-0.0599374249577522,2.93904519081116,1.15498638153076,-0.0602280337026576,2.93990194011169,1.18014111210282,980.8305,1498.918,3914.575,3896.382,-0.1031874,-0.008060323,0.06330064,-0.00585309555754066,-0.0281126461923122,-0.250835418701172,-0.00677334142420609,-0.00291437958958193,0.00419302100058057,4
0.1199951171875,-0.0604638196527958,2.93818378448486,1.15081334114075,-0.0603918861403606,2.93983143898525,1.18024254456713,345.6255,979.967,4174.096,4613.36,-0.1214236,-0.0154197,0.1039954,-0.0263197217136621,-0.0430656969547272,-0.208649262785912,-0.00967801353495435,-0.00416417885169243,0.00599115140585487,4
0.1400146484375,-0.0615634694695473,2.93704152107239,1.14728283882141,-0.0606187761383957,2.93973381455767,1.18038300028418,353.4261,747.6968,3974.404,4854.705,-0.1253939,-0.02116414,0.1350981,-0.0549825355410576,-0.0571087971329689,-0.176524430513382,-0.0130687916036232,-0.00562313592726786,0.00809020455552005,4
0.15997314453125,-0.0633405670523643,2.93568134307861,1.14427483081818,-0.0609172730813211,2.93960537966217,1.18056778411123,821.4699,815.2535,3462.167,4692.214,-0.1184622,-0.02352051,0.1522613,-0.0888549536466599,-0.0680083483457565,-0.150400757789612,-0.0169203082141145,-0.00728033592584475,0.0104744768105937,3
0.17999267578125,-0.0658465474843979,2.93417286872864,1.14182579517365,-0.0612985250199726,2.93944133760391,1.18080379722281,1347.548,1082.304,3008.946,4255.235,-0.1079795,-0.02277961,0.1557769,-0.125299125909805,-0.0754286199808121,-0.122450411319733,-0.0212433804254414,-0.00914043312572283,0.0131506644458931,3
0.20001220703125,-0.0690844058990479,2.93255472183228,1.14006173610687,-0.0617708265342762,2.93923811945689,1.181096174359,1636.755,1381.677,2917.262,3666.566,-0.09982327,-0.02030021,0.150158,-0.161892890930176,-0.080912321805954,-0.0882024168968201,-0.0260142813927851,-0.0111932185284278,0.0161040794142088,3
0.219970703125,-0.0730095207691193,2.93082714080811,1.13903546333313,-0.0623411120546116,2.93899274152942,1.18144920826256,1642.38,1581.168,3146.921,3113.05,-0.09584344,-0.01735263,0.1421872,-0.196255624294281,-0.0863799899816513,-0.0513145439326763,-0.0312039351396938,-0.0134261815535814,0.0193167223010366,3
0.239990234375,-0.0775491818785667,2.92897462844849,1.13863360881805,-0.0630214373585105,2.93870001655724,1.18187036203406,1522.591,1622.998,3420.221,2777.788,-0.09475687,-0.01467934,0.1377364,-0.226983308792114,-0.0926216021180153,-0.0200931336730719,-0.0368316683029241,-0.015847637913056,0.022800557215184,3
0.260009765625,-0.0826378911733627,2.92699360847473,1.13863575458527,-0.0638185570309634,2.93835703823113,1.18236381708338,1439.264,1501.351,3532.105,2744.388,-0.09438403,-0.01258823,0.1393031,-0.254435658454895,-0.0990541130304337,0.00010562501847744,-0.0428699302682246,-0.0184457333472145,0.0265385290140116,3
0.27996826171875,-0.0882435664534569,2.92490196228027,1.13885200023651,-0.064737558267485,2.93796161767298,1.18293272262689,1401.984,1276.76,3475.02,2977.142,-0.0932133,-0.01110272,0.145677,-0.280283868312836,-0.104577399790287,0.0108110783621669,-0.0492862758204926,-0.0212065075864124,0.030510552563791,3
0.29998779296875,-0.0943692997097969,2.92273378372192,1.13920760154724,-0.0657918945890516,2.93750796620855,1.18358540703494,1348.835,1060.301,3348.119,3324.921,-0.09053203,-0.009936254,0.1533093,-0.30628690123558,-0.108403764665127,0.0177825409919024,-0.0561078595514081,-0.0241416444928383,0.0347334378503248,3
0.32000732421875,-0.101034387946129,2.92052698135376,1.13972532749176,-0.0669865614821475,2.93699393441958,1.18432496275165,1281.139,941.6393,3236.294,3590.819,-0.08597004,-0.008523181,0.1583594,-0.333254605531693,-0.110339447855949,0.0258892327547073,-0.0633036493784043,-0.0272377918282996,0.0391879745362408,3
0.3399658203125,-0.108249709010124,2.91831350326538,1.14046132564545,-0.0683246067173459,2.93641821093553,1.18515327649217,1255.061,945.2717,3168.875,3649.073,-0.07944955,-0.006288789,0.1584686,-0.360765844583511,-0.110672913491726,0.0368026569485664,-0.0708381612402705,-0.0304796817925674,0.0438521962973096,4
0.3599853515625,-0.116001203656197,2.91611647605896,1.1414532661438,-0.0698213312158394,2.93577421219747,1.18607982025561,1317.536,1045.606,3124.24,3498.41,-0.07155009,-0.002964631,0.1534747,-0.387574940919876,-0.109854809939861,0.0495975092053413,-0.0787457139191101,-0.0338820807988248,0.0487473480944833,4
0.3800048828125,-0.124249309301376,2.91395139694214,1.14270782470703,-0.0714797725314022,2.93506063123087,1.18710647443246,1455.182,1181.947,3089.564,3232.153,-0.06360694,0.001258036,0.1450415,-0.412405967712402,-0.108254551887512,0.0627273619174957,-0.0869921272359981,-0.0374302820709642,0.0538522707687797,4
0.39996337890625,-0.132940828800201,2.91182827949524,1.14421677589417,-0.0733007663744719,2.93427710845288,1.18823375636729,1582.197,1274.892,3102.323,2980.457,-0.05702041,0.005829845,0.1357392,-0.434576094150543,-0.106158964335918,0.0754464119672775,-0.0955391997469985,-0.0411078485948847,0.0591433158066154,4
0.41998291015625,-0.142021134495735,2.909752368927,1.14595830440521,-0.075301871434707,2.93341608884986,1.18947253572543,1628.539,1287.071,3162.774,2845.352,-0.05244244,0.01017317,0.1278595,-0.454015165567398,-0.103797987103462,0.087078221142292,-0.104427768518458,-0.0449323514193797,0.064645763297398,4
0.44000244140625,-0.151443302631378,2.90772652626038,1.1478955745697,-0.077483988232608,2.93247718495301,1.19082336997196,1606.644,1238.322,3218,2844.071,-0.04964931,0.01397411,0.1224647,-0.47110852599144,-0.101288251578808,0.0968657433986664,-0.113620829717891,-0.048887868829098,0.0703367061060819,4
0.46002197265625,-0.161173731088638,2.90575385093689,1.14999616146088,-0.0798530997696509,2.93145782244394,1.19228996286983,1544.959,1159.496,3250.201,2936.237,-0.04788577,0.01719071,0.1193282,-0.486521750688553,-0.0986327901482582,0.105030663311481,-0.123107133063502,-0.0529695601420796,0.0762091797723108,4
0.47998046875,-0.171190351247787,2.90383839607239,1.15223848819733,-0.082406855753501,2.93035901258777,1.1938708594761,1474.588,1086.301,3248.623,3066.533,-0.04632036,0.01998797,0.1173674,-0.500831425189972,-0.095771387219429,0.112114764750004,-0.132845337826091,-0.057159637597476,0.0822375924153778,5
0.5,-0.181477785110474,2.90198564529419,1.15461695194244,-0.085166398670376,2.92917165836334,1.1955791479969,1426.213,1044.511,3221.903,3171.331,-0.04436081,0.0226348,0.1152392,-0.514372229576111,-0.0926429629325867,0.118922755122185,-0.142884000065179,-0.0614789935111996,0.0884520025491718,5
0.52001953125,-0.192020773887634,2.90020084381104,1.15713489055634,-0.0881295333471192,2.92789670429234,1.19741346951549,1423.941,1045.288,3175.075,3211.597,-0.04191443,0.02537463,0.1119037,-0.527149498462677,-0.0892372503876686,0.125899732112885,-0.153182839569029,-0.0659102964334391,0.0948274748038155,5
0.53997802734375,-0.20280085504055,2.89848804473877,1.15980863571167,-0.0912913676125048,2.92653625533937,1.19937079554481,1451.878,1074.909,3144.746,3181.156,-0.03928855,0.02829402,0.1070452,-0.539003610610962,-0.0856421813368797,0.133688196539879,-0.16369851368286,-0.0704348972306956,0.101337178011302,5
0.55999755859375,-0.21379417181015,2.89684748649597,1.16265285015106,-0.094676112580471,2.92507989413848,1.20146611391775,1480.054,1112.372,3143,3115.796,-0.03689703,0.03132168,0.1010739,-0.5496666431427,-0.0820333659648895,0.142211005091667,-0.17448465888317,-0.0750758741803766,0.108014315705644,5
0.58001708984375,-0.224972382187843,2.89527583122253,1.16566729545593,-0.0982790918331175,2.92352963282165,1.20369652970884,1519.202,1148.657,3144.507,3037.862,-0.03512976,0.03433889,0.0946703,-0.55891090631485,-0.0785803124308586,0.150722786784172,-0.185498893714783,-0.0798149917263209,0.114832651747179,5
0.5999755859375,-0.236307054758072,2.89376735687256,1.16885006427765,-0.102092760004862,2.92188871794891,1.20605737197736,1545.67,1168.434,3160.703,2975.479,-0.03429193,0.03716423,0.0886028,-0.566732823848724,-0.0754200145602226,0.159140899777412,-0.196696165293826,-0.0846328648712294,0.121764296254622,5
0.6199951171875,-0.247772499918938,2.89231395721436,1.17219483852386,-0.106144683970236,2.92014528826426,1.20856570593183,1530.119,1166.281,3186.904,2965.164,-0.03442668,0.03962721,0.08346266,-0.573273360729218,-0.0726687982678413,0.16723795235157,-0.208134604141382,-0.0895545055543457,0.128845234789665,5
0.6400146484375,-0.259347707033157,2.89090633392334,1.17568635940552,-0.110427588881679,2.91830247393137,1.21121702809507,1506.27,1156.386,3192.722,2989.04,-0.03533429,0.04169638,0.07929968,-0.578760027885437,-0.070386104285717,0.17457526922226,-0.21977002223474,-0.0945609009039674,0.136048112861281,5
0.65997314453125,-0.27101743221283,2.88953447341919,1.17931878566742,-0.114931182097002,2.91636470358665,1.21400496683125,1473.974,1145.627,3194.548,3026.222,-0.03677186,0.0433934,0.07588202,-0.583485901355743,-0.0685968920588493,0.181623905897141,-0.231555939228262,-0.0996320517258771,0.143344156921357,5
0.67999267578125,-0.28277051448822,2.88818788528442,1.18308985233307,-0.119686638739014,2.91431856344567,1.21694882102647,1423.255,1138.585,3195.663,3077.439,-0.03845871,0.04477133,0.07289347,-0.587652325630188,-0.0673277154564857,0.188551023602486,-0.243554411173546,-0.104794659005432,0.150771782621969,5
0.70001220703125,-0.294597387313843,2.88685631752014,1.18699157238007,-0.124683985757554,2.91216834463331,1.22004241688759,1402.609,1145.872,3175.469,3105.494,-0.04016686,0.04596249,0.06987095,-0.591345310211182,-0.0665794536471367,0.195086941123009,-0.255719729227087,-0.11002905550423,0.158302694011575,5
0.719970703125,-0.306489616632462,2.88552904129028,1.19102692604065,-0.129910105849058,2.90991969115882,1.22327763417886,1401.197,1164.012,3160.505,3101.285,-0.04192455,0.0470274,0.06661057,-0.594611883163452,-0.0663608759641647,0.201765492558479,-0.268004259419652,-0.115314745656047,0.165907403394098,5
0.739990234375,-0.318438172340393,2.88419485092163,1.1951996088028,-0.135400001298574,2.90755754251682,1.2266761409821,1385.644,1184.268,3158.653,3096.654,-0.04384309,0.04794602,0.06323259,-0.597425878047943,-0.0667132884263992,0.208634600043297,-0.280473432677602,-0.12067988256057,0.173626415629864,5
0.760009765625,-0.330433189868927,2.88284158706665,1.19950354099274,-0.141140917956636,2.9050873864615,1.23023004187122,1391.245,1207.229,3147.363,3077.895,-0.04599173,0.04873072,0.05982255,-0.59975266456604,-0.0676653236150742,0.215198710560799,-0.293080296154222,-0.126104263719567,0.181430664670081,5
0.77996826171875,-0.342465996742249,2.88145661354065,1.20394015312195,-0.147116852635298,2.90251610871756,1.23392943011056,1396.329,1227.656,3147.824,3052.461,-0.04852439,0.04932741,0.05662332,-0.601639986038208,-0.0692539364099503,0.221832171082497,-0.305776327165692,-0.131567011177758,0.189290112662009,5
0.79998779296875,-0.354529082775116,2.88002610206604,1.20850872993469,-0.153366821193532,2.89982692185086,1.2377984583754,1366.285,1240.049,3159.352,3057.753,-0.05148636,0.04965519,0.05394608,-0.603152751922607,-0.071522019803524,0.228428572416306,-0.318629798715703,-0.137097500901303,0.197247023847227,5
0.82000732421875,-0.366616785526276,2.87853670120239,1.21319758892059,-0.159875221826383,2.89702653888221,1.24182746840525,1351.221,1250.348,3154.132,3065.52,-0.05473808,0.04973649,0.05176849,-0.6043860912323,-0.0744691863656044,0.234440967440605,-0.331592781842754,-0.14267511039705,0.205271727915392,4
0.8399658203125,-0.378726482391357,2.8769748210907,1.21800470352173,-0.166623119864544,2.89412310687084,1.24600473873783,1336.4,1260.542,3152.763,3070.804,-0.05823375,0.04957055,0.05007145,-0.605486273765564,-0.0780940502882004,0.240356519818306,-0.344616121128287,-0.148278689461635,0.213333795320821,4
0.8599853515625,-0.390857577323914,2.87532687187195,1.22292864322662,-0.173653699721778,2.89109804476993,1.25035700258242,1292.039,1268.731,3157.044,3100.909,-0.06188654,0.04914635,0.0488749,-0.606554985046387,-0.0823934227228165,0.246198624372482,-0.357770416714212,-0.153938615363784,0.221476930914505,4
0.8800048828125,-0.403010785579681,2.87358045578003,1.22795879840851,-0.180948461186242,2.88795931270381,1.25487280742661,1275.909,1280.311,3143.12,3117.221,-0.06550364,0.04855179,0.04792962,-0.60766065120697,-0.0873232260346413,0.25151002407074,-0.371007022483504,-0.159633957038354,0.229671020432672,4
0.89996337890625,-0.415188372135162,2.87172317504883,1.2330961227417,-0.188485507600594,2.88471633219242,1.2595385981964,1269.812,1296.075,3135.514,3115.953,-0.06909411,0.04781774,0.0471482,-0.608878254890442,-0.0928623303771019,0.256869286298752,-0.384276397333556,-0.165343398332914,0.237885395572837,4
0.91998291015625,-0.427392899990082,2.86974334716797,1.23834216594696,-0.196312316554895,2.88134867495511,1.26438376578173,1237.318,1310.637,3137.93,3132.219,-0.07268086,0.04692793,0.04662442,-0.610224783420563,-0.0989958643913269,0.262300610542297,-0.397650971463704,-0.171098103938772,0.246164894078718,4
0.94000244140625,-0.439626961946487,2.86763000488281,1.24368762969971,-0.204407453948074,2.87786556348678,1.26939504145298,1234.952,1325.904,3125.793,3132.36,-0.0761696,0.04594648,0.04624278,-0.611704349517822,-0.105669356882572,0.267275959253311,-0.411081631631503,-0.176876941799768,0.254479112513653,4
0.96002197265625,-0.451894283294678,2.86537265777588,1.24913465976715,-0.21277195700315,2.87426655149935,1.27457306730061,1238.309,1341.896,3122.762,3120.052,-0.07964823,0.04486589,0.04606545,-0.61336624622345,-0.11286623030901,0.272349089384079,-0.424559845004915,-0.182676240476657,0.262822768648136,3
0.97998046875,-0.464198768138885,2.86296153068542,1.25468254089355,-0.221379956358585,2.87056276985637,1.27990182895749,1216.383,1354.254,3125.01,3131.253,-0.08320035,0.04364707,0.04625917,-0.615226209163666,-0.120561510324478,0.277397155761719,-0.438035925118965,-0.188474621271639,0.271165104193453,3
1,-0.476545631885529,2.86038684844971,1.26033055782318,-0.230284798736574,2.86673126495361,1.28541435058594,1191.37,1362.331,3132.768,3143.549,-0.08666512,0.04230786,0.04681802,-0.617342948913574,-0.128733441233635,0.282400846481323,-0.451584000205995,-0.194303979492187,0.279552008056641,3
1.02001953125,-0.488940417766571,2.85764098167419,1.26606869697571,-0.239461107372567,2.86278295570393,1.29109492275982,1192.746,1371.538,3121.678,3147.781,-0.08996531,0.0408991,0.04763218,-0.619737982749939,-0.137297064065933,0.286904573440552,-0.465154707681581,-0.200143075797255,0.287952922446475,3
1.03997802734375,-0.501390039920807,2.85471653938293,1.27189922332764,-0.248880035413094,2.85873025410248,1.29692568790267,1194.156,1381.22,3118.487,3146.712,-0.09318347,0.03941746,0.0487015,-0.622483789920807,-0.146224737167358,0.291528642177582,-0.478698517198992,-0.205970598662363,0.296337185718871,3
1.05999755859375,-0.513902187347412,2.85160660743713,1.27782595157623,-0.258599401509697,2.85454828239877,1.30294243851408,1160.451,1387.491,3126.94,3171.826,-0.09632174,0.03783946,0.05011126,-0.625606894493103,-0.155492544174194,0.296335101127625,-0.492290296490434,-0.211818761581115,0.30475114456651,3
1.08001708984375,-0.526484429836273,2.84830617904663,1.28384053707123,-0.268590868588476,2.85024923324404,1.30912763259543,1158.97,1394.031,3118.579,3180.758,-0.09920808,0.03624937,0.05165458,-0.629108130931854,-0.165016517043114,0.300732284784317,-0.505880764601332,-0.21766636033551,0.313164291730931,3
1.0999755859375,-0.539144992828369,2.84481072425842,1.28994655609131,-0.278822628233634,2.845846792911,1.31546157922208,1167.325,1402.739,3116.879,3174.246,-0.1018899,0.03466257,0.05329893,-0.633031487464905,-0.174769550561905,0.305299341678619,-0.519420764586993,-0.223492244065532,0.321546196721701,3
1.1199951171875,-0.551892280578613,2.84111642837524,1.29614818096161,-0.289357002179081,2.84131414609862,1.32198285851614,1143.89,1408.146,3126.094,3191.708,-0.1044114,0.03304644,0.05517217,-0.637366116046906,-0.184720069169998,0.310079574584961,-0.532985466132485,-0.229328756186667,0.329943393154705,3
1.1400146484375,-0.564734041690826,2.8372209072113,1.3024377822876,-0.300162704591434,2.83666475422696,1.32867210305637,1152.699,1413.15,3117.942,3194.577,-0.1066687,0.03146993,0.0571201,-0.642086327075958,-0.194775268435478,0.314481794834137,-0.54652589017629,-0.235154822377061,0.338325560657667,3
1.15997314453125,-0.577678740024567,2.83312249183655,1.30882048606873,-0.311204994190806,2.83191356549821,1.33550780633558,1166.203,1419.033,3118.253,3186.612,-0.1087592,0.0299277,0.05915463,-0.647236108779907,-0.204917177557945,0.319134086370468,-0.559993461530388,-0.240949542090342,0.346662628875245,3
1.17999267578125,-0.590734779834747,2.82881999015808,1.31530225276947,-0.322550701230474,2.8270318247214,1.34253133946411,1142.615,1420.427,3131.599,3206.372,-0.1107236,0.02837671,0.06141806,-0.652806222438812,-0.215126812458038,0.324086964130402,-0.573463232144024,-0.246745208083563,0.355001058539242,3
1.20001220703125,-0.603910148143768,2.82431364059448,1.32187592983246,-0.334165615614823,2.82203425154496,1.34972152476313,1151.465,1421.788,3126.052,3211.845,-0.1124216,0.02689046,0.06373398,-0.658764958381653,-0.225312292575836,0.328685760498047,-0.586886736182789,-0.252520966862155,0.363310846989412,3
1.219970703125,-0.617213308811188,2.81960439682007,1.32854676246643,-0.346012104131023,2.81693703848901,1.35705506548116,1167.334,1424.55,3127.223,3205.182,-0.11393,0.0254702,0.06608379,-0.665157735347748,-0.235457509756088,0.333541572093964,-0.600216179640808,-0.2582562540006,0.371562407459373,3
1.239990234375,-0.630652606487274,2.81469345092773,1.3353214263916,-0.358161486344149,2.81170949873715,1.36457611182642,1147.338,1423.237,3141.258,3224.794,-0.1152882,0.02407344,0.06859096,-0.671969056129456,-0.245546981692314,0.338735103607178,-0.613526094901141,-0.263983138701136,0.379801879044709,2
1.260009765625,-0.644235670566559,2.80958366394043,1.34219372272491,-0.37057666480527,2.80636759428526,1.37226169871082,1159.848,1423.018,3135.473,3229.829,-0.1163759,0.02277498,0.07107142,-0.679149389266968,-0.255489766597748,0.343612462282181,-0.626768731761373,-0.26968107538565,0.387999702095469,2
1.27996826171875,-0.657970368862152,2.80427813529968,1.34916973114014,-0.383217166996937,2.80092873932693,1.38008677171809,1178.882,1424.282,3137.145,3222.314,-0.1172867,0.02157275,0.07350606,-0.68673712015152,-0.265278249979019,0.348798632621765,-0.639897267894095,-0.27532991771472,0.396126891360527,2
1.29998779296875,-0.67186450958252,2.79877996444702,1.35625743865967,-0.396158759015336,2.79536033382764,1.388098233671,1161.561,1421.144,3153.344,3239.983,-0.1180606,0.02041904,0.07602829,-0.694705307483673,-0.274909794330597,0.354384183883667,-0.652985332144132,-0.280961346123326,0.404229026602261,2
1.32000732421875,-0.685924232006073,2.79309391975403,1.36345088481903,-0.409361504843077,2.78967956113998,1.39627136227237,1176.769,1419.764,3148.636,3243.173,-0.1185868,0.01938501,0.07846919,-0.702984750270844,-0.284299045801163,0.359669625759125,-0.6659860834168,-0.286555206197011,0.41227711095171,2
1.3399658203125,-0.700156390666962,2.78722500801086,1.37075626850128,-0.422782156447859,2.78390502968405,1.40457938493002,1198.882,1419.603,3151.043,3233.87,-0.1189661,0.01846334,0.08082119,-0.711611092090607,-0.293444782495499,0.365268766880035,-0.678853852630301,-0.292091847805726,0.42024287307172,2
1.3599853515625,-0.714567482471466,2.78117799758911,1.37818205356598,-0.436500861174643,2.77800225429635,1.41307191666844,1183.604,1414.516,3168.765,3250.316,-0.119243,0.01759766,0.08323069,-0.720556199550629,-0.302355229854584,0.371288418769836,-0.69166099897751,-0.297602405088682,0.428171106749628,2
1.3800048828125,-0.729162275791168,2.77495884895325,1.38572216033936,-0.450474904562636,2.77198961381608,1.4217225152016,1199.573,1411.86,3164.43,3253.733,-0.1193128,0.01685596,0.08553389,-0.729742467403412,-0.310952663421631,0.377007395029068,-0.704361775018035,-0.303067194200314,0.436033492140578,2
1.39996337890625,-0.743946552276611,2.76857399940491,1.39338302612305,-0.464658337480184,2.7658868788709,1.43050273582817,1222.111,1410.349,3167.32,3244.706,-0.1192723,0.01622905,0.08771768,-0.73921000957489,-0.319244205951691,0.383043557405472,-0.716911837553692,-0.30846713550125,0.443802578692535,2
1.41998291015625,-0.758925139904022,2.76202893257141,1.4011732339859,-0.479135601808478,2.75965771647838,1.43946485209513,1206.933,1403.743,3186.209,3260.961,-0.1191541,0.01565924,0.08992521,-0.748929858207703,-0.327248960733414,0.389508783817291,-0.729381927869995,-0.313832666990362,0.451522158631107,2
1.44000244140625,-0.774101436138153,2.75533103942871,1.40908634662628,-0.493861275572861,2.75332167044526,1.4485807456364,1223.534,1400.616,3181.534,3263.904,-0.1188532,0.01521549,0.09198987,-0.758813679218292,-0.334895938634872,0.395653814077377,-0.741727567798258,-0.319144650954242,0.459164697851088,2
1.46002197265625,-0.789479494094849,2.74848699569702,1.41712832450867,-0.50883280894277,2.74687983789241,1.45784883798541,1247.177,1398.724,3183.892,3253.957,-0.1184712,0.01488752,0.09389765,-0.768901765346527,-0.34219765663147,0.402100443840027,-0.753942941956197,-0.324400585196357,0.466726596353819,2
1.47998046875,-0.805062472820282,2.74150371551514,1.42530524730682,-0.524000783579472,2.74035348215039,1.46723853683636,1244.002,1394.019,3194.998,3263.858,-0.1181011,0.01462352,0.09576668,-0.779151976108551,-0.349168717861176,0.408848524093628,-0.76598572865452,-0.329582259876133,0.474181654997567,2
1.5,-0.820853412151337,2.73438715934753,1.43362164497375,-0.539455198877605,2.73370387899399,1.4768055561018,1233.976,1385.419,3213.732,3274.401,-0.1175727,0.01443433,0.09757972,-0.78954142332077,-0.355826079845428,0.415818005800247,-0.777924000354858,-0.334718964672088,0.481572013878822,1
1.52001953125,-0.836852788925171,2.7271454334259,1.44206869602203,-0.555147149984933,2.72695207081487,1.48651962134853,1260.545,1383.873,3202.915,3270.538,-0.1168611,0.01438062,0.09918961,-0.799974620342255,-0.3620885014534,0.422354817390442,-0.789715229532175,-0.33979240117828,0.488871346433721,1
1.53997802734375,-0.853062868118286,2.7197859287262,1.45065319538116,-0.571024729446907,2.7201203919406,1.49634859938949,1286.461,1382.577,3202.451,3259.681,-0.1161602,0.01442611,0.1006239,-0.810504376888275,-0.367977201938629,0.42922231554985,-0.801318788528229,-0.344785088448372,0.496054502206448,1
1.55999755859375,-0.869485080242157,2.71231484413147,1.45938515663147,-0.587181951496087,2.71316839067337,1.50635068951315,1266.96,1374.331,3224.611,3276.265,-0.1155002,0.01449791,0.1020498,-0.821110188961029,-0.373550653457642,0.436599344015121,-0.812800388649436,-0.349725300221754,0.503162159625937,1
1.58001708984375,-0.886118710041046,2.70473957061768,1.468257188797,-0.603567408310176,2.70611818636293,1.51649406782863,1278.402,1370.9,3221.561,3279.555,-0.1147338,0.01467068,0.1033043,-0.831681609153748,-0.37876495718956,0.443600684404373,-0.824119146742882,-0.35459544561987,0.510169010073001,0
1.5999755859375,-0.902963936328888,2.69706678390503,1.47727286815643,-0.620126809287134,2.69899313873865,1.52674512586702,1302.405,1369.043,3223.283,3266.021,-0.1139279,0.01494004,0.104366,-0.842259466648102,-0.383638173341751,0.450785905122757,-0.835236272052476,-0.359378834064062,0.517051040221759,0
1.6199951171875,-0.920020341873169,2.68930268287659,1.48643898963928,-0.636958033083316,2.69175113334911,1.53716445517924,1289.541,1361.545,3241.583,3276.874,-0.1131226,0.01523586,0.1054047,-0.852819263935089,-0.388209223747253,0.458307951688766,-0.846214826007804,-0.364102599125749,0.523847288101157,0
1.6400146484375,-0.937285602092743,2.68145418167114,1.49574673175812,-0.654007271984653,2.68441532215046,1.54771874622704,1305.578,1359.278,3233.212,3278.434,-0.1122538,0.01561693,0.1062797,-0.863260984420776,-0.39242884516716,0.465387880802155,-0.857015715678588,-0.368749920209162,0.530533553325099,0
1.65997314453125,-0.95475846529007,2.67352747917175,1.50520098209381,-0.671217966514002,2.67701004110563,1.55837298599979,1326.643,1357.549,3234.284,3267.107,-0.1114267,0.01606549,0.1069805,-0.87364786863327,-0.396329790353775,0.472713053226471,-0.86760212115283,-0.373304954734798,0.537087042614082,0
1.67999267578125,-0.972437679767609,2.66552805900574,1.5148092508316,-0.688691692550512,2.66949158495151,1.56919005480539,1306.344,1349.486,3255.424,3281.068,-0.1106421,0.01651404,0.1076719,-0.883960366249084,-0.399971127510071,0.480414777994156,-0.878034183119987,-0.377793579561193,0.543544985919778,0
1.70001220703125,-0.990319430828094,2.65746188163757,1.52456116676331,-0.706372354049449,2.66188409024902,1.58013522651994,1318.97,1347.562,3247.52,3282.647,-0.1097798,0.01703638,0.1081917,-0.894087135791779,-0.403308570384979,0.487597227096558,-0.888274735793774,-0.382199803288802,0.549884375850026,0
1.719970703125,-1.0084011554718,2.64933466911316,1.53445971012115,-0.724201244699276,2.65421281668394,1.59117215914002,1342.358,1346.98,3246.302,3267.884,-0.1089377,0.01762169,0.1085222,-0.904088795185089,-0.406365513801575,0.494926601648331,-0.898289055119065,-0.386508685126782,0.556083716560567,0
1.739990234375,-1.02668011188507,2.64115071296692,1.54451131820679,-0.74228345468553,2.64643254688532,1.60236590849663,1323.95,1340.052,3264.893,3279.611,-0.1081526,0.01819389,0.1088461,-0.913950562477112,-0.409197300672531,0.502583205699921,-0.908134108040217,-0.390744736359816,0.562178273303667,0
1.760009765625,-1.04515159130096,2.63291549682617,1.55470550060272,-0.760560719141003,2.63856835059778,1.61368040586141,1335.436,1338.95,3255.659,3281.182,-0.1073313,0.01881928,0.1090157,-0.923568308353424,-0.41176649928093,0.509709715843201,-0.91777478390713,-0.394892849856044,0.568146310914365,0
1.77996826171875,-1.06381165981293,2.62463331222534,1.56504511833191,-0.778972314193065,2.6306463556073,1.62507806026454,1355.456,1338.697,3254.891,3267.117,-0.1065616,0.01948579,0.1090168,-0.933010041713715,-0.414103835821152,0.516982555389404,-0.927178570605173,-0.398939036560826,0.573967702844936,0
1.79998779296875,-1.08265686035156,2.61630797386169,1.57553601264954,-0.797626646773287,2.62261991743975,1.63662598076079,1333.844,1332.054,3274.044,3279.035,-0.1058543,0.02012179,0.1090303,-0.942263066768646,-0.41626825928688,0.524547755718231,-0.936399026186941,-0.402906341007953,0.579675604081262,0
1.82000732421875,-1.10168135166168,2.60794353485107,1.58616602420807,-0.816463410111527,2.61451498441355,1.64828683458664,1344.481,1331.644,3263.28,3280.135,-0.1051032,0.02079832,0.1089014,-0.951222538948059,-0.418219596147537,0.531501889228821,-0.94540321420156,-0.406780591562751,0.585249625391268,0
1.8399658203125,-1.12088072299957,2.59954380989075,1.59693717956543,-0.835419998744244,2.60635849391067,1.66002186597783,1365.097,1332.27,3260.702,3264.568,-0.104406,0.02150403,0.1086137,-0.959964036941528,-0.419984042644501,0.538559436798096,-0.954160941629351,-0.41054879701235,0.590671075857483,0
1.8599853515625,-1.14025020599365,2.59111142158508,1.60785496234894,-0.854607925216182,2.59810246519841,1.67190010651166,1341.675,1326.373,3278.777,3276.899,-0.1037861,0.02216273,0.1083574,-0.968480587005615,-0.421620666980743,0.545890271663666,-0.962722140342816,-0.41423244164655,0.595970865687568,0
1.8800048828125,-1.15978372097015,2.58264946937561,1.61890661716461,-0.873964974649439,2.58977366760063,1.68388304221498,1350.217,1326.57,3267.292,3278.41,-0.103132,0.02284758,0.1079733,-0.976672351360321,-0.423092573881149,0.552584171295166,-0.971056158224177,-0.417818336715394,0.601130019760457,0
1.89996337890625,-1.17947602272034,2.57416105270386,1.6300938129425,-0.893426802120876,2.58139978694019,1.69593084051521,1369.247,1327.839,3264.364,3262.336,-0.1025306,0.02354977,0.1074426,-0.98461776971817,-0.424425691366196,0.559358417987823,-0.979135219574012,-0.421294531111384,0.606131343595068,0
1.91998291015625,-1.19932210445404,2.5656476020813,1.64142119884491,-0.91310780215452,2.5729316024492,1.70811431707208,1344.311,1322.753,3281.624,3274.417,-0.1020028,0.0241948,0.1069581,-0.992310345172882,-0.425676554441452,0.566367089748383,-0.98700543065471,-0.424680863071164,0.611003379164165,0
1.94000244140625,-1.21931529045105,2.55711150169373,1.65287506580353,-0.932943991899774,2.5643966441608,1.72039386345315,1352.449,1323.671,3268.833,3275.267,-0.1014361,0.02485709,0.106359,-0.999654114246368,-0.426805555820465,0.572694361209869,-0.994638524886308,-0.427965170275055,0.615728628108227,0
1.96002197265625,-1.23944997787476,2.54855489730835,1.66445672512054,-0.952930593197372,2.55579696798345,1.73276652175022,1370.979,1325.621,3264.966,3258.469,-0.1009226,0.025527,0.1056293,-1.00673198699951,-0.427836328744888,0.579081892967224,-1.00203140433628,-0.431146119769234,0.620305172659443,0
1.97998046875,-1.25972032546997,2.53997874259949,1.67616724967957,-0.973001172086935,2.54716115859433,1.74519116617712,1356.636,1324.33,3271.559,3266.061,-0.1005583,0.02613947,0.104929,-1.01352369785309,-0.428808391094208,0.585529327392578,-1.0091596546337,-0.434213206731958,0.624717899159203,0
2,-1.28012108802795,2.5313835144043,1.68800592422485,-0.993273599084619,2.53843849960327,1.7577407641983,1334.347,1319.056,3286.467,3274.345,-0.1001279,0.02671205,0.1042511,-1.02003359794617,-0.429759711027145,0.591936767101288,-1.01606400046349,-0.437183953857422,0.628992018127441,0
2.02001953125,-1.30064451694489,2.52277112007141,1.69995653629303,-1.01368176147806,2.52965743746343,1.77037438889544,1353.235,1322.291,3266.05,3267.979,-0.09959157,0.02731525,0.1034345,-1.02617561817169,-0.43061962723732,0.597529113292694,-1.0227194988233,-0.440047628868552,0.633112088657522,0
2.03997802734375,-1.32128548622131,2.5141429901123,1.71202111244202,-1.03415783849082,2.52084715356021,1.78305005597715,1373.745,1325.809,3258.409,3250.635,-0.09915055,0.02791228,0.1025075,-1.03204464912415,-0.431406825780869,0.603230237960815,-1.02910434715509,-0.442794850733705,0.637064613927399,0
2.05999755859375,-1.34203839302063,2.50549912452698,1.72420597076416,-1.05482201812353,2.5119559343546,1.79584216754118,1339.868,1321.902,3276.434,3267.025,-0.09883949,0.0284201,0.1016825,-1.03764736652374,-0.432190805673599,0.609240889549255,-1.03525504859546,-0.445441325732794,0.640872191117535,0
2.08001708984375,-1.36289608478546,2.49684023857117,1.73649656772614,-1.07560676837143,2.50301283698163,1.80870891805959,1340.569,1323.159,3265.345,3269.786,-0.09847198,0.02892998,0.1007749,-1.04289126396179,-0.432939171791077,0.614532470703125,-1.0411492471255,-0.447977434695423,0.644520980787238,0
2.0999755859375,-1.38385319709778,2.48816704750061,1.74889230728149,-1.09644304044274,2.49404757120739,1.82160756304102,1358.789,1326.221,3260.625,3249.654,-0.09809541,0.02944608,0.09975394,-1.04785263538361,-0.433664411306381,0.619786322116852,-1.04676782045836,-0.450394949835787,0.647999145330045,0
2.1199951171875,-1.40490365028381,2.47947907447815,1.76139545440674,-1.11745308225396,2.48500753716864,1.83461377976925,1333.282,1323.685,3273.625,3259.794,-0.09776198,0.0298908,0.0988319,-1.05252766609192,-0.434401780366898,0.625159561634064,-1.0521429102862,-0.45270770082608,0.651326581984514,0
2.1400146484375,-1.42604053020477,2.47077703475952,1.77399086952209,-1.13856809990831,2.47592233495728,1.84768498154507,1340.914,1325.827,3257.117,3259.913,-0.09738062,0.0303359,0.09784876,-1.05684101581573,-0.435100138187408,0.629773020744324,-1.05725481901126,-0.454907212340279,0.654491096999312,0
2.15997314453125,-1.44725823402405,2.46206140518188,1.78667986392975,-1.15971797923886,2.46682213274057,1.86077776435915,1356.313,1328.723,3252.022,3243.031,-0.09705198,0.03076908,0.09679173,-1.0608879327774,-0.435780584812164,0.634449064731598,-1.06208716414724,-0.456986435452193,0.657482548835001,0
2.17999267578125,-1.46855163574219,2.4533314704895,1.79946613311768,-1.18102676265167,2.45765355853653,1.8739689163698,1322.608,1325.656,3267.748,3258.221,-0.09678993,0.03111845,0.09586009,-1.06466948986053,-0.43649235367775,0.639315009117126,-1.06666760390386,-0.458957270716794,0.660318059240953,0
2.20001220703125,-1.48991358280182,2.44458770751953,1.81233382225037,-1.20242455577657,2.44844668594002,1.88721516963236,1326.861,1327.406,3252.797,3259.065,-0.09643093,0.0314747,0.0948604,-1.06810522079468,-0.437184303998947,0.643383860588074,-1.07097916161324,-0.460812413548163,0.662987118851036,0
2.219970703125,-1.51133918762207,2.43583035469055,1.82528257369995,-1.22384034501537,2.43923207011845,1.90047256334669,1345.619,1330.899,3246.036,3238.773,-0.09606341,0.03183443,0.09376778,-1.07127952575684,-0.437864601612091,0.647440373897552,-1.07500824518964,-0.462546015651526,0.665481313516697,0
2.239990234375,-1.53282308578491,2.42705893516541,1.83831572532654,-1.24539969505118,2.42995568409656,1.91381882803312,1315.765,1328.864,3258.913,3251.487,-0.0957465,0.0321193,0.09279776,-1.0741913318634,-0.438570141792297,0.651657283306122,-1.07877792518082,-0.464168003639063,0.667814925005999,0
2.260009765625,-1.55435848236084,2.41827392578125,1.85141777992249,-1.26703177594152,2.42064800401982,1.92721011658316,1320.683,1330.698,3243.157,3252.177,-0.09535022,0.03241018,0.0917724,-1.07676804065704,-0.439249396324158,0.655105948448181,-1.08227399942825,-0.465672266718726,0.669979161506271,0
2.27996826171875,-1.57594037055969,2.40947556495667,1.86458945274353,-1.28866484336891,2.41133989946375,1.94060201584662,1337.129,1333.835,3237.524,3232.989,-0.0949598,0.03270133,0.09067249,-1.07909572124481,-0.439916431903839,0.658584356307983,-1.08548570791771,-0.467054175156991,0.671967362056137,0
2.29998779296875,-1.59756374359131,2.40066337585449,1.8778338432312,-1.31042570636616,2.40197680804417,1.95407302665558,1304.893,1331.605,3251.183,3246.747,-0.09461146,0.03291912,0.08970773,-1.08117139339447,-0.440608471632004,0.662220537662506,-1.08843144721369,-0.468321644481621,0.673790915005368,0
2.32000732421875,-1.61922216415405,2.39183807373047,1.8911349773407,-1.33224276726637,2.39258953623693,1.96757882664355,1310.298,1333.045,3235.32,3246.7,-0.09415712,0.03314991,0.08868949,-1.08292388916016,-0.441269069910049,0.665057480335236,-1.09109983431736,-0.469469776906228,0.675442773735451,0
2.3399658203125,-1.64091086387634,2.38299989700317,1.9044930934906,-1.354043721977,2.38320919447311,1.98107465613292,1328.492,1336.087,3228.655,3226.393,-0.09368841,0.03338761,0.08759822,-1.08443701267242,-0.44190639257431,0.667905271053314,-1.09348297402779,-0.470495175346408,0.676918050740891,0
2.3599853515625,-1.6626250743866,2.37414884567261,1.91791141033173,-1.37595634130987,2.37378080654189,1.99463961134278,1296.728,1333.972,3241.293,3240.268,-0.09326177,0.03355609,0.08664727,-1.08570909500122,-0.44255393743515,0.670917630195618,-1.09559452046326,-0.471403714787811,0.678225198571351,0
2.3800048828125,-1.68435847759247,2.36528563499451,1.93137443065643,-1.39790843013262,2.36433543599182,2.00822900004707,1301.496,1334.946,3225.607,3240.794,-0.09272914,0.03374028,0.0856461,-1.08667361736298,-0.443156689405441,0.673150300979614,-1.09742594550583,-0.472191725819537,0.679358937915576,0
2.39996337890625,-1.70610678195953,2.35641121864319,1.94488251209259,-1.41982729721844,2.35490435982705,2.02179782291363,1319.151,1337.618,3219.405,3220.48,-0.09217254,0.03393667,0.08457126,-1.08741116523743,-0.443723767995834,0.675406992435455,-1.09897224258044,-0.472857054252202,0.680316169465103,0
2.41998291015625,-1.72786498069763,2.34752559661865,1.95843887329102,-1.4418413890156,2.34543231112926,2.03542559441269,1287.387,1335.498,3231.634,3234.304,-0.09164683,0.0340713,0.08363382,-1.08791625499725,-0.444285541772842,0.677818596363068,-1.10024227275454,-0.473403512755585,0.681102378642803,0
2.44000244140625,-1.74962759017944,2.33862996101379,1.97202789783478,-1.46387808506052,2.33595053645515,2.04906735901791,1293.366,1336.104,3215.781,3233.796,-0.09100181,0.03422926,0.08264097,-1.08812487125397,-0.444785505533218,0.679449737071991,-1.10123038958312,-0.473828671822132,0.681714070030222,0
2.46002197265625,-1.7713897228241,2.32972526550293,1.98565006256104,-1.48593173759011,2.32646146587939,2.06271962049488,1311.742,1338.479,3209.38,3212.977,-0.09032857,0.0344044,0.08157486,-1.08811378479004,-0.445231705904007,0.681110739707947,-1.10193621258339,-0.474132367740737,0.682151008090402,0
2.47998046875,-1.79314708709717,2.32081246376038,1.99930548667908,-1.50792940965705,2.3169964821328,2.07633722739875,1293.521,1338.54,3211.865,3221.22,-0.08975119,0.03453425,0.08060896,-1.08786296844482,-0.44563889503479,0.682771742343903,-1.10235860927677,-0.474314113237503,0.682412491765153,0
2.5,-1.8148946762085,2.31189203262329,2.01299238204956,-1.52999999932945,2.30750012397766,2.08999997377396,1268.794,1334.115,3222.819,3229.413,-0.08904971,0.03464234,0.07971374,-1.08738875389099,-0.446024984121323,0.684347808361053,-1.10250000050292,-0.474374949932098,0.682500019669533,0
2.52001953125,-1.83662748336792,2.30296587944031,2.02669405937195,-1.55207058900185,2.29800376582252,2.10366272014916,1287.644,1335.61,3201.421,3220.48,-0.08816075,0.03480192,0.07871542,-1.08662986755371,-0.446310579776764,0.685086727142334,-1.10235860927677,-0.474314113237503,0.682412491765153,0
2.53997802734375,-1.85834050178528,2.29403591156006,2.04041266441345,-1.57406826106879,2.28853878207593,2.11728032705303,1308.668,1338.295,3192.406,3199.835,-0.08728723,0.03497905,0.07764931,-1.08565866947174,-0.446500897407532,0.685925602912903,-1.10193621258339,-0.474132367740737,0.682151008090402,0
2.55999755859375,-1.88003015518188,2.28510308265686,2.05415320396423,-1.59612191359838,2.27904971150017,2.13093258853001,1273.02,1335.594,3205.523,3217.017,-0.08650213,0.03509592,0.07673097,-1.08447420597076,-0.446637958288193,0.687027931213379,-1.10123038958312,-0.473828671822132,0.681714070030222,0
2.58001708984375,-1.90169048309326,2.27616953849792,2.06790137290955,-1.6181586096433,2.26956793682606,2.14457435313522,1274.514,1334.422,3193.245,3218.214,-0.08559506,0.03524439,0.07575256,-1.08301854133606,-0.446680098772049,0.687406599521637,-1.10024227275454,-0.473403512755585,0.681102378642802,0
2.5999755859375,-1.92331731319427,2.26723670959473,2.08165693283081,-1.64010562536668,2.26012474908893,2.15816060134934,1293.834,1335.714,3187.765,3195.378,-0.08461342,0.03542857,0.07468209,-1.0813512802124,-0.446631580591202,0.687775015830994,-1.09897654259203,-0.472858904427064,0.680318831377119,0
2.6199951171875,-1.94490671157837,2.2583065032959,2.09542202949524,-1.66209156852628,2.2506648119635,2.17177094750084,1267.268,1333.422,3197.268,3205.871,-0.0836371,0.03557615,0.07373381,-1.07945930957794,-0.446509301662445,0.688254594802856,-1.09742594550583,-0.472191725819537,0.679358937915576,0
2.6400146484375,-1.96645247936249,2.24938154220581,2.10918164253235,-1.68404365734903,2.24121944141343,2.18536033620513,1276.389,1332.297,3180.818,3203.897,-0.08254787,0.03575967,0.07272997,-1.07729244232178,-0.446259409189224,0.687985599040985,-1.09559452046326,-0.471403714787811,0.678225198571351,0
2.65997314453125,-1.98795080184937,2.2404637336731,2.12293767929077,-1.70588953556828,2.23181977031887,2.19888397548635,1294.76,1332.987,3174.838,3183.565,-0.08144905,0.03596817,0.07165791,-1.07491981983185,-0.445893526077271,0.687798380851746,-1.09348983658457,-0.470498128112872,0.676922298990445,0
2.67999267578125,-2.00939750671387,2.23155498504639,2.13669371604919,-1.72775723139253,2.2224107117184,2.21242112090437,1261.864,1329.852,3186.594,3198.702,-0.08039764,0.03613176,0.0707204,-1.0723340511322,-0.445442169904709,0.687802016735077,-1.09109983431736,-0.469469776906228,0.675442773735451,0
2.70001220703125,-2.03078722953796,2.22265768051147,2.15043497085571,-1.74957429229274,2.21302343991116,2.22592692089233,1267.594,1327.792,3172.455,3197.879,-0.07920827,0.03633672,0.06971169,-1.06948471069336,-0.444859564304352,0.687058925628662,-1.08843144721369,-0.468321644481621,0.673790915005369,0
2.719970703125,-2.05211591720581,2.21377444267273,2.16416192054749,-1.77126890221328,2.20368885533958,2.23935691789074,1288.494,1328.368,3165.996,3174.865,-0.07796191,0.03658018,0.06860675,-1.06642842292786,-0.444150000810623,0.686342477798462,-1.08549510920706,-0.467058220269158,0.671973181902092,0
2.739990234375,-2.0733790397644,2.20490765571594,2.17787742614746,-1.79296822271738,2.1943522439355,2.25278983096475,1260.449,1325.734,3175.227,3186.995,-0.07674964,0.03678942,0.06761777,-1.06315219402313,-0.443334639072418,0.6857790350914,-1.08227399942825,-0.465672266718727,0.669979161506271,0
2.760009765625,-2.09457111358643,2.19606041908264,2.19156742095947,-1.81460030360772,2.18504456385877,2.26618111951479,1268.079,1323.514,3160.403,3185.251,-0.07542605,0.03703937,0.06655816,-1.05961167812347,-0.442371428012848,0.684504449367523,-1.07877792518082,-0.464168003639063,0.667814925005998,0
2.77996826171875,-2.11568856239319,2.18723487854004,2.205233335495,-1.83609403998392,2.17579640956157,2.27948676622032,1287.135,1323.604,3154.833,3163.567,-0.07407796,0.03732252,0.06541229,-1.0558625459671,-0.441270887851715,0.683299958705902,-1.0750201524698,-0.462551139021528,0.665488684690339,0
2.79998779296875,-2.13672637939453,2.17843389511108,2.21887850761414,-1.85757544288233,2.1665535620153,2.29278477791556,1257.103,1320.584,3165.08,3176.616,-0.07277567,0.03757065,0.06438518,-1.05189263820648,-0.440058559179306,0.682261168956757,-1.07097916161324,-0.460812413548163,0.662987118851036,0
2.82000732421875,-2.15767955780029,2.16966009140015,2.23248839378357,-1.87897323600723,2.1573466894188,2.30603103117811,1264.448,1317.756,3150.875,3174.591,-0.07135088,0.03786143,0.06328359,-1.04766023159027,-0.43869549036026,0.680496394634247,-1.06666760390385,-0.458957270716794,0.660318059240952,0
2.8399658203125,-2.17854356765747,2.16091632843018,2.24606394767761,-1.90021719432543,2.14820600764196,2.31918205336715,1285.179,1317.573,3144.814,3151.573,-0.06988987,0.03818842,0.06208998,-1.04321599006653,-0.437188357114792,0.678781032562256,-1.06210153574728,-0.456992619150195,0.65749144554004,0
2.8599853515625,-2.1993145942688,2.15220522880554,2.25960826873779,-1.92143189875059,2.13907791299805,2.33231496600284,1256.758,1314.674,3153.672,3164.061,-0.06848319,0.03848135,0.06101234,-1.03854739665985,-0.435559511184692,0.677220582962036,-1.05725481901126,-0.454907212340279,0.654491096999312,0
2.8800048828125,-2.21998715400696,2.14352965354919,2.27310752868652,-1.94254691640495,2.12999271078668,2.34538616777867,1263.726,1311.452,3139.78,3162.323,-0.06697104,0.03881364,0.05986184,-1.03361999988556,-0.433776259422302,0.674966633319855,-1.0521429102862,-0.45270770082608,0.651326581984514,0
2.89996337890625,-2.24055671691895,2.13489270210266,2.2865629196167,-1.96349306806643,2.12098016689448,2.3583528334607,1283.076,1310.939,3134.288,3140.076,-0.06543121,0.03917999,0.05861991,-1.02848029136658,-0.431847482919693,0.672775089740753,-1.04678460577819,-0.450402172089984,0.648009536242619,0
2.91998291015625,-2.26101875305176,2.12629652023315,2.29997754096985,-1.98439323028747,2.1119874109737,2.37129102948832,1254.716,1308.082,3142.806,3152.375,-0.0639457,0.03951378,0.05748665,-1.02311456203461,-0.429795205593109,0.670726597309113,-1.0411492471255,-0.447977434695422,0.644520980787238,0
2.94000244140625,-2.28136873245239,2.11774492263794,2.3133373260498,-2.00517798053537,2.10304431360073,2.38415778000673,1262.42,1304.643,3129.1,3149.595,-0.06235312,0.03988766,0.05627474,-1.01749229431152,-0.427590161561966,0.667989730834961,-1.03525504859546,-0.445441325732794,0.640872191117535,0
2.9599609375,-2.30160188674927,2.10924005508423,2.32664346694946,-2.02577934803935,2.09418012069934,2.39691100787092,1282.12,1304.046,3123.252,3127.129,-0.06073712,0.04029425,0.05497117,-1.01165425777435,-0.425239533185959,0.6653071641922,-1.02912348666547,-0.442803085930327,0.637076462196068,0
2.97998046875,-2.32171392440796,2.10078454017639,2.33989882469177,-2.04631823718085,2.08534281049189,2.40962555865248,1254.484,1301.326,3131.253,3138.848,-0.05918662,0.04066746,0.05377509,-1.00558829307556,-0.42276531457901,0.662770926952362,-1.0227194988233,-0.440047628868552,0.633112088657521,0
3,-2.34169912338257,2.09238195419312,2.3530900478363,-2.06672639957428,2.07656174835205,2.42225918334961,1261.333,1297.59,3118.028,3136.476,-0.05754026,0.04107663,0.05250509,-0.999269008636475,-0.420143574476242,0.659562408924103,-1.01606400046349,-0.437183953857422,0.628992018127441,0
3.02001953125,-2.36155366897583,2.08403444290161,2.36621809005737,-2.08699882657197,2.06783908936099,2.4348087813708,1280.735,1296.779,3112.401,3113.928,-0.05587312,0.04151617,0.05114476,-0.992733716964722,-0.417381525039673,0.656406164169312,-1.0091596546337,-0.434213206731958,0.624717899159203,0
3.03997802734375,-2.38127326965332,2.07574439048767,2.37928295135498,-2.10706940546153,2.05920327997188,2.4472334257977,1265.316,1295.359,3112.465,3120.247,-0.05432103,0.04193017,0.04985761,-0.985962748527527,-0.414492100477219,0.653243005275726,-1.00203140433628,-0.431146119769234,0.620305172659443,0
3.05999755859375,-2.4008526802063,2.06751465797424,2.39228320121765,-2.12705600675913,2.05060360379452,2.45960608409476,1245.467,1289.977,3119.74,3125.654,-0.0526965,0.04233919,0.04860517,-0.97897607088089,-0.411496102809906,0.650007963180542,-0.994638524886308,-0.427965170275055,0.615728628108227,0
3.08001708984375,-2.42028737068176,2.05934762954712,2.40520477294922,-2.14689219650438,2.04206864550612,2.47188563047583,1263.274,1287.449,3102.317,3115.198,-0.0509255,0.04279742,0.0472383,-0.971744298934937,-0.408355325460434,0.646077215671539,-0.987005430654711,-0.424680863071165,0.611003379164165,0
3.0999755859375,-2.43957328796387,2.05124616622925,2.41804981231689,-2.16651343412374,2.03362617511243,2.48403211125138,1283.895,1287.408,3094.719,3093.002,-0.0491806,0.04327615,0.04579553,-0.96429318189621,-0.405072063207626,0.642250180244446,-0.979159571260203,-0.421305008961644,0.606146418448853,0
3.1199951171875,-2.45870590209961,2.04321241378784,2.43082213401794,-2.18603502400946,2.02522658035469,2.49611690533293,1253.582,1285.04,3102.197,3107.266,-0.04756139,0.04371101,0.0444719,-0.956616103649139,-0.401674032211304,0.63861209154129,-0.971056158224178,-0.417818336715394,0.601130019760458,0
3.1400146484375,-2.47767996788025,2.03524923324585,2.44350934028625,-2.20539207344272,2.01689778275692,2.50809984103626,1256.313,1280.675,3091.694,3106.22,-0.04586815,0.04417243,0.04307843,-0.94870400428772,-0.398155093193054,0.634363770484924,-0.962722140342815,-0.41423244164655,0.595970865687568,0
3.15997314453125,-2.49649143218994,2.02735900878906,2.45611214637756,-2.22452176174551,2.00866681230185,2.51994202936911,1274.264,1279.718,3087.066,3083.258,-0.04413763,0.04466122,0.04159262,-0.940581798553467,-0.394520878791809,0.630138874053955,-0.954187384555097,-0.410560174664568,0.590687445288169,0
3.17999267578125,-2.51513600349426,2.01954317092896,2.46863174438477,-2.24353658854737,2.00048526354177,2.53171311296128,1250.754,1277.927,3091.841,3092.167,-0.0424673,0.04511913,0.04020323,-0.932234525680542,-0.390783548355103,0.625980138778687,-0.945403214201559,-0.406780591562751,0.585249625391267,0
3.20001220703125,-2.53360939025879,2.01180481910706,2.48105573654175,-2.26237335188561,1.99238033051557,2.54337396678712,1259.497,1273.883,3078.695,3087.687,-0.04072293,0.04560246,0.03874974,-0.923655152320862,-0.386929363012314,0.621199250221252,-0.93639902618694,-0.402906341007952,0.579675604081262,0
3.219970703125,-2.55190658569336,2.00414562225342,2.49338555335999,-2.2809710931091,1.98437824202785,2.55488685453773,1276.499,1272.913,3073.374,3066.742,-0.03899134,0.04610004,0.0372318,-0.914869010448456,-0.382964164018631,0.616493344306946,-0.927207006545169,-0.398951271751399,0.573985306046387,0
3.239990234375,-2.57002449035645,1.99656736850739,2.50562357902527,-2.2994392795179,1.97643189735754,2.5663195416865,1248.996,1271.017,3079.013,3078.828,-0.03735723,0.04655672,0.03582652,-0.90586906671524,-0.378906846046448,0.611902296543121,-0.917774783907129,-0.394892849856044,0.568146310914365,0
3.260009765625,-2.58795738220215,1.98907256126404,2.51775765419006,-2.31771654397337,1.96856770107001,2.57763403905129,1253.898,1266.636,3067.606,3076.347,-0.03564535,0.0470351,0.03435699,-0.896655261516571,-0.374751389026642,0.606707811355591,-0.908134108040216,-0.390744736359816,0.562178273303667,0
3.27996826171875,-2.60570240020752,1.98166239261627,2.52978873252869,-2.33574392582143,1.96081102228753,2.58879384717852,1271.618,1265.8,3062.237,3054.125,-0.03391322,0.0475319,0.03280798,-0.887245953083038,-0.370500057935715,0.601552844047546,-0.898319376918855,-0.386521731750139,0.556102487199064,0
3.29998779296875,-2.62325501441956,1.9743390083313,2.54171824455261,-2.35362764460945,1.95311615770631,2.59986472102797,1247.416,1264.599,3066.129,3063.898,-0.03226473,0.04799243,0.03136005,-0.877629816532135,-0.36616513133049,0.596481740474701,-0.888274735793772,-0.382199803288803,0.549884375850026,0
3.32000732421875,-2.64061093330383,1.96710419654846,2.55353498458862,-2.37130830610839,1.94550866300381,2.61080989274252,1253.727,1260.447,3054.279,3060.447,-0.03055232,0.0484715,0.0298528,-0.8678098320961,-0.361741751432419,0.590831637382507,-0.878034183119985,-0.377793579561194,0.543544985919778,0
3.3399658203125,-2.6577672958374,1.95995950698853,2.56523990631104,-2.38872907693451,1.93801299199733,2.62159417975029,1270.032,1259.674,3049.412,3039.181,-0.02884203,0.04896221,0.02828112,-0.857802212238312,-0.357233554124832,0.585250437259674,-0.867634212728789,-0.373318762843399,0.537106908828335,0
3.3599853515625,-2.67471933364868,1.95290684700012,2.57683491706848,-2.40599272667425,1.93058492580486,2.63228120132087,1244.574,1258.599,3053.299,3050.02,-0.02722709,0.04941325,0.02681848,-0.847598671913147,-0.352653920650482,0.57975047826767,-0.857015715678588,-0.368749920209162,0.530533553325099,0
3.3800048828125,-2.69146347045898,1.94594645500183,2.58830857276917,-2.42304196557559,1.92324911460621,2.64283549236868,1250.232,1254.291,3042.219,3046.533,-0.02554557,0.04988064,0.02529994,-0.837208390235901,-0.348001420497894,0.57368665933609,-0.846214826007803,-0.364102599125748,0.523847288101157,0
3.39996337890625,-2.7079963684082,1.93908107280731,2.59966230392456,-2.43982220956584,1.91602904440295,2.65322326275251,1266.389,1253.603,3037.552,3025.047,-0.0238582,0.05035793,0.02372196,-0.826643228530884,-0.343277126550674,0.567687392234802,-0.835270008391825,-0.3593933498684,0.517071924622901,0
3.41998291015625,-2.72431421279907,1.93231117725372,2.61089706420898,-2.45643259034873,1.90888206159239,2.66350587971929,1242.202,1252.821,3040.111,3035.69,-0.02226509,0.05079586,0.02225369,-0.815894603729248,-0.338490903377533,0.561742186546326,-0.824119146742881,-0.354595445619869,0.510169010073001,0
3.44000244140625,-2.74041366577148,1.92563819885254,2.62200260162354,-2.47281804716281,1.90183185728196,2.67364925803476,1248.284,1248.547,3029.467,3031.545,-0.02061233,0.05124695,0.02073438,-0.804976940155029,-0.333643525838852,0.555274367332458,-0.812800388649434,-0.349725300221754,0.503162159625937,0
3.4599609375,-2.75629162788391,1.91906356811523,2.63298010826111,-2.48892635951887,1.8949009004893,2.68362107072849,1262.613,1247.959,3024.833,3011.818,-0.01896277,0.05170386,0.01916595,-0.793898165225983,-0.328735440969467,0.548873662948608,-0.801354035689029,-0.344800254316973,0.496076321878038,0
3.47998046875,-2.77194452285767,1.91258811950684,2.6438307762146,-2.50485284867397,1.88804817714046,2.69348032619939,1239.121,1247.377,3027.139,3021.914,-0.01740589,0.05212231,0.01770373,-0.78265243768692,-0.323776096105576,0.542528927326202,-0.789715229532172,-0.33979240117828,0.488871346433721,0
3.5,-2.78736972808838,1.90621280670166,2.65454435348511,-2.5205447997813,1.88129636896134,2.70319439144611,1244.636,1243.224,3016.979,3017.887,-0.01579041,0.05255206,0.01619448,-0.771256506443024,-0.318767994642258,0.535683691501617,-0.777924000354857,-0.334718964672089,0.481572013878822,0
3.52001953125,-2.80256414413452,1.89993834495544,2.66512250900269,-2.53599921507943,1.87464676580493,2.71276141071155,1258.734,1242.718,3012.429,2998.336,-0.01417601,0.05298661,0.01463994,-0.759714722633362,-0.313710063695908,0.528903543949127,-0.765985728654519,-0.329582259876133,0.474181654997567,0
3.53997802734375,-2.81752443313599,1.89376640319824,2.67556405067444,-2.55116718971613,1.86812041006291,2.72215110956251,1244.866,1242.514,3009.783,3003.89,-0.01267824,0.0533887,0.01316947,-0.74802029132843,-0.308608502149582,0.522077143192291,-0.753942941956194,-0.324400585196356,0.466726596353819,0
3.55999755859375,-2.83224821090698,1.88769674301147,2.68586754798889,-2.56613872308604,1.86167857751006,2.73141920191151,1231.482,1239.194,3012.066,3006.002,-0.01115651,0.05377612,0.01173426,-0.736199080944061,-0.303477853536606,0.515179812908173,-0.741727567798258,-0.319144650954242,0.459164697851087,0
3.58001708984375,-2.84673357009888,1.88173067569733,2.69602417945862,-2.58086439685043,1.85534253147694,2.74053509545279,1242.941,1236.563,3000.268,2996.816,-0.009553292,0.05417931,0.01024044,-0.724253356456757,-0.298309326171875,0.507835328578949,-0.729381927869994,-0.313832666990361,0.451522158631107,0
3.5999755859375,-2.86097717285156,1.87586855888367,2.70603561401367,-2.59529790318687,1.84913219692586,2.7494701234383,1255.597,1236.536,2994.63,2979.94,-0.007982027,0.05458055,0.008725015,-0.712178289890289,-0.293097496032715,0.500566005706787,-0.716950039288888,-0.308483572640672,0.443826227386424,0
3.6199951171875,-2.87497663497925,1.8701114654541,2.71590304374695,-2.60952509409627,1.84301063413925,2.75827743234631,1233.969,1236.212,2996.1,2989.527,-0.006524744,0.0549427,0.007318232,-0.6999751329422,-0.287852227687836,0.493376791477203,-0.704361775018033,-0.303067194200314,0.436033492140578,0
3.6400146484375,-2.8887300491333,1.86446011066437,2.72561860084534,-2.62349913748426,1.83699799365897,2.76692803087948,1236.391,1232.25,2988.075,2987.019,-0.005033374,0.05530911,0.005883352,-0.687669157981873,-0.282582730054855,0.485781997442245,-0.691660998977508,-0.297602405088683,0.428171106749629,0
3.65997314453125,-2.90223550796509,1.8589141368866,2.73518347740173,-2.63717640706374,1.8311130466576,2.77539491228788,1247.598,1231.746,2984.447,2969.771,-0.003538808,0.05567749,0.004415479,-0.675260305404663,-0.277287781238556,0.478245437145233,-0.678893054168409,-0.29210871513241,0.420267140691237,0
3.67999267578125,-2.91549015045166,1.85347485542297,2.7445981502533,-2.65063849381582,1.82532068681534,2.78372858527554,1229.05,1231.831,2984.906,2976.919,-0.002119343,0.05601455,0.003044237,-0.66274493932724,-0.271970838308334,0.470735639333725,-0.665986083416798,-0.286555206197011,0.41227711095171,0
3.70001220703125,-2.92849278450012,1.8481422662735,2.75385451316833,-2.66384123964357,1.81963991412768,2.79190171387692,1234.849,1228.024,2975.951,2972.337,-0.0006567355,0.05635687,0.001647144,-0.650145709514618,-0.266636848449707,0.46282109618187,-0.65298533214413,-0.280961346123326,0.404229026602262,0
3.719970703125,-2.94124221801758,1.84291648864746,2.7629542350769,-2.67674377421065,1.81408831395855,2.7998889974069,1246.544,1227.611,2971.884,2955.592,0.0007894256,0.05669713,0.000232972,-0.637459397315979,-0.261281907558441,0.454990684986115,-0.639937296597115,-0.275347140947358,0.396151671034529,0
3.739990234375,-2.95373582839966,1.8377982378006,2.7718985080719,-2.68942333385363,1.80863265367006,2.80773824883709,1226.944,1227.688,2972.207,2964.466,0.002136042,0.05700235,-0.001073254,-0.624686360359192,-0.255911022424698,0.447209984064102,-0.62676873176137,-0.26968107538565,0.387999702095468,0
3.760009765625,-2.96597266197205,1.8327876329422,2.78067994117737,-2.70183851231475,1.80329074921818,2.81542383572149,1230.473,1223.808,2964.702,2961.165,0.003518307,0.05731028,-0.002399508,-0.611854493618011,-0.250533014535904,0.439074993133545,-0.613526094901139,-0.263983138701136,0.379801879044709,0
3.77996826171875,-2.977952003479,1.82788467407227,2.78930020332336,-2.71395125899829,1.79807897271122,2.82292220292874,1240.806,1223.427,2961.009,2945.562,0.004895844,0.05761703,-0.003744405,-0.5989590883255,-0.245143905282021,0.431012839078903,-0.600256853941589,-0.258273755015919,0.371587586789143,0
3.79998779296875,-2.98967170715332,1.82308983802795,2.79775977134705,-2.72583438304408,1.79296599641037,2.83027842278479,1223.991,1223.669,2960.57,2952.646,0.006190211,0.05789442,-0.004994492,-0.585999429225922,-0.239746198058128,0.422984063625336,-0.586886736182787,-0.252520966862155,0.36331084698941,0
3.82000732421875,-3.001131772995,1.81840300559998,2.80605244636536,-2.73744929742843,1.78796842323393,2.8374686080838,1228.548,1220.128,2953.234,2948.46,0.007514581,0.05817423,-0.006262157,-0.573000967502594,-0.234347745776176,0.414638608694077,-0.573463232144022,-0.246745208083563,0.355001058539243,0
3.8399658203125,-3.01233100891113,1.81382369995117,2.81417989730835,-2.7487608239245,1.78310138939013,2.8444709818276,1237.874,1219.829,2949.75,2934.113,0.008821268,0.05845085,-0.007537278,-0.559957444667816,-0.22894461452961,0.406378298997879,-0.560034590932614,-0.240967238923098,0.346688089934488,0
3.8599853515625,-3.023268699646,1.80935311317444,2.82214307785034,-2.75983729406747,1.77833549372837,2.85132784449154,1221.914,1220.017,2949.346,2940.889,0.01003984,0.05869849,-0.008716526,-0.546870827674866,-0.223540067672729,0.39815878868103,-0.546525890176286,-0.235154822377061,0.338325560657667,0
3.8800048828125,-3.03394412994385,1.80499029159546,2.82993626594543,-2.77064299647982,1.77368610185671,2.85801708903178,1225.485,1216.553,2942.73,2937.444,0.01128037,0.0589468,-0.009904296,-0.533767938613892,-0.21814301609993,0.38965579867363,-0.532985466132484,-0.229328756186666,0.329943393154704,0
3.89996337890625,-3.04435706138611,1.80073547363281,2.83756113052368,-2.78114566623477,1.76916709647178,2.86451874192163,1234.271,1216.198,2939.569,2923.805,0.01250455,0.05919154,-0.01109579,-0.520642459392548,-0.212749525904655,0.381240129470825,-0.519462149665189,-0.223510050908514,0.32157181605655,0
3.91998291015625,-3.05450654029846,1.79658818244934,2.84501838684082,-2.79140913007042,1.76475101471128,2.87087231495249,1219.835,1216.411,2938.618,2930.119,0.01364273,0.05940904,-0.01219515,-0.50749683380127,-0.207361966371536,0.372858792543411,-0.505880764601328,-0.217666360335509,0.313164291730931,0
