t,x_s1,x_s2,x_s3,x_s_d1,x_s_d2,x_s_d3,propellers_rpms1,propellers_rpms2,propellers_rpms3,propellers_rpms4,rollRad,pitchRad,yawRad,v_s1,v_s2,v_s3,v_s_d1,v_s_d2,v_s_d3,insideCount
0,-0.0599999986588955,2.94000005722046,1.17999994754791,-0.0599999986588955,2.94000005722046,1.17999994754791,0,0,0,0,0,45.0048027038574,0,0,0,0,-1.06581410364015E-15,4.44089209850063E-16,-7.105427357601E-16,0
0.0200004577636719,-0.0599999986588955,2.94000005722046,1.1790189743042,-0.0600018691155303,2.93999925241522,1.18000109018068,0,0,0,0,0.00112508691381663,44.8630180358887,0.909284114837646,-3.60929135467813E-08,2.95208497647081E-08,-0.0490499772131443,-0.000279999361409376,-0.000120475902936966,0.000171047240579747,5
0.0399971008300781,-0.0599999986588955,2.94000005722046,1.17411398887634,-0.0600148681826738,2.93999365927978,1.18000903110795,0,0,0,0,0.00304071488790214,44.7212371826172,1.81856429576874,-3.62307304158094E-08,2.93641466697636E-08,-0.245249927043915,-0.00111080915396111,-0.000477950146533378,0.000678575978318444,6
0.05999755859375,-0.0600350871682167,2.94003486633301,1.16684293746948,-0.0600498857373401,2.93997859220429,1.18003042278566,2307.006,2000.193,2127.755,3382.364,-0.0021375825162977,44.8046226501465,1.28310060501099,-0.00175439822487533,0.00174322084058076,-0.36355447769165,-0.00247936261166862,-0.00106680046642749,0.00151460392977639,6
0.0799980163574219,-0.0601342283189297,2.9401330947876,1.15967178344727,-0.0601175407449857,2.93994948214456,1.1800717521741,2848.305,2760.014,2606.53,2299.042,359.914306640625,44.8777160644531,0.619932353496552,-0.00495704030618072,0.0049134218133986,-0.358560800552368,-0.00437227586895222,-0.00188126815916228,0.00267095510032206,6
0.0999984741210938,-0.0602752827107906,2.94026303291321,1.1533819437027,-0.0602281887669101,2.93990187339187,1.18013934532406,2872.027,2897.538,2627.937,2213.445,359.724700927734,44.9188003540039,0.190222978591919,-0.00705281272530556,0.00649315351620317,-0.314491868019104,-0.00677637982016689,-0.00291568692648091,0.00413958468881675,5
0.119998931884766,-0.0604444406926632,2.94038772583008,1.14806056022644,-0.0603919230601972,2.93983142309968,1.18023936804881,2725.787,2926.576,2634.739,2219.365,359.427734375,44.935115814209,0.0502906143665314,-0.00845781434327364,0.00623432314023376,-0.266067832708359,-0.00967861374975049,-0.00416443710735115,0.005912514107932,5
0.139999389648438,-0.0606513284146786,2.94048070907593,1.1437304019928,-0.0606185767455666,2.93973390035084,1.18037782724834,2551.806,2770.001,2667.52,2379.449,359.090637207031,44.9478645324707,0.144072979688644,-0.0103443870320916,0.00464893458411098,-0.216507107019424,-0.0130660253322238,-0.00562194567796536,0.00798183098414958,5
0.159999847412109,-0.0609211921691895,2.94052791595459,1.14032292366028,-0.0609177249752248,2.93960518522485,1.18056057223372,2443.358,2553.604,2687.158,2529.344,358.804473876953,44.9652938842773,0.340546578168869,-0.0134931076318026,0.00235712598077953,-0.170372739434242,-0.0169257706321904,-0.00728268625174051,0.0103396891577615,5
0.180000305175781,-0.0612808279693127,2.94052505493164,1.13772797584534,-0.0612986871007165,2.9394412678651,1.18079329605139,2417.316,2395.042,2654.739,2596.438,358.625579833984,44.9838790893555,0.518688321113586,-0.0179818663746119,-0.000144759891554713,-0.129749342799187,-0.0212451141043368,-0.00914117907931815,0.0129783086828701,5
0.199996948242188,-0.0617486163973808,2.94047331809998,1.13583755493164,-0.0617704296168641,2.93923829023936,1.1810814761931,2450.73,2337.894,2561.847,2580.204,358.551239013672,44.9966087341309,0.617883861064911,-0.0233894139528275,-0.00259076221846044,-0.0945208147168159,-0.0260104776919234,-0.0111915819022102,0.0158893949364944,5
0.219997406005859,-0.0623323582112789,2.94037485122681,1.13456833362579,-0.0623419453860714,2.93899238297017,1.18143060625819,2496.882,2359.936,2442.936,2516.234,358.525909423828,44.9992332458496,0.641161203384399,-0.0291870161890984,-0.00492175109684467,-0.0634632557630539,-0.0312111627562649,-0.0134292913950757,0.0190664122872106,5
0.239997863769531,-0.063033327460289,2.94023036956787,1.13386464118958,-0.0630217183703222,2.93869989564571,1.18184586896662,2511.89,2408.231,2348.267,2446.437,358.476959228516,44.9927101135254,0.627728879451752,-0.0350485257804394,-0.00722959730774164,-0.0351850017905235,-0.0368338920540454,-0.0158485947310391,0.0225012498742643,5
0.259998321533203,-0.0638525038957596,2.94003653526306,1.13368916511536,-0.063818066443955,2.93835724931701,1.18233234557803,2475.455,2437.171,2311.608,2397.032,358.356018066406,44.9817428588867,0.619209110736847,-0.0409588217735291,-0.00969042535871267,-0.00877152569591999,-0.04286636357961,-0.0184441987007453,0.0261863925943699,4
0.279998779296875,-0.0647951662540436,2.93978667259216,1.13401007652283,-0.0647390625194898,2.93796097043536,1.18289496770872,2398.692,2429.029,2331.19,2372.534,358.162963867188,44.9715003967285,0.638293743133545,-0.047133170068264,-0.0124881444498897,0.0160482339560986,-0.0492963837173861,-0.0212108567320638,0.0301143915580518,4
0.299999237060547,-0.0658718347549438,2.93947196006775,1.13479292392731,-0.065792536715479,2.93750768991949,1.18353851865591,2313.732,2391.282,2375.508,2363.954,357.940124511719,44.9649925231934,0.685066103935242,-0.0538334473967552,-0.015736598521471,0.0391426905989647,-0.0561118672418845,-0.0241433688900884,0.0342778640896448,4
0.319999694824219,-0.0670957863330841,2.93908333778381,1.13599860668182,-0.0669860785243584,2.93699414222283,1.1842676347221,2254.657,2343.452,2404.517,2358.776,357.744445800781,44.9626731872559,0.745579779148102,-0.061197467148304,-0.0194298271089792,0.0602819472551346,-0.0633008373176985,-0.0272365818771378,0.0386694937272938,4
0.340000152587891,-0.0684792473912239,2.93861436843872,1.1375857591629,-0.0683270389802989,2.93641716440073,1.18508680653936,2239.427,2303.394,2392.638,2348.374,357.614715576172,44.9632034301758,0.803882122039795,-0.0691729858517647,-0.0234481655061245,0.0793576240539551,-0.0708514254995047,-0.0304853890327553,0.0432820302229541,4
0.360000610351563,-0.0700306743383408,2.93806195259094,1.1395149230957,-0.0698225328270578,2.93577369517774,1.18600038039362,2261.902,2279.323,2340.962,2330.733,357.552398681641,44.9647369384766,0.850467503070831,-0.0775711908936501,-0.0276181623339653,0.0964583903551102,-0.0787518717320621,-0.0338847303337087,0.0481082895423912,4
0.379997253417969,-0.0717543885111809,2.93742609024048,1.14175117015839,-0.0714791088463715,2.935060916796,1.18701235683346,2297.2,2269.414,2273.542,2308.704,357.524871826172,44.965763092041,0.88452535867691,-0.0861855745315552,-0.0317951627075672,0.11181353032589,-0.0869889214763108,-0.0374289027221294,0.0531401746945263,4
0.399997711181641,-0.0736523866653442,2.93670749664307,1.14426505565643,-0.0733040467096699,2.93427569701629,1.18812718289655,2316.767,2266.073,2221.361,2286.897,357.486968994141,44.9656410217285,0.911165297031403,-0.094899870455265,-0.0359259620308876,0.125693053007126,-0.0955541759940907,-0.0411142924556206,0.058372555021277,4
0.419998168945313,-0.0757269561290741,2.93590617179871,1.14703130722046,-0.0753034649285836,2.93341540321397,1.18934859628618,2304.923,2262.121,2203.445,2268.315,357.407073974609,44.9645919799805,0.936890542507172,-0.103728428483009,-0.0400610715150833,0.138309732079506,-0.104434660908044,-0.0449353170220673,0.0637975046779765,4
0.439998626708984,-0.0779825821518898,2.93501996994019,1.15002763271332,-0.0774835548069347,2.93247737144397,1.19068037917324,2264.43,2253.251,2219.276,2254.363,357.282531738281,44.9632873535156,0.965942203998566,-0.112781167030334,-0.0443135686218739,0.149814948439598,-0.113619049702587,-0.0488871029382406,0.0694081044730023,4
0.459999084472656,-0.0804262086749077,2.93404412269592,1.15323340892792,-0.0798502821969742,2.93145903476675,1.19212617600376,2214.557,2240.001,2249.719,2243.937,357.138092041016,44.9624671936035,0.998952746391296,-0.1221814006567,-0.0487893000245094,0.16028593480587,-0.123096124252221,-0.0529648233581361,0.075197501428542,4
0.479999542236328,-0.0830659791827202,2.93297362327576,1.15662896633148,-0.0824093896672336,2.93035792231548,1.19368949482325,2177.833,2225.49,2270.673,2235.352,357.009094238281,44.962574005127,1.03390634059906,-0.131988734006882,-0.0535276234149933,0.169780015945435,-0.13285477482153,-0.0571636980729742,0.0811589087805935,4
0.5,-0.0859093442559242,2.93180394172668,1.16019630432129,-0.085166398670376,2.92917165836334,1.195373708601,2167.891,2212.967,2266.427,2227.408,356.920959472656,44.9636497497559,1.06799256801605,-0.142168372869492,-0.0584833435714245,0.178368747234344,-0.142884000065179,-0.0614789935111996,0.0872856059789651,5
0.520000457763672,-0.0889616683125496,2.93053293228149,1.16391909122467,-0.0881266117110474,2.92789796139072,1.19718205655433,2182.755,2204.349,2237.619,2219.449,356.876220703125,44.9653778076172,1.09927701950073,-0.152616113424301,-0.0635557025671005,0.186141029000282,-0.153172907027918,-0.0659060227384819,0.0935709386872751,5
0.539997100830078,-0.0922260582447052,2.92916011810303,1.16778314113617,-0.0912944900108037,2.92653491185861,1.19911726397389,2207.761,2199.391,2198.792,2211.691,356.855590820313,44.9672431945801,1.12741661071777,-0.163219034671783,-0.0686440393328667,0.193205058574677,-0.163708678212627,-0.0704392707438901,0.100007076896547,5
0.55999755859375,-0.0957043170928955,2.92768621444702,1.17177653312683,-0.094676112580471,2.92507989413848,1.20118304443252,2224.566,2196.409,2169.218,2204.594,356.8310546875,44.968864440918,1.15334796905518,-0.173913031816483,-0.0736982300877571,0.199667990207672,-0.17448465888317,-0.0750758741803766,0.106589955332319,5
0.579998016357422,-0.0993984341621399,2.92611145973206,1.17588889598846,-0.0982755538235842,2.92353115512831,1.20338188691976,2222.778,2193.952,2160.363,2198.247,356.782135009766,44.9700317382813,1.17851901054382,-0.1847063601017,-0.0787358805537224,0.205615967512131,-0.185488294752812,-0.0798104312890852,0.113311904776732,5
0.599998474121094,-0.10331167280674,2.92443513870239,1.18011164665222,-0.102097262171133,2.92188678079254,1.2057165089127,2202.39,2190.38,2172.965,2193.283,356.705749511719,44.970874786377,1.20399367809296,-0.195662066340446,-0.0838220119476318,0.211137071251869,-0.196709126405959,-0.0846384416756885,0.120166535736014,5
0.619998931884766,-0.10744871199131,2.92265462875366,1.18443751335144,-0.106145477944935,2.92014494663912,1.20818950075775,2174.981,2185.885,2195.223,2189.409,356.616394042969,44.9717063903809,1.22988510131836,-0.206851869821548,-0.0890256091952324,0.216290637850761,-0.208136802817102,-0.0895554515830839,0.127147524930208,5
0.639999389648438,-0.111814945936203,2.92076706886292,1.18886017799377,-0.110424235525481,2.91830391678686,1.21080332699501,2154.625,2181.443,2212.16,2186.333,356.535949707031,44.972827911377,1.25556969642639,-0.218311369419098,-0.0943789035081863,0.221131458878517,-0.219761081350814,-0.0945570538913933,0.134248615293163,5
0.659999847412109,-0.116415344178677,2.91876983642578,1.19337451457977,-0.114937365519793,2.91636204303257,1.21356032768253,2150.417,2178.055,2213.579,2183.958,356.480834960938,44.9743804931641,1.28015470504761,-0.230020508170128,-0.0998612940311432,0.225718051195145,-0.231571827761751,-0.0996388881179631,0.141463615972542,5
0.680000305175781,-0.121253669261932,2.91666150093079,1.19797658920288,-0.119688496929273,2.91431776391831,1.21646271972064,2161.849,2176.372,2199.342,2182.073,356.453521728516,44.9762763977051,1.30300319194794,-0.241916298866272,-0.105413839221001,0.230105638504028,-0.243559016194652,-0.104796640417365,0.148786402329814,5
0.699996948242188,-0.126332238316536,2.91444206237793,1.20266354084015,-0.124680083855354,2.91217002351282,1.2195120022816,2180.181,2176.261,2178.191,2180.623,356.442718505859,44.9782638549805,1.32402992248535,-0.253928303718567,-0.110973097383976,0.234348982572556,-0.255710395848158,-0.11002503961202,0.1562094905416,5
0.719997406005859,-0.131652519106865,2.91211199760437,1.20743358135223,-0.129917262555645,2.90991661182791,1.22271131302505,2193.875,2176.828,2162.241,2179.708,356.431030273438,44.9800605773926,1.34359645843506,-0.266013950109482,-0.116504080593586,0.238499864935875,-0.26802079535749,-0.115321860608138,0.163729721501856,5
0.739997863769531,-0.137215986847878,2.90967178344727,1.21228528022766,-0.135402141159277,2.90755662179454,1.22606193977416,2196.577,2177.832,2158.401,2178.843,356.405426025391,44.981502532959,1.36232399940491,-0.278173506259918,-0.122013442218304,0.242587924003601,-0.280478211503383,-0.120681938755799,0.171339762631236,5
0.759998321533203,-0.143024832010269,2.90712094306946,1.21721851825714,-0.141137563960274,2.90508882959244,1.22956562006379,2187.188,2178.024,2168.232,2178.671,356.363037109375,44.9826354980469,1.38071298599243,-0.290442377328873,-0.127539172768593,0.246661782264709,-0.293073051970232,-0.126101146749576,0.179033754133825,5
0.779998779296875,-0.149082079529762,2.90445852279663,1.22223341464996,-0.147126184485884,2.90251209348295,1.2332239748923,2172.733,2177.725,2184.517,2178.811,356.312286376953,44.983642578125,1.39877378940582,-0.302862673997879,-0.133124321699142,0.250742495059967,-0.305795832832518,-0.131575403921268,0.186805902427515,5
0.799999237060547,-0.155391216278076,2.90168261528015,1.22733056545258,-0.153370467664426,2.8998253528763,1.23703851004595,2162.034,2177.342,2197.823,2179.337,356.266723632813,44.984748840332,1.41614043712616,-0.315456122159958,-0.13879132270813,0.254857629537582,-0.318637178554805,-0.1371006762399,0.194650480144012,5
0.819999694824219,-0.161955386400223,2.89879202842712,1.23251116275787,-0.159872691993147,2.89702762739878,1.24101061742316,2160.934,2177.558,2201.628,2180.079,356.236907958984,44.9860801696777,1.43232333660126,-0.328209578990936,-0.144529566168785,0.25902909040451,-0.331587821991737,-0.142672976311719,0.202561826128828,5
0.840000152587891,-0.168777033686638,2.89578604698181,1.23777687549591,-0.166634951706069,2.89411801595997,1.2451415763588,2169.599,2178.633,2195.305,2181.11,356.225006103516,44.9875793457031,1.44697761535645,-0.341082751750946,-0.15030375123024,0.263283163309097,-0.344638604388044,-0.148288363380199,0.210534345441289,5
0.859996795654297,-0.175857603549957,2.89266467094421,1.24312961101532,-0.173657794122436,2.89109628306371,1.24943172120167,2182.801,2180.525,2184.115,2182.302,356.224426269531,44.9891128540039,1.46006309986115,-0.354028582572937,-0.156073659658432,0.267639130353928,-0.357777960707973,-0.153941861333544,0.218560973181522,5
0.879997253417969,-0.183197945356369,2.88942837715149,1.24857199192047,-0.180945630646592,2.88796053060595,1.25388374680983,2193.183,2182.622,2175.808,2183.737,356.224456787109,44.990478515625,1.47178781032562,-0.367016404867172,-0.161815658211708,0.272116512060165,-0.371001963495383,-0.159631780297098,0.226639310127856,5
0.899997711181641,-0.19079877436161,2.8860776424408,1.25410628318787,-0.188498701076517,2.88471065540831,1.25849779967213,2197.214,2185.077,2174.195,2184.897,356.216796875,44.9915428161621,1.48256099224091,-0.38004133105278,-0.167531743645668,0.276715457439423,-0.384299280991351,-0.165353244531568,0.234762433885595,5
0.919998168945313,-0.198661208152771,2.88261270523071,1.25973546504974,-0.196318384305134,2.8813460641717,1.26327472213274,2193.231,2186.717,2181.357,2186.473,356.199035644531,44.992359161377,1.49275410175323,-0.393121689558029,-0.173243924975395,0.281459867954254,-0.397661187980262,-0.171102499820431,0.242925014356675,5
0.939998626708984,-0.206786811351776,2.87903308868408,1.26546239852905,-0.204405885800988,2.87786623821667,1.26821525059358,2185.672,2187.836,2192.728,2188.122,356.176055908203,44.993049621582,1.50235545635223,-0.40628120303154,-0.178978890180588,0.28634786605835,-0.411079067636589,-0.176875838584386,0.251121787656841,5
0.959999084472656,-0.215177461504936,2.87533807754517,1.27129006385803,-0.212762239776093,2.87427073255068,1.27332001683864,2179.929,2188.795,2202.548,2189.79,356.156158447266,44.9937629699707,1.51112103462219,-0.419531673192978,-0.184751108288765,0.291381239891052,-0.424544411524882,-0.18266959988136,0.259347556115652,5
0.979999542236328,-0.223834723234177,2.87152695655823,1.27722132205963,-0.221388311353785,2.87055917493534,1.27858954935826,2179.894,2189.959,2206.464,2191.5,356.146209716797,44.9945907592773,1.51872277259827,-0.432863622903824,-0.190555229783058,0.296564191579819,-0.438048819599778,-0.188480169406503,0.267597188276474,5
1,-0.232759729027748,2.86759948730469,1.28325927257538,-0.230284798736574,2.86673126495361,1.28402427467346,2185.865,2191.619,2203.891,2193.173,356.147979736328,44.9955215454102,1.52494597434998,-0.446249514818192,-0.196369245648384,0.301898419857025,-0.451584000205995,-0.194303979492187,0.275865618896484,5
1.01999664306641,-0.241952866315842,2.8635561466217,1.2894070148468,-0.239450461003889,2.86278753653895,1.28962343472523,2194.813,2193.67,2197.849,2194.864,356.157684326172,44.9964370727539,1.52978324890137,-0.459656894207001,-0.202167615294456,0.30738765001297,-0.465139182559269,-0.200136395770846,0.284146268271649,5
1.03999710083008,-0.251414090394974,2.85939741134644,1.29566764831543,-0.248889165986195,2.85872632547195,1.29538939231083,2202.011,2195.631,2193.355,2196.673,356.168731689453,44.997241973877,1.53334558010101,-0.473062604665756,-0.207933947443962,0.313034176826477,-0.478711464817306,-0.205976169660809,0.292437363711796,5
1.05999755859375,-0.261143267154694,2.85512399673462,1.30204403400421,-0.258599401509697,2.85454828239877,1.3013212236669,2205.768,2198.001,2192.211,2197.977,356.175964355469,44.9978218078613,1.53592050075531,-0.486458867788315,-0.21366760134697,0.318820178508759,-0.492290296490434,-0.211818761581115,0.30073246008742,5
1.07999801635742,-0.271140366792679,2.85073637962341,1.30853927135468,-0.268581219802083,2.85025338484727,1.30741896069852,2204.066,2199.533,2196.824,2199.636,356.17724609375,44.9982261657715,1.5378098487854,-0.499853670597076,-0.219380900263786,0.324760228395462,-0.50586781946303,-0.217660790404144,0.309026756998312,5
1.09999847412109,-0.281405508518219,2.84623456001282,1.31515598297119,-0.278834517009062,2.84584167750307,1.31368253996271,2199.777,2200.633,2204.246,2201.182,356.175323486328,44.99853515625,1.53900063037872,-0.513259172439575,-0.225090146064758,0.330838114023209,-0.519436284009554,-0.223498921639497,0.317315520258069,5
1.11999893188477,-0.29193913936615,2.84161853790283,1.32189691066742,-0.289359035362208,2.84131327127672,1.32011180399278,2196.232,2201.535,2210.928,2202.61,356.175384521484,44.9988288879395,1.5393477678299,-0.526681065559387,-0.230804786086082,0.337045520544052,-0.532988048794549,-0.229329867434001,0.325594081894103,5
1.13999938964844,-0.302741378545761,2.83688807487488,1.32876443862915,-0.300154365346813,2.83666834237095,1.32670650262257,2196.039,2202.439,2213.963,2203.992,356.181915283203,44.9992027282715,1.5386403799057,-0.54011195898056,-0.236521810293198,0.343377441167831,-0.546515580872639,-0.235150386571708,0.333857840147634,5
1.15999984741211,-0.313812017440796,2.83204340934753,1.33576095104218,-0.311219947869739,2.83190713134792,1.33346629431082,2199.598,2203.591,2212.782,2205.22,356.196319580078,44.9996337890625,1.53674209117889,-0.553532421588898,-0.242227435112,0.349825292825699,-0.560011455688534,-0.240957284473894,0.34210225947369,6
1.18000030517578,-0.325150400400162,2.82708525657654,1.34288859367371,-0.322555076427271,2.82702994219644,1.34039074746542,2205.172,2204.922,2209.099,2206.375,356.216552734375,45.0000534057617,1.53365480899811,-0.566919207572937,-0.247904703021049,0.35638439655304,-0.573468357077025,-0.246747413199059,0.350322870541114,6
1.19999694824219,-0.336755514144897,2.82201433181763,1.35014951229095,-0.334156660511822,2.8220381046756,1.34747797414352,2210.074,2206.259,2205.753,2207.457,356.238494873047,45.0003814697266,1.52949059009552,-0.580254256725311,-0.253541886806488,0.363047540187836,-0.58687652428584,-0.252516572968185,0.358513710658656,6
1.21999740600586,-0.348626106977463,2.81683158874512,1.35754561424255,-0.346028131869748,2.8169301422008,1.35473007074542,2211.702,2207.18,2205.615,2208.572,356.258544921875,45.0005950927734,1.52434587478638,-0.593529939651489,-0.259136974811554,0.369808226823807,-0.600233974716476,-0.258263910724523,0.366673568687828,6
1.23999786376953,-0.360761016607285,2.81153774261475,1.36507844924927,-0.358166167196084,2.81170748469733,1.36214500711597,2211.429,2208.445,2207.205,2209.107,356.275939941406,45.0006713867188,1.51838743686676,-0.606746912002563,-0.264696568250656,0.376641839742661,-0.613531154887641,-0.263985315871967,0.374796608555988,6
1.2599983215332,-0.373159229755402,2.80613303184509,1.37274956703186,-0.370569492049568,2.80637068052165,1.3697220047189,2208.598,2208.919,2211.447,2209.964,356.291442871094,45.0006904602051,1.51178455352783,-0.619910597801208,-0.270229697227478,0.383558988571167,-0.626761182173783,-0.269677827009021,0.382878625774588,6
1.27999877929688,-0.385819673538208,2.80061817169189,1.38056039810181,-0.383236695417198,2.80092033679326,1.37746020158837,2205.922,2209.189,2215.457,2210.625,356.308227539063,45.0006980895996,1.50445318222046,-0.633022606372833,-0.275742143392563,0.390538901090622,-0.639917282339435,-0.275338529371412,0.39091548206889,6
1.29999923706055,-0.398741245269775,2.79499363899231,1.38851189613342,-0.396166231882091,2.79535711846185,1.38535865365334,2205.124,2209.352,2217.327,2211.226,356.329193115234,45.0007438659668,1.49624907970428,-0.646077394485474,-0.281232386827469,0.397574067115784,-0.652992789539212,-0.280964554832093,0.398903105377968,6
1.31999969482422,-0.411922454833984,2.7892599105835,1.39660501480103,-0.409356423791328,2.7896817473746,1.39341633606181,2206.633,2209.595,2216.524,2211.677,356.355529785156,45.0008354187012,1.48704946041107,-0.659061431884766,-0.286691725254059,0.404653489589691,-0.665981146317813,-0.286553081901244,0.406837489854705,6
1.34000015258789,-0.425361573696136,2.78341770172119,1.40484035015106,-0.422805463423808,2.78389500134342,1.40163214450516,2209.531,2209.976,2213.937,2211.958,356.38623046875,45.0009269714355,1.47683966159821,-0.671958088874817,-0.292108803987503,0.411767959594727,-0.678875903610019,-0.292101335726266,0.414714695865794,6
1.3599967956543,-0.439056694507599,2.77746820449829,1.41321849822998,-0.436508776648329,2.77799884848916,1.41000328471804,2212.171,2210.361,2211.293,2212.137,356.418884277344,45.0009765625,1.46571040153503,-0.68475341796875,-0.297475129365921,0.418910354375839,-0.691668290305691,-0.297605542343502,0.422529365276922,6
1.37999725341797,-0.453005462884903,2.77141237258911,1.42174005508423,-0.450469530727146,2.77199192602736,1.41853169153152,2212.671,2210.294,2210.666,2212.443,356.451141357422,45.0009613037109,1.45369482040405,-0.697439849376678,-0.30278804898262,0.426076859235764,-0.704356955827446,-0.303065120637236,0.430280673041441,6
1.39999771118164,-0.467205762863159,2.76525139808655,1.43040478229523,-0.464682951063699,2.76587628833354,1.42721444821907,2212.552,2210.795,2210.402,2212.031,356.482513427734,45.0008506774902,1.44094455242157,-0.710014343261719,-0.308049887418747,0.433237642049789,-0.716933326165324,-0.308476381450513,0.437963381430462,6
1.41999816894531,-0.481655299663544,2.75898599624634,1.43921303749084,-0.47914673136562,2.75965292774086,1.43605014590267,2210.326,2210.473,2212.263,2212.098,356.512939453125,45.0007019042969,1.42763960361481,-0.722478270530701,-0.313265144824982,0.440410614013672,-0.729391385793766,-0.313836736470737,0.445573815653291,6
1.43999862670898,-0.496351897716522,2.75261735916138,1.44816446304321,-0.4938584461112,2.75332288788357,1.44503730286896,2207.96,2210.021,2214.187,2211.92,356.544219970703,45.0005531311035,1.41371726989746,-0.734831273555756,-0.318437069654465,0.447571575641632,-0.741725227577294,-0.31914364402254,0.453108367133042,6
1.45999908447266,-0.511293292045593,2.74614596366882,1.45725882053375,-0.508815552717244,2.74688726276417,1.45417436589355,2206.529,2209.418,2214.989,2211.713,356.578247070313,45.0004463195801,1.39907026290894,-0.747069180011749,-0.323565006256104,0.454715222120285,-0.753929052770513,-0.324394609067776,0.460563493506643,6
1.47999954223633,-0.526476919651031,2.73957300186157,1.46649539470673,-0.524015393706918,2.74034719582071,1.4634597115653,2206.452,2208.92,2214.187,2211.276,356.615966796875,45.000358581543,1.38362777233124,-0.759182691574097,-0.328643441200256,0.461828947067261,-0.76599717101811,-0.329587183205524,0.467935718624829,6
1.5,-0.541900098323822,2.73289966583252,1.47587358951569,-0.539455198877605,2.73370387899399,1.47289164761066,2207.418,2208.428,2212.03,2210.807,356.657135009766,45.0002899169922,1.3673791885376,-0.771160185337067,-0.333665043115616,0.468909561634064,-0.777924000354858,-0.334718964672088,0.475221632552146,6
1.51999664306641,-0.557559907436371,2.72612714767456,1.48539257049561,-0.555129074991064,2.72695984797977,1.48246657394236,2208.453,2207.94,2209.569,2210.222,356.700317382813,45.0001945495605,1.35036659240723,-0.782990694046021,-0.338623017072678,0.475948005914688,-0.789701834723693,-0.339786637766398,0.482416527778586,6
1.53999710083008,-0.57345324754715,2.71925687789917,1.49505138397217,-0.571040013494911,2.72011381564173,1.49218631798906,2208.03,2207.076,2208.466,2209.75,356.743988037109,45.0000801086426,1.33258259296417,-0.79466700553894,-0.343514204025269,0.482941895723343,-0.801329803423436,-0.344789827850059,0.489519872406387,6
1.55999755859375,-0.58957701921463,2.71229004859924,1.50484871864319,-0.587181951496087,2.71316839067337,1.50204717602401,2207.856,2206.864,2206.838,2208.598,356.787872314453,44.9998970031738,1.31415224075317,-0.806184530258179,-0.348338723182678,0.489864706993103,-0.812800388649436,-0.349725300221754,0.496527073925997,6
1.57999801635742,-0.605927884578705,2.70522809028625,1.51478338241577,-0.603551689586986,2.70612494969039,1.51204719357901,2205.815,2205.939,2207.094,2207.91,356.831298828125,44.9997024536133,1.29527616500854,-0.817542374134064,-0.353098124265671,0.496735602617264,-0.824108441976122,-0.354590839657789,0.503434987244577,6
1.59999847412109,-0.622502684593201,2.6980721950531,1.52485406398773,-0.620145926473056,2.69898491314762,1.52218435394475,2203.495,2204.861,2207.569,2207.089,356.875274658203,44.9995079040527,1.2759085893631,-0.828739523887634,-0.357794344425201,0.503535389900208,-0.835248923368005,-0.359384277571697,0.510240533483095,5
1.61999893188477,-0.639298141002655,2.69082355499268,1.53505921363831,-0.636961261140657,2.69174974440622,1.53245657949507,2201.524,2203.705,2207.595,2206.167,356.921051025391,44.999340057373,1.25598180294037,-0.839773178100586,-0.362426996231079,0.510256826877594,-0.846216901179681,-0.364103492014234,0.516940699976329,5
1.63999938964844,-0.656310856342316,2.68348360061646,1.54539704322815,-0.653994195024907,2.68442094880091,1.54286173301126,2200.406,2202.555,2206.597,2205.15,356.969482421875,44.9991874694824,1.2354371547699,-0.850637137889862,-0.366992920637131,0.516893863677979,-0.857007552155828,-0.368746407673381,0.523532540272869,5
1.65999984741211,-0.673537254333496,2.67605376243591,1.55586588382721,-0.671241134177535,2.67700007270724,1.55339761900642,2200.084,2201.438,2204.603,2204.053,357.020660400391,44.9990501403809,1.21425211429596,-0.861323058605194,-0.371486961841583,0.523441314697266,-0.867616161431205,-0.373310995874343,0.530013174135115,5
1.67999649047852,-0.690973699092865,2.6685357093811,1.56646370887756,-0.688695041988866,2.66949014378176,1.56405993892551,2200.01,2200.341,2202.189,2202.872,357.073822021484,44.998908996582,1.19245541095734,-0.871822416782379,-0.375903755426407,0.529893696308136,-0.878036152828799,-0.377794427071868,0.536378584279145,5
1.69999694824219,-0.708616316318512,2.6609308719635,1.57718873023987,-0.706358800111611,2.66188992212981,1.57485045312518,2198.919,2198.858,2200.719,2201.888,357.127960205078,44.9987754821777,1.169997215271,-0.882128953933716,-0.380240112543106,0.536252319812775,-0.888267004546665,-0.382196476749158,0.542628451944297,5
1.71999740600586,-0.726460993289948,2.65324091911316,1.58803844451904,-0.724225231782013,2.65420249571236,1.58576477743246,2198.628,2198.178,2198.218,2200.125,357.182891845703,44.9985885620117,1.14700055122375,-0.892237365245819,-0.384494602680206,0.542488694190979,-0.898302321135456,-0.386514393123025,0.548758870250362,5
1.73999786376953,-0.744503915309906,2.64546751976013,1.59901106357574,-0.742290383213093,2.64642956573347,1.59680049654058,2196.697,2196.801,2197.36,2198.942,357.237609863281,44.9983978271484,1.12367856502533,-0.902145802974701,-0.388667285442352,0.548629224300385,-0.908137821269591,-0.39074633405868,0.554767223802352,5
1.7599983215332,-0.762741029262543,2.63761234283447,1.61010420322418,-0.760550216073323,2.63857286977439,1.60795514349582,2194.329,2195.273,2196.93,2197.657,357.292633056641,44.9982147216797,1.09999012947083,-0.9118532538414,-0.392759084701538,0.554655373096466,-0.917769332013572,-0.394890504058555,0.560650963419089,4
1.77999877929688,-0.781168162822723,2.62967705726624,1.62131547927856,-0.779000609654483,2.63063418086074,1.61922620102184,2192.015,2193.678,2196.401,2196.304,357.348815917969,44.9980430603027,1.0758615732193,-0.921358048915863,-0.39677020907402,0.560561716556549,-0.927192788821983,-0.398945154262308,0.566407606133204,4
1.79999923706055,-0.799781262874603,2.62166309356689,1.63264238834381,-0.79763736303951,2.62261530652977,1.63061110284395,2190.247,2192.122,2195.225,2194.846,357.406921386719,44.9979019165039,1.0512330532074,-0.930656313896179,-0.400698959827423,0.566343307495117,-0.936404235539493,-0.402908582446823,0.572034735191139,4
1.81999969482422,-0.818576097488403,2.61357235908508,1.64408230781555,-0.816456197270346,2.61451808789761,1.64210723501345,2189.062,2190.626,2193.341,2193.302,357.467224121094,44.9977684020996,1.02610075473785,-0.939742088317871,-0.404541701078415,0.571996748447418,-0.945399824400851,-0.406779133026206,0.577530000053147,3
1.83999633789063,-0.83754825592041,2.60540652275085,1.65563273429871,-0.835449117627072,2.60634596486888,1.6537097136807,2188.274,2189.114,2190.933,2191.76,357.529388427734,44.9976463317871,1.00048446655273,-0.948608875274658,-0.408294320106506,0.577520787715912,-0.954174163352093,-0.410554485950274,0.582890106797601,3
1.8599967956543,-0.856693208217621,2.59716749191284,1.6672910451889,-0.854618942724365,2.59809772467243,1.66542026069341,2186.72,2187.291,2189.26,2190.377,357.592742919922,44.9975242614746,0.974327862262726,-0.957251012325287,-0.411953538656235,0.582915782928467,-0.962726969681477,-0.41423451957606,0.588114882720311,0
1.87999725341797,-0.876006543636322,2.58885717391968,1.67905414104462,-0.873957566090845,2.58977685529642,1.67723392393473,2186.416,2186.282,2186.144,2188.258,357.6572265625,44.9973602294922,0.947760701179504,-0.965663552284241,-0.415517419576645,0.588156878948212,-0.971053025860989,-0.417816988947023,0.593201140514831,0
1.89999771118164,-0.895483434200287,2.58047747612,1.69091963768005,-0.893460418296025,2.58138532283915,1.68914791201086,2184.511,2184.551,2184.644,2186.811,357.721557617188,44.9972152709961,0.920967221260071,-0.973844230175018,-0.418984860181808,0.5932736992836,-0.979148917665041,-0.421300425017273,0.598146794484026,0
1.91999816894531,-0.915119290351868,2.57203030586243,1.70288455486298,-0.913122862707269,2.57292512231409,1.7011593924753,2182.167,2182.781,2183.61,2185.186,357.785980224609,44.9970664978027,0.893903076648712,-0.981792330741882,-0.422356486320496,0.59824550151825,-0.987011339258123,-0.424683405378145,0.60294982514457,0
1.93999862670898,-0.934909403324127,2.56351757049561,1.71494603157043,-0.932940197657643,2.56439827671719,1.71326549315307,2179.634,2180.945,2182.752,2183.546,357.851013183594,44.9969367980957,0.866512477397919,-0.989507257938385,-0.425632923841476,0.603071451187134,-0.99463709319481,-0.4279645542582,0.607608279226948,0
1.95999908447266,-0.954849064350128,2.55494141578674,1.7271009683609,-0.952907658613767,2.55580683609405,1.72546330346508,2177.429,2179.147,2181.509,2181.827,357.917449951172,44.9968147277832,0.838744819164276,-0.996986865997314,-0.428813457489014,0.607747495174408,-1.00202309041976,-0.431142542523221,0.612120269675456,0
1.97999954223633,-0.974933743476868,2.54630351066589,1.73934638500214,-0.973020420343666,2.54715287660719,1.73774987575242,2175.793,2177.363,2179.619,2180.092,357.985656738281,44.9967155456543,0.810573279857635,-1.00422716140747,-0.431895792484283,0.612272977828979,-1.00916635026771,-0.434216087676217,0.616483975648197,0
2,-0.995158195495605,2.53760600090027,1.7516793012619,-0.993273599084619,2.53843849960327,1.75012222660065,2174.521,2175.635,2177.301,2178.282,358.055541992188,44.9966163635254,0.782009065151215,-1.01122295856476,-0.434876620769501,0.616644442081451,-1.01606400046349,-0.437183953857422,0.620697642517089,0
2.01999664306641,-1.01551735401154,2.52885103225708,1.76409649848938,-1.01365835337184,2.52966750931758,1.76257495489689,2173.416,2173.948,2174.749,2176.429,358.126678466797,44.9965171813965,0.753106534481049,-1.0179694890976,-0.437752902507782,0.620860695838928,-1.02271203275434,-0.440044416427654,0.624758821703072,0
2.03999710083008,-1.03600680828094,2.52004051208496,1.77659499645233,-1.03417746715556,2.52083870789413,1.77510976131291,2171.345,2171.884,2173.156,2174.856,358.198364257813,44.9964218139648,0.723816573619843,-1.02446353435516,-0.440522611141205,0.624927341938019,-1.02911032850577,-0.442797424341804,0.628667440734183,0
2.05999755859375,-1.05662059783936,2.5111768245697,1.78917133808136,-1.05482201812353,2.5119559343546,1.78772119534738,2170.5,2170.571,2170.246,2172.565,358.270874023438,44.9963035583496,0.694236874580383,-1.03070211410522,-0.443185061216354,0.62881863117218,-1.03525504859546,-0.445441325732794,0.632421154350513,0
2.07999801635742,-1.07735443115234,2.50226211547852,1.80182254314423,-1.07558691007788,2.50302138145056,1.80040614381254,2168.373,2168.711,2168.62,2170.847,358.343292236328,44.9961891174316,0.664539694786072,-1.03668391704559,-0.445739567279816,0.632562756538391,-1.04114375428791,-0.447975071280863,0.63601847276659,0
2.09999847412109,-1.0982027053833,2.49329829216003,1.8145455121994,-1.09646699912883,2.4940372624541,1.8131614643864,2165.874,2166.659,2167.413,2169.16,358.415771484375,44.9960975646973,0.634650945663452,-1.04240906238556,-0.448186725378036,0.636147499084473,-1.04677411523768,-0.450397658303471,0.63945797241075,0
2.11999893188477,-1.11916017532349,2.48428773880005,1.82733678817749,-1.11745709586255,2.485005810225,1.82598398693703,2163.417,2164.74,2166.177,2167.268,358.488952636719,44.9960250854492,0.60450142621994,-1.04787683486938,-0.450526773929596,0.639564335346222,-1.0521439094894,-0.452708130755304,0.642738295925142,0
2.13999938964844,-1.14022183418274,2.47523260116577,1.84019315242767,-1.138551967509,2.47592927627801,1.83887051484687,2161.349,2162.838,2164.498,2165.398,358.563354492188,44.9959526062012,0.574071824550629,-1.05308556556702,-0.45275890827179,0.642816841602325,-1.05725102347782,-0.454905579228273,0.645858152165725,0
2.15999984741211,-1.16138243675232,2.46613502502441,1.85311126708984,-1.15974634010981,2.46680992985011,1.85181782633704,2159.684,2160.953,2162.375,2163.512,358.639129638672,44.9958839416504,0.543354332447052,-1.05803191661835,-0.454880982637405,0.645903587341309,-1.06209345202774,-0.456989140951513,0.648816316202266,0
2.17999649047852,-1.18263649940491,2.45699715614319,1.8660876750946,-1.18103083166728,2.45765180775279,1.86482019009156,2158.299,2159.114,2159.941,2161.582,358.716094970703,44.9958114624023,0.512368440628052,-1.0627121925354,-0.456890493631363,0.648822665214539,-1.06666845113384,-0.45895763525619,0.65161111176473,0
2.19999694824219,-1.20397901535034,2.44782137870789,1.87911927700043,-1.20240821395574,2.44845371736898,1.8778792993441,2156.176,2156.985,2158.239,2159.89,358.793792724609,44.9957618713379,0.481050908565521,-1.06712341308594,-0.458785384893417,0.651579558849335,-1.07097597819164,-0.460811043810786,0.654242512826705,0
2.21999740600586,-1.22540426254272,2.4386100769043,1.89220225811005,-1.22386905090202,2.43921971877738,1.89098938974483,2155.6,2155.62,2154.938,2157.473,358.872406005859,44.995677947998,0.449525862932205,-1.07126307487488,-0.460564762353897,0.654150485992432,-1.07501345493598,-0.46254825725983,0.656708944366236,0
2.23999786376953,-1.24690699577332,2.42936563491821,1.90533363819122,-1.24540792547886,2.42995214277345,1.90414715211632,2153.608,2153.654,2153.038,2155.742,358.950714111328,44.99560546875,0.417949169874191,-1.07512938976288,-0.462227314710617,0.656567215919495,-1.07877930973132,-0.464168599372462,0.659009446295705,0
2.2599983215332,-1.26848149299622,2.42009019851685,1.91850984096527,-1.26701939030951,2.42065333321126,1.9173492587411,2151.254,2151.62,2151.568,2153.92,359.028778076172,44.9955406188965,0.386258631944656,-1.07872319221497,-0.463773876428604,0.658812999725342,-1.08227207933222,-0.465671440555045,0.661143124741302,0
2.27999877929688,-1.29012227058411,2.41078615188599,1.93172752857208,-1.28869796983554,2.41132564607061,1.93059236468599,2148.715,2149.654,2150.307,2152.001,359.106964111328,44.9954986572266,0.354404836893082,-1.08204519748688,-0.465205609798431,0.660885095596313,-1.08549040888332,-0.467056197851165,0.663109152043028,0
2.29999923706055,-1.31182432174683,2.40145540237427,1.94498324394226,-1.31043816248474,2.40197144852433,1.94387310912637,2146.387,2147.717,2148.817,2150.075,359.185852050781,44.9954566955566,0.322370588779449,-1.08509516716003,-0.466522783041,0.662785112857819,-1.08843305191934,-0.468322334941636,0.664906766754694,0
2.31999969482422,-1.3335816860199,2.39210104942322,1.95827353000641,-1.33223444283894,2.39259311800549,1.9571881166705,2144.377,2145.81,2146.991,2148.139,359.265838623047,44.9954109191895,0.290155977010727,-1.08787143230438,-0.467724293470383,0.664512693881989,-1.09109887036509,-0.469469362144493,0.666535273643923,0
2.33999633789063,-1.35538911819458,2.38272500038147,1.97159492969513,-1.35407709248145,2.38319483607731,1.97053145048929,2142.969,2143.892,2144.543,2146.234,359.346954345703,44.9953765869141,0.257760584354401,-1.09037148952484,-0.468808174133301,0.666068375110626,-1.09348640563071,-0.470496651869278,0.667993781680938,0
2.3599967956543,-1.37724089622498,2.37332963943481,1.98494410514832,-1.37596887940059,2.37377541175173,1.98390480150359,2140.862,2141.708,2142.802,2144.548,359.428771972656,44.9953689575195,0.225084379315376,-1.09259259700775,-0.469772309064865,0.667456090450287,-1.09559564748259,-0.471404199712748,0.669282284614185,0
2.37999725341797,-1.39913165569305,2.36391735076904,1.99831712245941,-1.39790005743958,2.36433903852774,1.99730221593832,2140.506,2140.403,2139.311,2142.004,359.511413574219,44.9953079223633,0.192282155156136,-1.09453248977661,-0.470615774393082,0.668649733066559,-1.09742530100382,-0.472191448508328,0.67039999139912,0
2.39999771118164,-1.42105543613434,2.35449028015137,2.01171088218689,-1.41986502747765,2.35488812555058,2.01072027337798,2138.625,2138.428,2137.283,2140.306,359.593566894531,44.9952621459961,0.159521579742432,-1.09618985652924,-0.471337169408798,0.669688582420349,-1.09897466165884,-0.47285809511406,0.671346471645978,0
2.41999816894531,-1.44300675392151,2.34505176544189,2.02512192726135,-1.44185817738692,2.34542508756209,2.02415554546122,2136.33,2136.491,2135.767,2138.393,359.675109863281,44.9952278137207,0.126775309443474,-1.09756624698639,-0.471937775611877,0.670550346374512,-1.10024313330221,-0.473403883025206,0.672121361178802,0
2.43999862670898,-1.46498000621796,2.33560347557068,2.0385468006134,-1.46387388420027,2.33595234396796,2.03760459720517,2133.845,2134.379,2134.464,2136.663,359.756408691406,44.9952125549316,0.0939548537135124,-1.09866368770599,-0.472419321537018,0.671241879463196,-1.10123022817855,-0.473828602374257,0.672724362035447,0
2.45999908447266,-1.48696959018707,2.32614779472351,2.05198192596436,-1.48590651627916,2.32647231790489,2.05106398832971,2131.376,2132.49,2133.177,2134.681,359.837982177734,44.9952011108398,0.0610052011907101,-1.09948313236237,-0.472782641649246,0.671753406524658,-1.10193556692257,-0.474132089930926,0.673155242467576,0
2.47999954223633,-1.50897014141083,2.31668734550476,2.06542372703552,-1.50795043548148,2.31698743530794,2.06453027458184,2129.336,2130.638,2131.427,2132.745,359.920379638672,44.9951858520508,0.0279464721679688,-1.10002398490906,-0.473027646541595,0.672091364860535,-1.10235887855907,-0.474314229102152,0.673413836940663,0
2.49999618530273,-1.53097581863403,2.30722427368164,2.0788688659668,-1.52999579362571,2.30750193357449,2.07799743986112,2127.78,2128.761,2129.193,2130.858,0.00365506974048913,44.995174407959,-0.00520649971440434,-1.10028469562531,-0.473152965307236,0.672256588935852,-1.10250000049778,-0.474374949929889,0.673500046130858,0
2.51999664306641,-1.55298089981079,2.29776120185852,2.09231400489807,-1.55204535801192,2.29801462201262,2.09146717466799,2125.75,2126.675,2127.435,2129.164,0.0875682607293129,44.995174407959,359.961456298828,-1.10026323795319,-0.473156750202179,0.672252357006073,-1.10235893238473,-0.47431425226183,0.67341386982192,0
2.53999710083008,-1.57498002052307,2.28830051422119,2.1057550907135,-1.57408927882895,2.2885297387209,2.10493346190651,2125.58,2125.359,2123.881,2126.679,0.172223791480064,44.9951438903809,359.928131103516,-1.09995818138123,-0.473038136959076,0.672055304050446,-1.10193567455836,-0.474132136243598,0.673155308220598,0
2.55999755859375,-1.59696745872498,2.27884459495544,2.11918926239014,-1.59612191359838,2.27904971150017,2.11839285467467,2123.884,2123.397,2121.774,2125.048,0.256131768226624,44.9951171875,359.894927978516,-1.09936821460724,-0.472795516252518,0.67170375585556,-1.10123038958312,-0.473828671822132,0.672724460634977,0
2.57999801635742,-1.61893737316132,2.26939582824707,2.13261270523071,-1.6181376241771,2.2695769662859,2.13184190871882,2121.714,2121.442,2120.252,2123.241,0.339111298322678,44.9951133728027,359.86181640625,-1.09849607944489,-0.472430676221848,0.671176493167877,-1.10024334841354,-0.473403975581601,0.672121492586955,0
2.59999847412109,-1.64088428020477,2.25995707511902,2.14602208137512,-1.64013077892511,2.26011392621545,2.14527718375796,2119.174,2119.545,2119.131,2121.395,0.421447843313217,44.9951248168945,359.828704833984,-1.09734451770782,-0.471945822238922,0.670474886894226,-1.09897493039424,-0.472858210743393,0.671346635812239,0
2.61999893188477,-1.66280245780945,2.25053024291992,2.15941405296326,-1.66209575487342,2.25066301069528,2.1586952448081,2116.772,2117.625,2117.88,2119.615,0.503767430782318,44.9951362609863,359.795562744141,-1.09591567516327,-0.471342712640762,0.66960209608078,-1.09742562325992,-0.472191587166126,0.670400188260345,0
2.63999938964844,-1.68468677997589,2.24111771583557,2.17278504371643,-1.68402693989188,2.24122663446822,2.17209266350648,2114.739,2115.89,2116.271,2117.675,0.586575984954834,44.9951438903809,359.762390136719,-1.09421002864838,-0.470621675252914,0.668553471565247,-1.09559602313537,-0.471404361345641,0.669282514094601,0
2.65999603271484,-1.70653128623962,2.23172187805176,2.18613171577454,-1.70591456353497,2.23180900148401,2.18546347124042,2113.161,2114.101,2114.205,2115.853,0.670059204101563,44.9951400756836,359.729248046875,-1.09222674369812,-0.469781786203384,0.667335867881775,-1.09348726343002,-0.470497020956359,0.667994305697154,0
2.67999649047852,-1.72833061218262,2.22234559059143,2.19945073127747,-1.72776139360717,2.22240892083372,2.19880935881846,2111.268,2112.105,2112.458,2114.238,0.754003345966339,44.9951629638672,359.696044921875,-1.08996474742889,-0.46882152557373,0.665952265262604,-1.09109935234628,-0.469469569527535,0.666535568078712,0
2.69999694824219,-1.75007891654968,2.21299076080322,2.21273827552795,-1.74955768413056,2.21303058593937,2.21212437257479,2111.237,2110.75,2108.982,2111.908,0.838472783565521,44.9951438903809,359.662933349609,-1.08742344379425,-0.467740267515182,0.66438102722168,-1.08843358680109,-0.468322565086308,0.664907093505606,0
2.71999740600586,-1.77177095413208,2.2036600112915,2.22599124908447,-1.77129788800495,2.2036763835632,2.22540512387247,2109.724,2108.981,2106.886,2110.233,0.921950995922089,44.9951400756836,359.630004882813,-1.08460187911987,-0.466536581516266,0.662654519081116,-1.08549099645889,-0.467056450668518,0.663109510983775,0
2.73999786376953,-1.79340100288391,2.19435572624207,2.23920655250549,-1.79297647980783,2.19434869114016,2.23864823731709,2107.675,2107.085,2105.423,2108.573,1.00418138504028,44.9951477050781,359.597290039063,-1.08150362968445,-0.465212672948837,0.660760879516602,-1.08227271937422,-0.465671715947234,0.661143515732969,0
2.7599983215332,-1.81496381759644,2.1850802898407,2.25238037109375,-1.81458795796224,2.18504987584512,2.25185035208115,2105.222,2105.27,2104.411,2106.831,1.08542132377625,44.995174407959,359.564666748047,-1.07813262939453,-0.463771224021912,0.658697068691254,-1.07878000199166,-0.464168897232749,0.659009869186748,0
2.77999877929688,-1.83645367622375,2.17583608627319,2.26550960540771,-1.83612684690458,2.17578229366013,2.2650081232283,2102.8,2103.486,2103.38,2105.118,1.16630470752716,44.9952163696289,359.532104492188,-1.07449185848236,-0.462214678525925,0.656466364860535,-1.07501419914593,-0.462548577472581,0.656709398992482,0
2.79999923706055,-1.85786521434784,2.16662502288818,2.27859091758728,-1.85758769925251,2.16654828844162,2.27811822303765,2100.875,2101.836,2101.875,2103.308,1.24744427204132,44.9952430725098,359.499633789063,-1.07058274745941,-0.460543811321259,0.654067039489746,-1.07097677406178,-0.460811386251471,0.65424299901135,0
2.81999969482422,-1.87919330596924,2.1574501991272,2.29162096977234,-1.87896509797278,2.15735019098767,2.29117734232814,2099.444,2100.252,2099.893,2101.49,1.32902646064758,44.9952507019043,359.46728515625,-1.06640529632568,-0.45875808596611,0.651502132415771,-1.06666929835407,-0.458957999791384,0.651611629318345,0
2.83999633789063,-1.90043258666992,2.14831280708313,2.30459642410278,-1.90024960698239,2.14819206138118,2.30417971674389,2098.443,2098.488,2097.521,2099.879,1.41080725193024,44.9952735900879,359.435089111328,-1.06195914745331,-0.45685613155365,0.648777782917023,-1.06209435025759,-0.456989527434725,0.648816864916866,0
2.8599967956543,-1.92157745361328,2.13921594619751,2.31751418113708,-1.9214439980555,2.13907270700516,2.31712703951851,2096.595,2096.67,2096.012,2098.325,1.49218380451202,44.9953079223633,359.402984619141,-1.05724465847015,-0.454837381839752,0.645891726016998,-1.05725197237562,-0.454905987512489,0.645858731832587,0
2.87999725341797,-1.94262290000916,2.13016223907471,2.33037066459656,-1.94253888918396,2.12999616467562,2.3300135793296,2096.371,2095.438,2093.047,2096.109,1.57330369949341,44.9953079223633,359.371124267578,-1.05226385593414,-0.452703028917313,0.642827391624451,-1.05214490868305,-0.452708560680416,0.642738906316949,0
2.89999771118164,-1.96356308460236,2.1211531162262,2.34316301345825,-1.96352900640172,2.1209647036328,2.34283611439361,2094.64,2093.633,2091.449,2094.759,1.65296113491058,44.9953308105469,359.339538574219,-1.04701733589172,-0.450452864170074,0.639621615409851,-1.04677516433438,-0.450398109700476,0.639458613287558,0
2.91999816894531,-1.9843932390213,2.11219120025635,2.35588788986206,-1.98440911693069,2.11198057539494,2.35559144808806,2092.514,2092.093,2090.376,2092.995,1.73121559619904,44.9953575134277,359.308227539063,-1.04151034355164,-0.448090195655823,0.636248290538788,-1.04114485287423,-0.447975543971863,0.636019143875825,0
2.93999862670898,-2.00510811805725,2.10327887535095,2.36854243278503,-2.00517403134858,2.10304601282548,2.36827641027585,2090.203,2090.408,2089.491,2091.49,1.80853056907654,44.9954032897949,359.277160644531,-1.03574693202972,-0.445617705583572,0.632722079753876,-1.03525619623725,-0.445441819530995,0.632421855426973,0
2.95999908447266,-2.02570295333862,2.09441804885864,2.38112330436707,-2.02581860575671,2.0941632292003,2.38088785862954,2088.223,2088.786,2088.332,2089.914,1.88553333282471,44.9954490661621,359.246307373047,-1.0297304391861,-0.443037301301956,0.629037976264954,-1.02911152474823,-0.442797939051516,0.628668171500036,0
2.97999954223633,-2.04617214202881,2.08561110496521,2.39362716674805,-2.04633774394789,2.08533441727499,2.3934226799557,2086.675,2087.243,2086.776,2088.313,1.96258568763733,44.9954872131348,359.215667724609,-1.02346253395081,-0.44034931063652,0.625197649002075,-1.022713277122,-0.440044951844293,0.624759581867857,0
2.99999618530273,-2.06651067733765,2.07685995101929,2.40605115890503,-2.06672252359526,2.07656341607755,2.40587542374406,2085.714,2085.785,2084.69,2086.662,2.03968214988708,44.9955177307129,359.185272216797,-1.0169438123703,-0.437553316354752,0.621202230453491,-1.01606529245116,-0.437184509763622,0.620698431772196,0
3.01999664306641,-2.08671426773071,2.06816697120667,2.41839241981506,-2.08697572864857,2.06784902775215,2.41824779066609,2084.207,2084.128,2083.125,2085.301,2.11632990837097,44.9955596923828,359.155059814453,-1.01017487049103,-0.43464869260788,0.617061257362366,-1.00916768936771,-0.434216663853534,0.616484793683489,0
3.03999710083008,-2.10677766799927,2.05953407287598,2.43064761161804,-2.10708851762775,2.05919505654068,2.43053437959959,2084.1,2082.941,2080.378,2083.33,2.19250082969666,44.9955673217773,359.125213623047,-1.00315833091736,-0.431636452674866,0.612755298614502,-1.00202447609459,-0.431143138740389,0.612121116162586,0
3.05999755859375,-2.12669539451599,2.05096387863159,2.44281387329102,-2.12705600675913,2.05060360379452,2.44273220712343,2082.635,2081.427,2078.859,2081.982,2.26703524589539,44.9955902099609,359.095764160156,-0.995895445346832,-0.428516566753387,0.608314096927643,-0.994638524886308,-0.427965170275055,0.607609153824944,0
3.07999801635742,-2.14646339416504,2.04245805740356,2.45488834381104,-2.14687337079936,2.04207674568107,2.45483832557174,2080.932,2079.92,2077.698,2080.531,2.33990812301636,44.9956474304199,359.066711425781,-0.988391816616058,-0.425292402505875,0.603724718093872,-0.987012816387451,-0.424684040945629,0.602950727499826,0
3.09999847412109,-2.16607618331909,2.03401851654053,2.46686816215515,-2.16653584520328,2.033616532251,2.46684982435823,2078.769,2078.424,2077.02,2079.146,2.41136169433594,44.9957122802734,359.037963867188,-0.980652511119843,-0.421966999769211,0.598991453647614,-0.979150439632689,-0.421301079877433,0.598147724230312,0
3.11999893188477,-2.1855297088623,2.02564787864685,2.47875046730042,-2.18603872829175,2.02522498650551,2.47876383130049,2076.9,2077.127,2076.101,2077.598,2.48204660415649,44.9957733154297,359.009582519531,-0.972682118415833,-0.41854327917099,0.594111323356628,-0.971054592046769,-0.41781766283301,0.593202097273285,0
3.13999938964844,-2.20481967926025,2.01734733581543,2.49053239822388,-2.20537738341953,2.01690410346351,2.49057751394429,2075.467,2075.663,2074.767,2076.311,2.5523796081543,44.9958229064941,358.981536865234,-0.964483082294464,-0.415022015571594,0.589095771312714,-0.962728579444533,-0.414235212212131,0.588115866099442,0
3.15999603271484,-2.2239408493042,2.00911927223206,2.50221109390259,-2.22454360124808,2.00865741537402,2.50228585733282,2074.389,2074.361,2073.16,2074.855,2.62240648269653,44.9958686828613,358.953857421875,-0.956057727336884,-0.41140353679657,0.583937406539917,-0.95417746870157,-0.410555908149813,0.582892125984019,0
3.17999649047852,-2.24288868904114,2.00096559524536,2.51378393173218,-2.2435401949712,2.00048371179835,2.51389058000227,2073.176,2072.901,2071.694,2073.648,2.69189429283142,44.9959259033203,358.926452636719,-0.947407424449921,-0.407687693834305,0.578647315502167,-0.9454015193052,-0.406779862296197,0.577531035443764,0
3.19999694824219,-2.26165962219238,1.9928879737854,2.5252480506897,-2.2623590635174,1.99238647840124,2.5253867331345,2073.378,2071.993,2069.05,2071.752,2.76072883605957,44.9959411621094,358.899566650391,-0.938535273075104,-0.403875559568405,0.573205888271332,-0.936405971974636,-0.402909329586355,0.572035795952272,0
3.21999740600586,-2.28024816513062,1.98488879203796,2.53660106658936,-2.28099585204123,1.98436758895103,2.53677165642235,2072.138,2070.586,2067.673,2070.718,2.82765936851501,44.995979309082,358.873199462891,-0.929442524909973,-0.399966835975647,0.5676509141922,-0.927194566064376,-0.398945918960059,0.566408691822848,0
3.23999786376953,-2.29865121841431,1.97696948051453,2.54784035682678,-2.29944628156995,1.97642888457015,2.54804273590817,2070.746,2069.294,2066.626,2069.403,2.89262676239014,44.9960479736328,358.847351074219,-0.920136332511902,-0.395965397357941,0.561960577964783,-0.917771149318993,-0.394891285994308,0.560652073582612,0
3.2599983215332,-2.31686353683472,1.96913170814514,2.55896329879761,-2.31770615117141,1.96857217280235,2.55919740530806,2068.747,2067.953,2066.178,2068.279,2.95578408241272,44.9961242675781,358.821929931641,-0.910622179508209,-0.391874551773071,0.556146025657654,-0.908139677873146,-0.390747132903322,0.554768357972493,0
3.27999877929688,-2.33488130569458,1.96137809753418,2.56996726989746,-2.33577134012187,1.96079922667992,2.57023314733618,2067.067,2066.9,2065.489,2066.88,3.01780986785889,44.9961929321289,358.796966552734,-0.900905966758728,-0.387697845697403,0.550199747085571,-0.898304216251578,-0.386515208538549,0.548760027947228,0
3.29999923706055,-2.35270118713379,1.95370936393738,2.58084988594055,-2.35363781007389,1.95311178379095,2.5811474950291,2065.878,2065.678,2064.332,2065.775,3.07914352416992,44.9962615966797,358.7724609375,-0.890990912914276,-0.383436560630798,0.544136822223663,-0.888268937369113,-0.38219730838866,0.542629632675369,0
3.31999588012695,-2.37031888961792,1.94612753391266,2.59160900115967,-2.37129825777079,1.94551298652277,2.59193598694128,2064.926,2064.584,2063.015,2064.551,3.13979649543762,44.9963188171387,358.748474121094,-0.880880355834961,-0.379091501235962,0.537951111793518,-0.878040092225563,-0.377796122084242,0.536380990795156,0
3.33999633789063,-2.38773059844971,1.93863415718079,2.60224199295044,-2.38875555478454,1.93800159931817,2.60260037727124,2063.878,2063.329,2061.815,2063.573,3.19961023330688,44.9963760375977,358.724884033203,-0.870576620101929,-0.37466299533844,0.531652927398682,-0.867618167158097,-0.373311858882592,0.530014399402376,0
3.3599967956543,-2.40493226051331,1.9312310218811,2.61274647712708,-2.40600253440574,1.930580705812,2.61313628798802,2064.148,2062.579,2059.556,2061.946,3.2585175037384,44.9964065551758,358.701904296875,-0.860083997249603,-0.370152533054352,0.525224089622498,-0.85700959304645,-0.368747285811601,0.523533787021104,0
3.37999725341797,-2.42192029953003,1.92391991615295,2.62312054634094,-2.42303550945299,1.9232518924954,2.62354146665005,2063.372,2061.483,2058.199,2061.005,3.31540513038635,44.9964485168457,358.679565429688,-0.849404335021973,-0.365560173988342,0.518697798252106,-0.846218976345105,-0.364104384899943,0.516941967662506,0
3.39999771118164,-2.43869090080261,1.91670215129852,2.63336181640625,-2.43985088596004,1.91601670575165,2.63381371775943,2062.186,2060.349,2057.376,2060.025,3.37001657485962,44.9965209960938,358.657897949219,-0.83854478597641,-0.360889375209808,0.512062251567841,-0.835251031898626,-0.359385184813519,0.51024182155155,0
3.41999816894531,-2.45524120330811,1.90957927703857,2.64346814155579,-2.45644516534361,1.90887665092339,2.64395090408624,2060.655,2059.357,2056.956,2058.969,3.42251348495483,44.9966011047363,358.636779785156,-0.827512383460999,-0.356144160032272,0.50531792640686,-0.824110582941664,-0.354591760855451,0.503436295127018,0
3.43999862670898,-2.47156763076782,1.90255260467529,2.65343761444092,-2.47281494657125,1.90183319137989,2.6539509479928,2059.064,2058.343,2056.612,2058.057,3.47338271141052,44.9966926574707,358.616241455078,-0.816313087940216,-0.351327955722809,0.498473048210144,-0.812802561098952,-0.34972623496609,0.496528401041508,0
3.45999908447266,-2.48766660690308,1.89562368392944,2.66326808929443,-2.48895692832918,1.89488774758421,2.66381183275806,2057.908,2057.486,2055.916,2057.019,3.52317118644714,44.996768951416,358.596252441406,-0.804952383041382,-0.346443444490433,0.49152472615242,-0.801332006385299,-0.344790775723006,0.489521218161412,0
3.47999572753906,-2.50353527069092,1.88879382610321,2.6729576587677,-2.50486489870395,1.88804299234919,2.67352976362102,2057.325,2056.673,2054.719,2056.007,3.57208466529846,44.996826171875,358.576873779297,-0.793433904647827,-0.341491669416428,0.484479188919067,-0.789706299681989,-0.339788558913217,0.482419255351936,0
3.49999618530273,-2.51917028427124,1.88206422328949,2.68250465393066,-2.52054183223243,1.88129764581471,2.68310655767985,2056.579,2055.668,2053.699,2055.292,3.6198525428772,44.9968910217285,358.55810546875,-0.781760692596436,-0.336473137140274,0.477346032857895,-0.777926261338517,-0.334719937510192,0.475223013751781,0
3.51999664306641,-2.53456926345825,1.87543666362762,2.69190669059753,-2.53598168290031,1.87465430941181,2.69253852151874,2057.027,2055.128,2051.769,2053.942,3.66635417938232,44.9969329833984,358.540069580078,-0.769938170909882,-0.331389605998993,0.470106661319733,-0.765999459475408,-0.329588167864767,0.467937116607681,0
3.53999710083008,-2.54972839355469,1.86891186237335,2.70116257667542,-2.55118156992615,1.86811422266028,2.70182389531326,2056.469,2054.128,2050.708,2053.402,3.71054649353027,44.9969902038574,358.522766113281,-0.757968842983246,-0.326241463422775,0.462797105312347,-0.753931367647136,-0.324395605094516,0.460564907628649,0
3.55999755859375,-2.56464576721191,1.86249113082886,2.71027040481567,-2.56613872308604,1.86167857751006,2.71096098677687,2055.581,2053.445,2050.133,2052.437,3.75220203399658,44.9970664978027,358.506195068359,-0.74586147069931,-0.32103306055069,0.455394297838211,-0.741727567798258,-0.319144650954242,0.45310979673751,0
3.57999801635742,-2.57931804656982,1.85617589950562,2.71922874450684,-2.58085048488145,1.85534851740854,2.71994817248517,2054.228,2052.631,2050.013,2051.796,3.79146242141724,44.9971542358398,358.490325927734,-0.733622550964355,-0.315768152475357,0.447917133569717,-0.72939375026341,-0.313837753835969,0.445575260070899,0
3.59999847412109,-2.59374356269836,1.84996676445007,2.72803592681885,-2.59531431270705,1.84912513636775,2.72878389920025,2053.115,2051.977,2049.754,2051.002,3.82886743545532,44.9972496032715,358.475158691406,-0.721259832382202,-0.310450941324234,0.44035929441452,-0.716935713767317,-0.308477408768949,0.437964839979262,0
3.61999893188477,-2.60791921615601,1.84386515617371,2.73669052124023,-2.6095277810186,1.84300947803163,2.73746668519498,2052.145,2051.336,2049.375,2050.33,3.86479592323303,44.9973258972168,358.460693359375,-0.708778738975525,-0.305083900690079,0.432729870080948,-0.704359365424783,-0.303066157419654,0.430282145026854,0
3.63999938964844,-2.62184286117554,1.83787178993225,2.74519109725952,-2.6234885835008,1.83700253474321,2.74599512157732,2051.863,2050.778,2048.441,2049.578,3.89950561523438,44.9974021911621,358.446960449219,-0.696184635162354,-0.299668878316879,0.42502823472023,-0.691670720740692,-0.297606588091786,0.422530849991739,0
3.65999603271484,-2.63551235198975,1.83198750019073,2.75353622436523,-2.63719194552437,1.83110636089208,2.75436629160077,2051.796,2050.231,2047.359,2048.903,3.93270945549011,44.9974594116211,358.434051513672,-0.683481633663177,-0.294206827878952,0.417261302471161,-0.678878353700696,-0.292102389931838,0.414716192587956,0
3.67999649047852,-2.64892578125,1.82621359825134,2.76172494888306,-2.65064103434641,1.825319593696,2.76258213009327,2051.39,2049.582,2046.654,2048.424,3.96396231651306,44.9975318908691,358.421875,-0.670674681663513,-0.288699269294739,0.4094358086586,-0.665983614869008,-0.28655414404986,0.40683899785411,0
3.69999694824219,-2.66208148002625,1.82055044174194,2.76975584030151,-2.66383127580226,1.81964420129024,2.77063984276899,2051.707,2049.168,2045.468,2047.608,3.99313139915466,44.9976043701172,358.410583496094,-0.657770931720734,-0.283149123191833,0.401542901992798,-0.65299527533123,-0.280965624398954,0.398904623909523,0
