t,x_s1,x_s2,x_s3,x_s_d1,x_s_d2,x_s_d3,propellers_rpms1,propellers_rpms2,propellers_rpms3,propellers_rpms4,rollRad,pitchRad,yawRad,v_s1,v_s2,v_s3,v_s_d1,v_s_d2,v_s_d3,insideCount
0,-0.0599999986588955,2.94000005722046,1.17999994754791,-0.0599999986588955,2.94000005722046,1.17999994754791,0,0,0,0,0,0,0,0,0,0,-1.06581410364015E-15,4.44089209850063E-16,4.44089209850063E-16,0
0.01995849609375,-0.0599999986588955,2.94000005722046,1.17811644077301,-0.0600018573908239,2.93999925746004,1.18000109819152,0,0,0,0,-0.01635288,0.0001297794,-0.01587137,-1.10653664009419E-09,-7.76775763711157E-08,-0.0941759571433067,-0.000278830395522589,-0.000119972929573008,0.00017260929736197,5
0.03997802734375,-0.0599999986588955,2.94000005722046,1.17242503166199,-0.060014847005691,2.93999366839165,1.1800091393819,0,0,0,0,-0.03270202,0.0005238493,-0.03175127,-1.08383135799528E-09,-7.60859677484405E-08,-0.284568399190903,-0.00110975851463131,-0.000477498085781228,0.000686993385685745,5
0.05999755859375,-0.0599058903753757,2.93990302085876,1.16596496105194,-0.0600498857373401,2.93997859220429,1.18003083002592,1868.972,3252.972,3183.281,1722.006,-0.04942614,0.0003307642,-0.01369717,0.00470537692308426,-0.00484890071675181,-0.323006272315979,-0.00247936261166862,-0.00106680046642749,0.00153484356504269,5
0.0799560546875,-0.0598203800618649,2.93960738182068,1.16000306606293,-0.0601173573716436,2.93994956104499,1.18007259818167,1925.496,2314.381,3252.301,2829.28,-0.07544629,-0.002135855,0.02094784,0.00427543744444847,-0.0147797763347626,-0.29809358716011,-0.00436776476082353,-0.00187932715536027,0.00270385445243887,5
0.0999755859375,-0.059937484562397,2.93904495239258,1.15498697757721,-0.0602280337026576,2.93990194011169,1.18014111210282,978.7621,1498.468,3916.333,3896.943,-0.1032097,-0.008066182,0.06331681,-0.00585525576025248,-0.0281223282217979,-0.250803500413895,-0.00677334142420609,-0.00291437958958193,0.00419302100058057,4
0.1199951171875,-0.0604638978838921,2.93818354606628,1.15081334114075,-0.0603918861403606,2.93983143898525,1.18024254456713,346.5809,980.6145,4172.097,4613.561,-0.1214417,-0.0154245,0.1040136,-0.0263205915689468,-0.0430742055177689,-0.20868407189846,-0.00967801353495435,-0.00416417885169243,0.00599115140585487,4
0.13995361328125,-0.0615637339651585,2.93704128265381,1.14728260040283,-0.0606179788203098,2.93973415762137,1.18038250670631,353.2765,747.0821,3974.769,4855.23,-0.1254104,-0.02116947,0.1351159,-0.0549918115139008,-0.057118833065033,-0.176538839936256,-0.0130577281675476,-0.00561837563980114,0.00808335576156468,4
0.15997314453125,-0.0633411929011345,2.93568086624146,1.14427483081818,-0.0609172730813211,2.93960537966217,1.18056778411123,820.0153,814.008,3464.346,4692.653,-0.1184569,-0.0235285,0.1522799,-0.088872879743576,-0.0680225193500519,-0.150386199355125,-0.0169203082141145,-0.00728033592584475,0.0104744768105937,3
0.17999267578125,-0.0658473670482635,2.9341721534729,1.14182472229004,-0.0612985250199726,2.93944133760391,1.18080379722281,1349.249,1084.048,3005.296,4255.334,-0.1079715,-0.02278121,0.1557817,-0.125308603048325,-0.0754353553056717,-0.122502714395523,-0.0212433804254414,-0.00914043312572283,0.0131506644458931,3
0.199951171875,-0.0690855756402016,2.93255376815796,1.14006054401398,-0.0617692392128399,2.93923880243696,1.18109519173142,1637.41,1381.853,2917.201,3666.056,-0.09982593,-0.02030021,0.1501492,-0.161910504102707,-0.0809160321950912,-0.0882102847099304,-0.025999068106575,-0.0111866726763816,0.0160946616653354,3
0.219970703125,-0.0730111747980118,2.93082594871521,1.13903522491455,-0.0623411120546116,2.93899274152942,1.18144920826256,1640.119,1579.713,3150.688,3112.927,-0.09583385,-0.01735582,0.142182,-0.196279838681221,-0.0863901674747467,-0.0512662306427956,-0.0312039351396938,-0.0134261815535814,0.0193167223010366,3
0.239990234375,-0.0775509923696518,2.92897343635559,1.13863253593445,-0.0630214373585105,2.93870001655724,1.18187036203406,1524.428,1624.892,3416.728,2777.326,-0.09474675,-0.01467721,0.1377259,-0.226990923285484,-0.0926283225417137,-0.0201358404010534,-0.0368316683029241,-0.015847637913056,0.022800557215184,3
0.25994873046875,-0.0826399028301239,2.92699217796326,1.13863444328308,-0.0638159410385597,2.93835816381958,1.18236219765947,1440.313,1501.57,3531.873,2743.597,-0.09438935,-0.01258557,0.139291,-0.25444570183754,-0.099058523774147,9.51290130615234E-05,-0.0428509094329972,-0.0184375492131967,0.0265267542109178,3
0.27996826171875,-0.0882459059357643,2.92490029335022,1.13885164260864,-0.064737558267485,2.93796161767298,1.18293272262689,1398.804,1274.669,3479.434,2977.929,-0.09320744,-0.01110645,0.1456827,-0.280300289392471,-0.104588381946087,0.0108597315847874,-0.0492862758204926,-0.0212065075864124,0.030510552563791,3
0.29998779296875,-0.0943716242909431,2.92273211479187,1.13920605182648,-0.0657918945890516,2.93750796620855,1.18358540703494,1350.818,1061.937,3343.962,3325.216,-0.09052191,-0.009935189,0.153312,-0.306285887956619,-0.108409769833088,0.0177185460925102,-0.0561078595514081,-0.0241416444928383,0.0347334378503248,3
0.3199462890625,-0.101036846637726,2.92052531242371,1.13972342014313,-0.066982698420527,2.93699559658708,1.18432257133248,1282.579,941.9963,3235.5,3590.157,-0.08597749,-0.008520517,0.1583548,-0.333260804414749,-0.110340237617493,0.0258683692663908,-0.0632811543661169,-0.0272281128529503,0.0391740490520489,3
0.3399658203125,-0.108252540230751,2.91831183433533,1.140460729599,-0.0683246067173459,2.93641821093553,1.18515327649217,1251.083,942.6125,3174.361,3650.174,-0.07944103,-0.00629305,0.1584784,-0.360785096883774,-0.110679857432842,0.0368639305233955,-0.0708381612402705,-0.0304796817925674,0.0438521962973096,4
0.3599853515625,-0.116004012525082,2.91611456871033,1.14145123958588,-0.0698213312158394,2.93577421219747,1.18607982025561,1319.653,1047.576,3119.431,3498.824,-0.0715325,-0.002961968,0.1534735,-0.38757336139679,-0.109857939183712,0.0495277382433414,-0.0787457139191101,-0.0338820807988248,0.0487473480944833,4
0.3800048828125,-0.12425222992897,2.91394948959351,1.14270544052124,-0.0714797725314022,2.93506063123087,1.18710647443246,1457.813,1182.943,3088.368,3230.125,-0.06360801,0.001264295,0.1450254,-0.412411391735077,-0.108250752091408,0.062712199985981,-0.0869921272359981,-0.0374302820709642,0.0538522707687797,4
0.39996337890625,-0.132943958044052,2.91182637214661,1.14421510696411,-0.0733007663744719,2.93427710845288,1.18823375636729,1579.86,1273.763,3105.13,2981.25,-0.05703799,0.005829859,0.1357331,-0.4345862865448,-0.106158003211021,0.075483962893486,-0.0955391997469985,-0.0411078485948847,0.0591433158066154,4
0.41998291015625,-0.142024427652359,2.90975022315979,1.14595711231232,-0.075301871434707,2.93341608884986,1.18947253572543,1627.065,1286.807,3163.956,2845.712,-0.05245149,0.01017212,0.1278623,-0.454023420810699,-0.10380370169878,0.0871007293462753,-0.104427768518458,-0.0449323514193797,0.064645763297398,4
0.44000244140625,-0.151446685194969,2.90772438049316,1.14789414405823,-0.077483988232608,2.93247718495301,1.19082336997196,1607.466,1238.484,3217.33,2843.629,-0.04964292,0.01397547,0.1224706,-0.47111302614212,-0.101295970380306,0.0968505963683128,-0.113620829717891,-0.048887868829098,0.0703367061060819,4
0.4599609375,-0.161177173256874,2.90575170516968,1.14999413490295,-0.0798455868024366,2.93146105506384,1.19228531198523,1546.188,1159.531,3249.131,2936.132,-0.04787724,0.01719323,0.1193352,-0.486524850130081,-0.0986371785402298,0.105000771582127,-0.123077777052859,-0.0529569290708118,0.076191007003302,4
0.47998046875,-0.171194031834602,2.90383625030518,1.15223717689514,-0.082406855753501,2.93035901258777,1.1938708594761,1471.117,1084.591,3252.148,3068.161,-0.04628947,0.01998565,0.1173867,-0.500842988491058,-0.0957740619778633,0.112152501940727,-0.132845337826091,-0.057159637597476,0.0822375924153778,5
0.5,-0.18148136138916,2.90198349952698,1.15461337566376,-0.085166398670376,2.92917165836334,1.1955791479969,1430.395,1046.278,3215.356,3171.784,-0.04432725,0.02264216,0.1152319,-0.514366567134857,-0.092636302113533,0.118808142840862,-0.142884000065179,-0.0614789935111996,0.0884520025491718,5
0.51995849609375,-0.192024454474449,2.90019917488098,1.15713167190552,-0.0881201847785335,2.92790072672023,1.1974076823062,1427.359,1046.435,3174.932,3207.882,-0.04191602,0.0253848,0.1118717,-0.527154624462128,-0.0892207473516464,0.125916838645935,-0.153151056234245,-0.0658966209524049,0.0948077994055338,5
0.53997802734375,-0.202804803848267,2.89848637580872,1.1598082780838,-0.0912913676125048,2.92653625533937,1.19937079554481,1442.008,1072.124,3153.227,3185.144,-0.03929015,0.02828871,0.1070483,-0.539017379283905,-0.0856340751051903,0.133829161524773,-0.16369851368286,-0.0704348972306956,0.101337178011302,5
0.55999755859375,-0.21379791200161,2.89684581756592,1.16265046596527,-0.094676112580471,2.92507989413848,1.20146611391775,1484.007,1114.069,3136.772,3115.672,-0.03686721,0.03133006,0.1010565,-0.549655735492706,-0.0820285901427269,0.142110660672188,-0.17448465888317,-0.0750758741803766,0.108014315705644,5
0.5799560546875,-0.224975973367691,2.89527440071106,1.16566467285156,-0.0982677709141994,2.92353450389679,1.20368952152074,1526.678,1150.171,3142.783,3031.245,-0.03511591,0.03435564,0.09463215,-0.558902859687805,-0.0785673335194588,0.150707945227623,-0.185464977731761,-0.0798003986263293,0.114811656138046,5
0.5999755859375,-0.236310541629791,2.89376616477966,1.16884982585907,-0.102092760004862,2.92188871794891,1.20605737197736,1535.674,1165.675,3168.177,2980.771,-0.03429459,0.03715997,0.0886199,-0.566729426383972,-0.0754101946949959,0.159254923462868,-0.196696165293826,-0.0846328648712294,0.121764296254622,5
0.6199951171875,-0.247775584459305,2.89231300354004,1.17219209671021,-0.106144683970236,2.92014528826426,1.20856570593183,1533.561,1167.098,3180.421,2966.778,-0.03441017,0.03963181,0.08346412,-0.573252201080322,-0.0726587623357773,0.167111545801163,-0.208134604141382,-0.0895545055543457,0.128845234789665,5
0.63995361328125,-0.259350568056107,2.8909056186676,1.17568361759186,-0.110414176275438,2.91830824500113,1.21120872505287,1512.934,1157.594,3191.958,2982.629,-0.03533535,0.04170766,0.07927568,-0.578748643398285,-0.0703690946102142,0.174577638506889,-0.219734259350223,-0.0945455131338589,0.136025973932143,5
0.65997314453125,-0.271020174026489,2.88953399658203,1.17931878566742,-0.114931182097002,2.91636470358665,1.21400496683125,1461.231,1143.244,3202.505,3033.221,-0.03678465,0.04338333,0.07591143,-0.583481669425964,-0.0685861110687256,0.181760385632515,-0.231555939228262,-0.0996320517258771,0.143344156921357,5
0.67999267578125,-0.282772839069366,2.88818764686584,1.18308687210083,-0.119686638739014,2.91431856344567,1.21694882102647,1428.298,1139.442,3188.417,3077.998,-0.03843101,0.0447769,0.07288864,-0.587632477283478,-0.0673162788152695,0.188405677676201,-0.243554411173546,-0.104794659005432,0.150771782621969,5
0.699951171875,-0.29459947347641,2.88685631752014,1.18698859214783,-0.124668379003243,2.91217505978368,1.22003275556322,1411.836,1147.467,3174.322,3096.661,-0.04015195,0.04597872,0.06983001,-0.591333568096161,-0.0665607154369354,0.195083737373352,-0.255682396258658,-0.110012992170877,0.158279583125701,5
0.719970703125,-0.306491523981094,2.88552927970886,1.19102680683136,-0.129910105849058,2.90991969115882,1.22327763417886,1387.099,1161.998,3168.6,3109.24,-0.0419368,0.04701919,0.0666334,-0.594603002071381,-0.0663479641079903,0.201911732554436,-0.268004259419652,-0.115314745656047,0.165907403394098,5
0.739990234375,-0.318439543247223,2.88419532775879,1.19519639015198,-0.135400001298574,2.90755754251682,1.2266761409821,1390.979,1184.763,3151.402,3097.262,-0.04381805,0.04795287,0.06322224,-0.597400665283203,-0.0666979029774666,0.208481267094612,-0.280473432677602,-0.12067988256057,0.173626415629864,5
0.75994873046875,-0.330434262752533,2.88284254074097,1.19950044155121,-0.141123030934024,2.90509508274763,1.23021896895215,1401.022,1208.725,3146.707,3068.175,-0.04598214,0.04874702,0.05977901,-0.599735677242279,-0.0676450878381729,0.215204566717148,-0.293041660990304,-0.126087640087875,0.181406747663168,5
0.77996826171875,-0.342466771602631,2.88145780563354,1.20394015312195,-0.147116852635298,2.90251610871756,1.23392943011056,1380.092,1225.864,3156.039,3062.147,-0.04854889,0.0493165,0.05665498,-0.601624429225922,-0.0692420601844788,0.221987411379814,-0.305776327165692,-0.131567011177758,0.189290112662009,5
0.79998779296875,-0.354529201984406,2.88002777099609,1.2085052728653,-0.153366821193532,2.89982692185086,1.2377984583754,1372.537,1240.129,3151.836,3058.019,-0.05146346,0.04966116,0.0539391,-0.603123486042023,-0.0715056955814362,0.228258728981018,-0.318629798715703,-0.137097500901303,0.197247023847227,5
0.8199462890625,-0.366616547107697,2.8785388469696,1.2131941318512,-0.159854984220025,2.89703524655885,1.24181494036286,1362.004,1251.841,3153.435,3054.912,-0.05472743,0.04975254,0.05172536,-0.604366600513458,-0.0744498893618584,0.234442964196205,-0.331553103442611,-0.142658037889954,0.205247165095559,4
0.8399658203125,-0.37872588634491,2.87697720527649,1.21800446510315,-0.166623119864544,2.89412310687084,1.24600473873783,1318.497,1259.111,3160.977,3081.802,-0.05826411,0.04955721,0.05010942,-0.605467915534973,-0.07808468490839,0.240518897771835,-0.344616121128287,-0.148278689461635,0.213333795320821,4
0.8599853515625,-0.390856355428696,2.8753297328949,1.22292482852936,-0.173653699721778,2.89109804476993,1.25035700258242,1298.967,1268.528,3149.357,3100.885,-0.0618631,0.04915161,0.04886741,-0.606523990631104,-0.082376055419445,0.246017083525658,-0.357770416714212,-0.153938615363784,0.221476930914505,4
0.8800048828125,-0.403009176254272,2.87358355522156,1.22795510292053,-0.180948461186242,2.88795931270381,1.25487280742661,1287.531,1281.88,3142.473,3105.719,-0.06549086,0.04856823,0.04788208,-0.607640743255615,-0.087304912507534,0.251512289047241,-0.371007022483504,-0.159633957038354,0.229671020432672,4
0.89996337890625,-0.415186196565628,2.87172651290894,1.23309397697449,-0.188485507600594,2.88471633219242,1.2595385981964,1258.971,1295.908,3138.616,3124.098,-0.06916229,0.04780984,0.04716424,-0.608853459358215,-0.0928502157330513,0.256942331790924,-0.384276397333556,-0.165343398332914,0.237885395572837,4
0.91998291015625,-0.427390336990356,2.86974668502808,1.2383406162262,-0.196312316554895,2.88134867495511,1.26438376578173,1233.992,1309.662,3139.859,3134.023,-0.07273252,0.04691826,0.04664674,-0.610204517841339,-0.0989951640367508,0.262331068515778,-0.397650971463704,-0.171098103938772,0.246164894078718,4
0.94000244140625,-0.439624071121216,2.86763310432434,1.24368584156036,-0.204407453948074,2.87786556348678,1.26939504145298,1236.96,1325.921,3125.364,3130.421,-0.07618185,0.04594239,0.04625518,-0.611688792705536,-0.105674684047699,0.267260402441025,-0.411081631631503,-0.176876941799768,0.254479112513653,4
0.9599609375,-0.451891124248505,2.86537575721741,1.24913203716278,-0.212746045182651,2.87427770063182,1.27455702664937,1240.557,1342.098,3121.339,3119.059,-0.07964556,0.04486393,0.04607621,-0.613352835178375,-0.112870588898659,0.272307068109512,-0.424518689171827,-0.18265853227144,0.262797291226931,3
0.97998046875,-0.464195549488068,2.86296439170837,1.25468146800995,-0.221379956358585,2.87056276985637,1.27990182895749,1207.987,1353.296,3129.733,3135.705,-0.08316892,0.04363627,0.04629645,-0.615221500396729,-0.120571702718735,0.27747106552124,-0.438035925118965,-0.188474621271639,0.271165104193453,3
1,-0.476541996002197,2.86039018630981,1.26032471656799,-0.230284798736574,2.86673126495361,1.28541435058594,1202.298,1362.879,3122.622,3141.861,-0.08659801,0.04231898,0.04679558,-0.617322683334351,-0.128715366125107,0.282162874937057,-0.451584000205995,-0.194303979492187,0.279552008056641,3
1.01995849609375,-0.488936632871628,2.85764455795288,1.26606321334839,-0.23943271784574,2.86279517092421,1.29107734829033,1202.316,1373.206,3121.791,3137.961,-0.08995412,0.04091564,0.04757346,-0.619731605052948,-0.137278109788895,0.28692552447319,-0.465113307397641,-0.200125262411666,0.287927293698547,3
1.03997802734375,-0.501386165618896,2.85471987724304,1.27189874649048,-0.248880035413094,2.85873025410248,1.29692568790267,1169.816,1380.107,3129.617,3160.809,-0.09323514,0.03939924,0.04873613,-0.622478127479553,-0.146228760480881,0.291773855686188,-0.478698517198992,-0.205970598662363,0.296337185718871,3
1.05999755859375,-0.513897716999054,2.85161018371582,1.27782189846039,-0.258599401509697,2.85454828239877,1.30294243851408,1169.036,1386.935,3119.532,3169.761,-0.09628872,0.03784748,0.0500863,-0.625577569007874,-0.155479818582535,0.296156942844391,-0.492290296490434,-0.211818761581115,0.30475114456651,3
1.0799560546875,-0.526479482650757,2.8483099937439,1.28383600711823,-0.268559993341139,2.85026251800042,1.30910851934653,1174.714,1395.816,3116.801,3166.135,-0.09917452,0.03627272,0.05158661,-0.629088401794434,-0.165004581212997,0.300708115100861,-0.505839340129748,-0.217648536542653,0.3131386480097,3
1.0999755859375,-0.539139688014984,2.84481453895569,1.28994560241699,-0.278822628233634,2.845846792911,1.31546157922208,1146.547,1401.605,3125.74,3187.361,-0.1019208,0.03464748,0.0533429,-0.633010804653168,-0.174775004386902,0.305479645729065,-0.519420764586993,-0.223492244065532,0.321546196721701,3
1.1199951171875,-0.551886141300201,2.84112048149109,1.29614293575287,-0.289357002179081,2.84131414609862,1.32198285851614,1151.809,1407.357,3117.559,3192.034,-0.1043916,0.03304967,0.0551754,-0.63732385635376,-0.184700861573219,0.309866338968277,-0.532985466132485,-0.229328756186667,0.329943393154705,3
1.13995361328125,-0.564727485179901,2.83722519874573,1.30243241786957,-0.300129348556794,2.8366791063968,1.32865145408196,1164.735,1414.56,3117.043,3183.223,-0.1066703,0.03148231,0.0570839,-0.642066359519958,-0.194759741425514,0.314473569393158,-0.546484652851112,-0.235137079108074,0.338300032788975,3
1.15997314453125,-0.577672064304352,2.83312654495239,1.30881941318512,-0.311204994190806,2.83191356549821,1.33550780633558,1142.438,1417.589,3128.836,3200.997,-0.1088093,0.02990291,0.05921669,-0.647225141525269,-0.204927325248718,0.319351017475128,-0.559993461530388,-0.240949542090342,0.346662628875245,3
1.17999267578125,-0.59072744846344,2.8288242816925,1.31529688835144,-0.322550701230474,2.8270318247214,1.34253133946411,1151.854,1420.195,3122.549,3205.041,-0.110689,0.02837976,0.06141513,-0.652770400047302,-0.215111508965492,0.323871046304703,-0.573463232144024,-0.246745208083563,0.355001058539242,3
1.199951171875,-0.603902399539948,2.82431840896606,1.32186985015869,-0.334129796137751,2.82204966366526,1.3496993508005,1166.689,1423.806,3123.7,3198.231,-0.1123955,0.02691017,0.06367556,-0.65874856710434,-0.225296288728714,0.328648090362549,-0.586845888408906,-0.252503391206208,0.363285560271529,3
1.219970703125,-0.617205321788788,2.81960916519165,1.3285448551178,-0.346012104131023,2.81693703848901,1.35705506548116,1144.964,1423.116,3137.846,3218.413,-0.1139636,0.0254515,0.06612597,-0.665148615837097,-0.235465854406357,0.33375272154808,-0.600216179640808,-0.2582562540006,0.371562407459373,3
1.239990234375,-0.630643963813782,2.81469869613647,1.33531534671783,-0.358161486344149,2.81170949873715,1.36457611182642,1155.798,1423.168,3132.342,3224.103,-0.1152589,0.02407908,0.06858053,-0.671928465366364,-0.245528519153595,0.338526636362076,-0.613526094901141,-0.263983138701136,0.379801879044709,2
1.25994873046875,-0.644226551055908,2.80958914756775,1.3421870470047,-0.370538411106574,2.80638405378312,1.37223801784905,1173.73,1424.793,3133.706,3217.204,-0.1163674,0.02279397,0.07101487,-0.679129064083099,-0.255472660064697,0.343586623668671,-0.626728467014515,-0.269663750589943,0.387974776299087,2
1.27996826171875,-0.657961070537567,2.80428338050842,1.34916758537292,-0.383217166996937,2.80092873932693,1.38008677171809,1155.785,1422.249,3148.991,3235.518,-0.1173288,0.02155107,0.07355548,-0.686727464199066,-0.26529061794281,0.349027037620544,-0.639897267894095,-0.27532991771472,0.396126891360527,2
1.29998779296875,-0.671854197978973,2.79878544807434,1.35625088214874,-0.396158759015336,2.79536033382764,1.388098233671,1170.243,1421.293,3143.738,3239.408,-0.1180318,0.02042261,0.07602764,-0.694659948348999,-0.274894505739212,0.354164659976959,-0.652985332144132,-0.280961346123326,0.404229026602261,2
1.3199462890625,-0.685913503170013,2.79309988021851,1.3634432554245,-0.409320857483769,2.78969705056314,1.39624619962066,1191.551,1421.653,3145.926,3230.511,-0.1185772,0.01940336,0.07841972,-0.702962279319763,-0.2842817902565,0.359621405601501,-0.665946586243534,-0.286538211666779,0.412252660319947,2
1.3399658203125,-0.700145602226257,2.78723073005676,1.37075316905975,-0.422782156447859,2.78390502968405,1.40457938493002,1175.643,1417.233,3163.298,3247.229,-0.1190081,0.01843921,0.0808762,-0.711605131626129,-0.293457388877869,0.365496397018433,-0.678853852630301,-0.292091847805726,0.42024287307172,2
1.3599853515625,-0.71455579996109,2.78118395805359,1.37817466259003,-0.436500861174643,2.77800225429635,1.41307191666844,1191.615,1414.985,3158.995,3250.254,-0.1192175,0.01759933,0.0832334,-0.720512807369232,-0.302340865135193,0.371072113513947,-0.69166099897751,-0.297602405088682,0.428171106749628,2
1.3800048828125,-0.729150235652924,2.77496528625488,1.38571393489838,-0.450474904562636,2.77198961381608,1.4217225152016,1214.234,1413.877,3161.698,3241.065,-0.1193048,0.01687407,0.08548212,-0.729723393917084,-0.310936033725739,0.376960903406143,-0.704361775018035,-0.303067194200314,0.436033492140578,2
1.39996337890625,-0.743934214115143,2.76858043670654,1.39337694644928,-0.464658337480184,2.7658868788709,1.43050273582817,1210.383,1409.984,3172.274,3252.422,-0.1193634,0.01621627,0.08773568,-0.739197790622711,-0.319243431091309,0.383149117231369,-0.716911837553692,-0.30846713550125,0.443802578692535,2
1.41998291015625,-0.758912622928619,2.76203513145447,1.40116846561432,-0.479135601808478,2.75965771647838,1.43946485209513,1200.49,1402.133,3190.281,3264.182,-0.119226,0.01563971,0.08996555,-0.748919188976288,-0.327267944812775,0.389574289321899,-0.729381927869995,-0.313832666990362,0.451522158631107,2
1.44000244140625,-0.774088680744171,2.75533676147461,1.40908074378967,-0.493861275572861,2.75332167044526,1.4485807456364,1226.422,1400.486,3180.458,3261.623,-0.1188627,0.01520578,0.09202018,-0.758801937103271,-0.334919989109039,0.395614624023438,-0.741727567798258,-0.319144650954242,0.459164697851088,2
1.4599609375,-0.789466500282288,2.74849247932434,1.417121052742,-0.508786793047814,2.74689963724648,1.45782035195439,1251.767,1399.267,3180.666,3252.215,-0.1184606,0.01488335,0.09392115,-0.768892467021942,-0.342213898897171,0.402013927698135,-0.753905903732742,-0.324384648683532,0.466703667929125,2
1.47998046875,-0.80504983663559,2.74150848388672,1.4252997636795,-0.524000783579472,2.74035348215039,1.46723853683636,1233.333,1391.67,3202.037,3269.73,-0.1180542,0.01460538,0.09582371,-0.779166340827942,-0.349194556474686,0.408935278654099,-0.76598572865452,-0.329582259876133,0.474181654997567,2
1.5,-0.820840179920197,2.73439240455627,1.43361043930054,-0.539455198877605,2.73370387899399,1.4768055561018,1246.184,1388.11,3199.667,3273.212,-0.1174992,0.01444611,0.09756111,-0.789519608020782,-0.355807334184647,0.415534734725952,-0.777924000354858,-0.334718964672088,0.481572013878822,1
1.51995849609375,-0.836839973926544,2.7271511554718,1.4420577287674,-0.555098950682584,2.72697280962814,1.48648978368432,1270.76,1386.116,3202.217,3260.658,-0.116868,0.01440101,0.09911484,-0.799986600875854,-0.36206528544426,0.422365605831146,-0.78967950960014,-0.339777031889425,0.488849234094216,1
1.53997802734375,-0.853050649166107,2.71979117393494,1.45064914226532,-0.571024729446907,2.7201203919406,1.49634859938949,1259.102,1378.715,3220.721,3272.348,-0.1162054,0.0144027,0.1006492,-0.810538291931152,-0.367999076843262,0.429569989442825,-0.801318788528229,-0.344785088448372,0.496054502206448,1
1.55999755859375,-0.869472205638885,2.71232008934021,1.45937705039978,-0.587181951496087,2.71316839067337,1.50635068951315,1276.492,1375.838,3213.882,3274.096,-0.1154448,0.01450949,0.1020226,-0.821077644824982,-0.373551785945892,0.436393946409225,-0.812800388649436,-0.349725300221754,0.503162159625937,1
1.5799560546875,-0.886105477809906,2.704745054245,1.46824705600739,-0.603517109114681,2.70613982870156,1.51646293023053,1298.474,1373.536,3215.984,3263.861,-0.1146938,0.01470421,0.1032265,-0.831659853458405,-0.37875160574913,0.443501949310303,-0.824084890952782,-0.354580706310386,0.510147804107099,0
1.5999755859375,-0.902950704097748,2.69707202911377,1.4772675037384,-0.620126809287134,2.69899313873865,1.52674512586702,1280.193,1365.165,3237.21,3278.604,-0.1139561,0.01492146,0.1044167,-0.842261433601379,-0.38364964723587,0.451020240783691,-0.835236272052476,-0.359378834064062,0.517051040221759,0
1.6199951171875,-0.920006155967712,2.68930816650391,1.48642933368683,-0.636958033083316,2.69175113334911,1.53716445517924,1294.494,1362.413,3230.805,3280.531,-0.1131162,0.01523364,0.1054297,-0.852773785591125,-0.388195723295212,0.458090931177139,-0.846214826007804,-0.364102599125749,0.523847288101157,0
1.63995361328125,-0.937271177768707,2.68145990371704,1.49573647975922,-0.653954964893072,2.68443782843068,1.54768636564562,1318.584,1361.009,3230.873,3267.211,-0.1122725,0.01562958,0.1062484,-0.86324942111969,-0.392411589622498,0.465357005596161,-0.856983060951778,-0.368735869792483,0.530513338493643,0
1.65997314453125,-0.954744398593903,2.67353296279907,1.50519633293152,-0.671217966514002,2.67701004110563,1.55837298599979,1302.305,1353.486,3250.098,3279.405,-0.1114607,0.0160364,0.1070457,-0.873668074607849,-0.396348029375076,0.472991108894348,-0.86760212115283,-0.373304954734798,0.537087042614082,0
1.67999267578125,-0.972422897815704,2.66553378105164,1.51479947566986,-0.688691692550512,2.66949158495151,1.56919005480539,1315.784,1351.524,3242.271,3281.138,-0.110591,0.01651903,0.1076743,-0.883923530578613,-0.399962723255157,0.480157941579819,-0.878034183119987,-0.377793579561193,0.543544985919778,0
1.699951171875,-0.990304350852966,2.65746808052063,1.5245498418808,-0.706318139005925,2.66190741746765,1.58010166482538,1337.247,1350.42,3242.674,3267.958,-0.1097553,0.01706429,0.1081213,-0.894076287746429,-0.403285771608353,0.487517893314362,-0.888243810122449,-0.382186496836395,0.549865231386283,0
1.719970703125,-1.00838649272919,2.64934062957764,1.53445410728455,-0.724201244699276,2.65421281668394,1.59117215914002,1317.963,1343,3262.572,3280.227,-0.1089675,0.01760101,0.1085619,-0.904107868671417,-0.406373858451843,0.495212525129318,-0.898289055119065,-0.386508685126782,0.556083716560567,0
1.739990234375,-1.02666473388672,2.64115691184998,1.54450142383575,-0.74228345468553,2.64643254688532,1.60236590849663,1330.467,1341.636,3253.479,3281.399,-0.1081249,0.01819871,0.1088435,-0.913910984992981,-0.409184902906418,0.502363562583923,-0.908134108040217,-0.390744736359816,0.562178273303667,0
1.75994873046875,-1.04513585567474,2.63292193412781,1.55469453334808,-0.760504703501031,2.63859245256277,1.61364572951188,1352.2,1341.284,3252.163,3266.941,-0.1073254,0.01884404,0.1089516,-0.923553228378296,-0.411745935678482,0.509657800197601,-0.917745706354326,-0.394880338597406,0.568128310524024,0
1.77996826171875,-1.06379616260529,2.6246395111084,1.56503975391388,-0.778972314193065,2.6306463556073,1.62507806026454,1331.335,1334.462,3271.09,3279.284,-0.106593,0.01946294,0.1090687,-0.93302309513092,-0.414115607738495,0.517263174057007,-0.927178570605173,-0.398939036560826,0.573967702844936,0
1.79998779296875,-1.08264064788818,2.61631441116333,1.57552564144135,-0.797626646773287,2.62261991743975,1.63662598076079,1341.697,1333.733,3261.094,3280.906,-0.1058218,0.02012565,0.1090394,-0.942216753959656,-0.416256368160248,0.524291932582855,-0.936399026186941,-0.402906341007953,0.579675604081262,0
1.8199462890625,-1.10166466236115,2.60795044898987,1.58615434169769,-0.816405708106235,2.61453981197442,1.64825111429663,1361.755,1334.042,3259.24,3266.027,-0.1051001,0.0208216,0.1088457,-0.951205968856812,-0.418196111917496,0.53143572807312,-0.945376094901152,-0.406768922885411,0.585232837252444,0
1.8399658203125,-1.1208643913269,2.59955048561096,1.59693145751953,-0.835419998744244,2.60635849391067,1.66002186597783,1339.308,1327.977,3277.544,3277.854,-0.104447,0.02147737,0.1086728,-0.959980905056,-0.419993281364441,0.538853883743286,-0.954160941629351,-0.41054879701235,0.590671075857483,0
1.8599853515625,-1.14023303985596,2.59111833572388,1.60784435272217,-0.854607925216182,2.59810246519841,1.67190010651166,1348.872,1328.06,3266.169,3278.953,-0.1037562,0.02216493,0.1083658,-0.96843957901001,-0.421609342098236,0.545642912387848,-0.962722140342816,-0.41423244164655,0.595970865687568,0
1.8800048828125,-1.15976619720459,2.58265686035156,1.61889469623566,-0.873964974649439,2.58977366760063,1.68388304221498,1368.582,1329.172,3263.208,3263.006,-0.1031208,0.02287303,0.1079081,-0.976659297943115,-0.423070430755615,0.552519142627716,-0.971056158224177,-0.417818336715394,0.601130019760457,0
1.89996337890625,-1.17945861816406,2.57416844367981,1.63008451461792,-0.893426802120876,2.58139978694019,1.69593084051521,1356.364,1326.981,3270.923,3270.31,-0.1026345,0.02353745,0.1074552,-0.984617292881012,-0.424419194459915,0.559493839740753,-0.979135219574012,-0.421294531111384,0.606131343595068,0
1.91998291015625,-1.19930469989777,2.56565451622009,1.64141368865967,-0.91310780215452,2.5729316024492,1.70811431707208,1335.713,1320.827,3286.858,3278.8,-0.1020875,0.02417239,0.107004,-0.992311835289001,-0.42569637298584,0.566460847854614,-0.98700543065471,-0.424680863071164,0.611003379164165,0
1.94000244140625,-1.21929788589478,2.55711793899536,1.65286672115326,-0.932943991899774,2.5643966441608,1.72039386345315,1355.809,1323.456,3267.513,3272.659,-0.1014441,0.02484756,0.106395,-0.999652087688446,-0.426834166049957,0.572652399539948,-0.994638524886308,-0.427965170275055,0.615728628108227,0
1.9599609375,-1.2394323348999,2.54856085777283,1.66444623470306,-0.952869434730639,2.55582328276311,1.73272866174593,1376.995,1326.271,3260.771,3256.195,-0.100905,0.02552467,0.1056566,-1.00673055648804,-0.427854955196381,0.578976094722748,-1.00200923318578,-0.431136580142566,0.620291447661127,0
1.97998046875,-1.25970351696014,2.53998422622681,1.6761589050293,-0.973001172086935,2.54716115859433,1.74519116617712,1345.108,1321.483,3279.864,3272.089,-0.1004997,0.02612082,0.1049963,-1.01355183124542,-0.428832948207855,0.585635125637054,-1.0091596546337,-0.434213206731958,0.624717899159203,0
2,-1.28010368347168,2.53138947486877,1.68799102306366,-0.993273599084619,2.53843849960327,1.7577407641983,1346.781,1322.276,3269.771,3274.977,-0.1000491,0.02672435,0.1042368,-1.02001667022705,-0.42973917722702,0.591607570648193,-1.01606400046349,-0.437183953857422,0.628992018127441,0
2.01995849609375,-1.30062782764435,2.52277779579163,1.69994211196899,-1.01361934024125,2.52968429557778,1.77033574717631,1365.683,1324.838,3265.668,3255.534,-0.09960169,0.02733851,0.1033472,-1.02619898319244,-0.430589109659195,0.597555756568909,-1.02269958857548,-0.440039062045143,0.633099763265664,0
2.03997802734375,-1.32126975059509,2.51414942741394,1.71201503276825,-1.03415783849082,2.52084715356021,1.78305005597715,1341.776,1321.583,3279.571,3265.329,-0.09920541,0.0278853,0.1025366,-1.03209447860718,-0.431422650814056,0.60364431142807,-1.02910434715509,-0.442794850733705,0.637064613927399,0
2.05999755859375,-1.34202218055725,2.50550556182861,1.72419500350952,-1.05482201812353,2.5119559343546,1.79584216754118,1349.934,1323.49,3263.82,3265.769,-0.09877717,0.02843429,0.1016505,-1.03762233257294,-0.432192772626877,0.60899943113327,-1.03525504859546,-0.445441325732794,0.640872191117535,0
2.0799560546875,-1.36287975311279,2.49684715270996,1.73648357391357,-1.07554322220087,2.50304017912354,1.80866957995289,1365.628,1326.052,3259.329,3249.551,-0.09841552,0.02897215,0.1006756,-1.0428774356842,-0.432924211025238,0.61442756652832,-1.04113166921817,-0.447969871412971,0.644510099225253,0
2.0999755859375,-1.38383686542511,2.48817372322083,1.74888479709625,-1.09644304044274,2.49404757120739,1.82160756304102,1333.154,1322.401,3275.959,3264.358,-0.09812843,0.02942731,0.09980839,-1.04786038398743,-0.433671236038208,0.620059549808502,-1.04676782045836,-0.450394949835787,0.647999145330045,0
2.1199951171875,-1.4048867225647,2.47948598861694,1.76138305664063,-1.11745308225396,2.48500753716864,1.83461377976925,1337.893,1324.148,3261.541,3265.305,-0.09776038,0.0298881,0.09886125,-1.05248475074768,-0.434386402368546,0.624910891056061,-1.0521429102862,-0.45270770082608,0.651326581984514,0
2.13995361328125,-1.42602348327637,2.47078442573547,1.77397811412811,-1.13850357065857,2.4759501000907,1.84764503486553,1356.702,1327.522,3255.188,3245.689,-0.09739926,0.03035084,0.09781034,-1.05683565139771,-0.435080707073212,0.629754364490509,-1.0572396359531,-0.454900679494516,0.654481697963039,0
2.15997314453125,-1.4472416639328,2.46206855773926,1.78667342662811,-1.15971797923886,2.46682213274057,1.86077776435915,1327.805,1325.089,3268.818,3258.049,-0.09709885,0.03073619,0.09686824,-1.06091296672821,-0.435795843601227,0.634767293930054,-1.06208716414724,-0.456986435452193,0.657482548835001,0
2.17999267578125,-1.46853446960449,2.45333886146545,1.79945385456085,-1.18102676265167,2.45765355853653,1.8739689163698,1332.842,1327.113,3253.453,3258.956,-0.0967356,0.03112361,0.09586292,-1.0646390914917,-0.436483830213547,0.639023423194885,-1.06666760390386,-0.458957270716794,0.660318059240953,0
2.199951171875,-1.48989653587341,2.44459557533264,1.81231999397278,-1.20235918878472,2.44847481153047,1.88717470435054,1349.036,1330.293,3248.184,3240.425,-0.09639364,0.03150675,0.09477575,-1.06810200214386,-0.437161386013031,0.643310129642487,-1.07096642698373,-0.460806934192852,0.662979235508738,0
2.219970703125,-1.51132261753082,2.43583822250366,1.825275182724,-1.22384034501537,2.43923207011845,1.90047256334669,1317.328,1327.809,3262.565,3253.943,-0.09610283,0.03181191,0.09381418,-1.07129991054535,-0.437870115041733,0.64775812625885,-1.07500824518964,-0.462546015651526,0.665481313516697,0
2.239990234375,-1.53280580043793,2.42706704139709,1.83830332756042,-1.24539969505118,2.42995568409656,1.91381882803312,1322.669,1329.628,3246.815,3254.198,-0.09571934,0.03212429,0.09279381,-1.07415664196014,-0.438556045293808,0.651408612728119,-1.07877792518082,-0.464168003639063,0.667814925005999,0
2.25994873046875,-1.55434083938599,2.4182825088501,1.85140466690063,-1.26696571949139,2.4206764262649,1.92716922449383,1340.649,1332.917,3240.365,3234.318,-0.09533637,0.03243797,0.09169517,-1.07675933837891,-0.439229339361191,0.655069410800934,-1.08226375787775,-0.46566786006566,0.669972821498637,0
2.27996826171875,-1.57592296600342,2.40948390960693,1.86458253860474,-1.28866484336891,2.41133989946375,1.94060201584662,1309.041,1330.724,3253.583,3248.154,-0.09500507,0.03267601,0.0907313,-1.07910740375519,-0.439927369356155,0.658894300460815,-1.08548570791771,-0.467054175156991,0.671967362056137,0
2.29998779296875,-1.59754586219788,2.40067195892334,1.8778213262558,-1.31042570636616,2.40197680804417,1.95407302665558,1313.587,1332.216,3238.013,3248.865,-0.0945795,0.03292318,0.08971497,-1.08113050460815,-0.440596908330917,0.661940157413483,-1.08843144721369,-0.468321644481621,0.673790915005368,0
2.3199462890625,-1.61920392513275,2.3918468952179,1.89112138748169,-1.33217617205286,2.39261819029685,1.96753760103401,1330.635,1335.256,3231.901,3229.242,-0.09414328,0.03317518,0.08862362,-1.08291244506836,-0.441248625516891,0.665002644062042,-1.09109212156704,-0.469466458325234,0.675437999175593,0
2.3399658203125,-1.64089298248291,2.38300848007202,1.90448582172394,-1.354043721977,2.38320919447311,1.98107465613292,1299.057,1333.184,3244.748,3242.725,-0.09374327,0.03335825,0.08766665,-1.08444976806641,-0.441916197538376,0.668220162391663,-1.09348297402779,-0.470495175346408,0.676918050740891,0
2.3599853515625,-1.66260623931885,2.37415790557861,1.91789877414703,-1.37595634130987,2.37378080654189,1.99463961134278,1304.51,1334.429,3228.782,3242.706,-0.09323461,0.03355709,0.08665631,-1.0856739282608,-0.442543238401413,0.670648992061615,-1.09559452046326,-0.471403714787811,0.678225198571351,0
2.3800048828125,-1.68433964252472,2.36529493331909,1.93136072158813,-1.39790843013262,2.36433543599182,2.00822900004707,1322.531,1337.298,3222.242,3222.36,-0.09270836,0.0337663,0.08557256,-1.0866664648056,-0.443138480186462,0.673097848892212,-1.09742594550583,-0.472191725819537,0.679358937915576,0
2.39996337890625,-1.7060878276825,2.35642051696777,1.94487178325653,-1.41982729721844,2.35490435982705,2.02179782291363,1303.939,1337.631,3225.269,3230.627,-0.09228493,0.03392173,0.08458973,-1.08740949630737,-0.443719893693924,0.675551056861877,-1.09897224258044,-0.472857054252202,0.680316169465103,0
2.41998291015625,-1.72784614562988,2.34753441810608,1.9584299325943,-1.4418413890156,2.34543231112926,2.03542559441269,1278.482,1333.518,3236.617,3239.229,-0.09174111,0.03404777,0.08368163,-1.0879180431366,-0.444306313991547,0.677910208702087,-1.10024227275454,-0.473403512755585,0.681102378642803,0
2.44000244140625,-1.74960875511169,2.33863806724548,1.97201824188232,-1.46387808506052,2.33595053645515,2.04906735901791,1297.12,1335.763,3214.81,3230.564,-0.09101406,0.03421904,0.0826725,-1.08812820911407,-0.4448162317276,0.679415881633759,-1.10123038958312,-0.473828671822132,0.681714070030222,0
2.4599609375,-1.77137112617493,2.32973289489746,1.98563861846924,-1.48586448079375,2.32649040459993,2.06267798533405,1317.823,1339.041,3205.647,3210.239,-0.09031045,0.03440129,0.08159794,-1.08811867237091,-0.445255249738693,0.681016147136688,-1.10193449000042,-0.474131626561409,0.682149941729488,0
2.47998046875,-1.79312896728516,2.32081937789917,1.99929618835449,-1.50792940965705,2.3169964821328,2.07633722739875,1281.447,1336.521,3219.406,3227.731,-0.08969686,0.03451504,0.08067554,-1.08789050579071,-0.445668160915375,0.682881653308868,-1.10235860927677,-0.474314113237503,0.682412491765153,0
2.5,-1.81487655639648,2.31189942359924,2.01297640800476,-1.52999999932945,2.30750012397766,2.08999997377396,1282.408,1336.085,3206.921,3229.297,-0.08896449,0.03465415,0.07969726,-1.0873806476593,-0.446011185646057,0.684009492397308,-1.10250000050292,-0.474374949932098,0.682500019669533,0
2.51995849609375,-1.83660960197449,2.30297374725342,2.02667880058289,-1.55200330634561,2.29803271566984,2.10362106897983,1301.303,1337.989,3201.274,3206.835,-0.08816075,0.03482347,0.07863034,-1.08665370941162,-0.44628843665123,0.68511688709259,-1.10235947007672,-0.474314483615674,0.682413024641328,0
2.53997802734375,-1.85832357406616,2.29404306411743,2.04040551185608,-1.57406826106879,2.28853878207593,2.11728032705303,1274.239,1335.936,3211.304,3217.45,-0.08736127,0.03494963,0.07769052,-1.08569860458374,-0.446518063545227,0.686335325241089,-1.10193621258339,-0.474132367740737,0.682151008090402,0
2.55999755859375,-1.88001275062561,2.28511047363281,2.05414128303528,-1.59612191359838,2.27904971150017,2.13093258853001,1282.942,1335.571,3194.653,3215.711,-0.08644834,0.0351066,0.07670137,-1.08446073532104,-0.446642726659775,0.686793327331543,-1.10123038958312,-0.473828671822132,0.681714070030222,0
2.5799560546875,-1.90167307853699,2.27617692947388,2.06788778305054,-1.61809145607924,2.26959683112862,2.1445327818801,1300.721,1336.823,3188.404,3196.072,-0.08552795,0.03528339,0.0756498,-1.08301448822021,-0.446673423051834,0.687319457530975,-1.10024571396254,-0.473404993411248,0.681104508914478,0
2.5999755859375,-1.92330014705658,2.26724410057068,2.08164858818054,-1.64010562536668,2.26012474908893,2.15816060134934,1267.435,1333.863,3200.732,3211.253,-0.08464964,0.03541005,0.07473756,-1.08135521411896,-0.446642339229584,0.68803995847702,-1.09897654259203,-0.472858904427064,0.680318831377119,0
2.6199951171875,-1.94488859176636,2.25831413269043,2.09540867805481,-1.66209156852628,2.2506648119635,2.17177094750084,1272.645,1332.537,3186.247,3210.938,-0.08363338,0.03557409,0.07375992,-1.07942688465118,-0.446499049663544,0.687999188899994,-1.09742594550583,-0.472191725819537,0.679358937915576,0
2.63995361328125,-1.96643459796906,2.24938893318176,2.10916829109192,-1.68397678738287,2.24124821369174,2.18531894051062,1293.187,1333.664,3179.62,3188.318,-0.08255853,0.03577347,0.07268989,-1.07729196548462,-0.446247637271881,0.687978029251099,-1.09560053017526,-0.471406300598994,0.678228918869363,0
2.65997314453125,-1.98793339729309,2.24047088623047,2.1229305267334,-1.70588953556828,2.23181977031887,2.19888397548635,1264.501,1331.19,3189.513,3200.669,-0.08151137,0.03593433,0.07174127,-1.07493877410889,-0.445910483598709,0.688114285469055,-1.09348983658457,-0.470498128112872,0.676922298990445,0
2.67999267578125,-2.00937986373901,2.23156189918518,2.13668084144592,-1.72775723139253,2.2224107117184,2.21242112090437,1271.821,1329.651,3174.258,3199.365,-0.08034917,0.03613415,0.07072654,-1.07231736183167,-0.445439964532852,0.687520802021027,-1.09109983431736,-0.469469776906228,0.675442773735451,0
2.699951171875,-2.03076934814453,2.22266530990601,2.15042066574097,-1.74950785944813,2.21305202410827,2.22588579579688,1290.787,1330.224,3168.711,3177.718,-0.07915767,0.03636541,0.06962937,-1.06948947906494,-0.44484680891037,0.686997294425964,-1.08844000459651,-0.468325326484384,0.67379621243298,0
2.719970703125,-2.05209827423096,2.21378183364868,2.16415333747864,-1.77126890221328,2.20368885533958,2.23935691789074,1260.131,1327.307,3179.283,3191.371,-0.07800612,0.03655843,0.06865712,-1.06644284725189,-0.444156497716904,0.686633706092834,-1.08549510920706,-0.467058220269158,0.671973181902092,0
2.739990234375,-2.07336091995239,2.20491552352905,2.17786407470703,-1.79296822271738,2.1943522439355,2.25278983096475,1267.509,1325.054,3165.022,3189.222,-0.07672621,0.03679327,0.06761422,-1.0631320476532,-0.4433254301548,0.685541749000549,-1.08227399942825,-0.465672266718727,0.669979161506271,0
2.75994873046875,-2.09455347061157,2.19606828689575,2.19155383110046,-1.8145344598905,2.18507289457083,2.26614035911726,1287.573,1325.29,3158.667,3167.178,-0.07540741,0.03706347,0.06648462,-1.0596114397049,-0.442359238862991,0.684486150741577,-1.07878900047211,-0.464172769027497,0.667821781138895,0
2.77996826171875,-2.11567091941833,2.18724250793457,2.20522570610046,-1.83609403998392,2.17579640956157,2.27948676622032,1258.868,1322.36,3168.245,3179.692,-0.07413229,0.03729851,0.06547317,-1.05587100982666,-0.441281646490097,0.683594822883606,-1.0750201524698,-0.462551139021528,0.665488684690339,0
2.79998779296875,-2.13670825958252,2.17844176292419,2.21886563301086,-1.85757544288233,2.1665535620153,2.29278477791556,1265.816,1319.707,3153.979,3178.186,-0.07274424,0.03757405,0.06439129,-1.05186903476715,-0.440053641796112,0.681995391845703,-1.07097916161324,-0.460812413548163,0.662987118851036,0
2.8199462890625,-2.15766143798828,2.16966819763184,2.23247456550598,-1.8789081313697,2.15737470212551,2.30599072830611,1285.228,1319.559,3148.176,3156.292,-0.07132424,0.03788446,0.06321894,-1.04765737056732,-0.438683807849884,0.680451571941376,-1.0666811584121,-0.458963102843022,0.660326450127245,0
2.8399658203125,-2.17852592468262,2.16092395782471,2.24605584144592,-1.90021719432543,2.14820600764196,2.31918205336715,1256.395,1316.632,3157.604,3168.68,-0.06995112,0.038162,0.0621587,-1.04322361946106,-0.437195926904678,0.679067075252533,-1.06210153574728,-0.456992619150195,0.65749144554004,0
2.8599853515625,-2.19929647445679,2.15221309661865,2.25959539413452,-1.92143189875059,2.13907791299805,2.33231496600284,1263.783,1313.623,3143.65,3166.415,-0.06846242,0.03848107,0.06102298,-1.03852963447571,-0.435554713010788,0.676977336406708,-1.05725481901126,-0.454907212340279,0.654491096999312,0
2.8800048828125,-2.21996879577637,2.1435375213623,2.27309417724609,-1.94254691640495,2.12999271078668,2.34538616777867,1283.884,1313.267,3137.596,3143.956,-0.06694388,0.03883544,0.05979514,-1.03362202644348,-0.433767020702362,0.674935162067413,-1.0521429102862,-0.45270770082608,0.651326581984514,0
2.89996337890625,-2.24053812026978,2.13490080833435,2.28655219078064,-1.96349306806643,2.12098016689448,2.3583528334607,1268.3,1311.844,3138.399,3150.515,-0.06553187,0.03916629,0.05864303,-1.02847969532013,-0.43184620141983,0.672901570796967,-1.04678460577819,-0.450402172089984,0.648009536242619,0
2.91998291015625,-2.26100063323975,2.12630462646484,2.29996824264526,-1.98439323028747,2.1119874109737,2.37129102948832,1247.087,1306.241,3146.764,3157.027,-0.06403144,0.03949399,0.05753104,-1.02311992645264,-0.429812431335449,0.670797944068909,-1.0411492471255,-0.447977434695422,0.644520980787238,0
2.94000244140625,-2.28135061264038,2.11775231361389,2.31332755088806,-2.00517798053537,2.10304431360073,2.38415778000673,1265.791,1304.246,3128.542,3146.542,-0.0623675,0.0398794,0.05629961,-1.01750445365906,-0.427617013454437,0.667967736721039,-1.03525504859546,-0.445441325732794,0.640872191117535,0
2.9599609375,-2.30158376693726,2.10924696922302,2.32663226127625,-2.02577934803935,2.09418012069934,2.39691100787092,1287.093,1304.474,3120.581,3124.525,-0.06072273,0.04029134,0.05498773,-1.01166915893555,-0.425263375043869,0.665240943431854,-1.02912348666547,-0.442803085930327,0.637076462196068,0
2.97998046875,-2.32169580459595,2.10079145431519,2.33988690376282,-2.04631823718085,2.08534281049189,2.40962555865248,1255.882,1301.579,3129.656,3139.281,-0.05919035,0.04066139,0.05379623,-1.0056072473526,-0.422783106565475,0.662729561328888,-1.0227194988233,-0.440047628868552,0.633112088657521,0
3,-2.34168195724487,2.09238767623901,2.35307836532593,-2.06672639957428,2.07656174835205,2.42225918334961,1258.902,1297.578,3118.494,3138.749,-0.05757008,0.04106549,0.05253011,-0.999295353889465,-0.420160710811615,0.659574031829834,-1.01606400046349,-0.437183953857422,0.628992018127441,0
3.01995849609375,-2.36153721809387,2.08403968811035,2.36620736122131,-2.08693723170091,2.06786559191325,2.43477065121144,1277.797,1296.723,3114.01,3115.242,-0.05590241,0.04150439,0.05116467,-0.992767751216888,-0.41740357875824,0.65644896030426,-1.00918107987623,-0.434222425415264,0.624731162404951,0
3.03997802734375,-2.38125729560852,2.07574939727783,2.37927532196045,-2.10706940546153,2.05920327997188,2.4472334257977,1253.198,1294.347,3120.089,3125.036,-0.05428108,0.04191522,0.04989788,-0.98600697517395,-0.41452544927597,0.653399050235748,-1.00203140433628,-0.431146119769234,0.620305172659443,0
3.05999755859375,-2.40083694458008,2.06751942634583,2.39226913452148,-2.12705600675913,2.05060360379452,2.45960608409476,1263.091,1290.579,3105.889,3120.628,-0.0525724,0.04236035,0.04855787,-0.97899466753006,-0.411503076553345,0.649688005447388,-0.994638524886308,-0.427965170275055,0.615728628108227,0
3.0799560546875,-2.42027235031128,2.0593523979187,2.40519046783447,-2.14683195375245,2.04209456627929,2.47184833734263,1281.223,1289.675,3100.55,3099.112,-0.0508733,0.04282673,0.04714471,-0.971766233444214,-0.408345341682434,0.646065592765808,-0.987029064241807,-0.424691031943446,0.611018009480403,0
3.0999755859375,-2.43955850601196,2.05125117301941,2.41804218292236,-2.16651343412374,2.03362617511243,2.48403211125138,1251.803,1287.066,3108.033,3112.391,-0.04926209,0.04325369,0.04584715,-0.964312613010406,-0.405075073242188,0.642581284046173,-0.979159571260203,-0.421305008961644,0.606146418448853,0
3.1199951171875,-2.45869088172913,2.04321765899658,2.43081092834473,-2.18603502400946,2.02522658035469,2.49611690533293,1257.662,1282.795,3095.636,3110.059,-0.0475566,0.04371149,0.044474,-0.956620812416077,-0.401677519083023,0.638440847396851,-0.971056158224178,-0.417818336715394,0.601130019760458,0
3.13995361328125,-2.47766542434692,2.03525471687317,2.44349789619446,-2.20533331276045,2.01692306583692,2.50806346537477,1277.049,1281.968,3090.129,3086.763,-0.04582341,0.04419629,0.0430087,-0.94871860742569,-0.398157119750977,0.63434773683548,-0.962747895957759,-0.414243523568132,0.595986809640128,0
3.15997314453125,-2.4964771270752,2.02736377716064,2.45610499382019,-2.22452176174551,2.00866681230185,2.51994202936911,1251.351,1280.086,3095.455,3097.582,-0.04416746,0.04464625,0.04164525,-0.940591931343079,-0.394529342651367,0.630354940891266,-0.954187384555097,-0.410560174664568,0.590687445288169,0
3.17999267578125,-2.5151219367981,2.0195484161377,2.46861982345581,-2.24353658854737,2.00048526354177,2.53171311296128,1258.642,1276.001,3082.904,3093.932,-0.04243428,0.04512342,0.0402115,-0.932232677936554,-0.390782386064529,0.625743806362152,-0.945403214201559,-0.406780591562751,0.585249625391267,0
3.199951171875,-2.53359508514404,2.01180982589722,2.48104381561279,-2.26231619777688,1.99240492233186,2.54333858567119,1275.978,1275.134,3077.648,3072.407,-0.04070056,0.04561916,0.03870183,-0.923665344715118,-0.386922031641006,0.621194541454315,-0.936426808583845,-0.40291829499719,0.579692802708405,0
3.219970703125,-2.55189299583435,2.00415015220642,2.49337887763977,-2.2809710931091,1.98437824202785,2.55488685453773,1249.642,1273.321,3083.269,3083.295,-0.03905366,0.04607729,0.03729819,-0.914880454540253,-0.382966041564941,0.616753935813904,-0.927207006545169,-0.398951271751399,0.573985306046387,0
3.239990234375,-2.57001042366028,1.99657225608826,2.50561285018921,-2.2994392795179,1.97643189735754,2.5663195416865,1255.535,1269.068,3071.384,3080.285,-0.03733059,0.04655861,0.03583076,-0.905874669551849,-0.37890613079071,0.611699283123016,-0.917774783907129,-0.394892849856044,0.568146310914365,0
3.25994873046875,-2.58794379234314,1.98907709121704,2.51774668693542,-2.31766111495966,1.9685915506261,2.57759972585135,1273.377,1268.17,3065.978,3058.178,-0.03559634,0.04705741,0.03428786,-0.89666885137558,-0.374745458364487,0.60669082403183,-0.908163813044036,-0.390757517593098,0.562196662116077,0
3.27996826171875,-2.60568857192993,1.98166739940643,2.52978229522705,-2.33574392582143,1.96081102228753,2.58879384717852,1248.289,1266.751,3070.457,3068.504,-0.03395104,0.04751806,0.03285129,-0.887253046035767,-0.370498448610306,0.601778328418732,-0.898319376918855,-0.386521731750139,0.556102487199064,0
3.29998779296875,-2.62324142456055,1.97434413433075,2.54170775413513,-2.35362764460945,1.95311615770631,2.59986472102797,1254.014,1262.492,3058.623,3065.656,-0.03224023,0.04799782,0.03135598,-0.877629518508911,-0.366159677505493,0.596274852752686,-0.888274735793772,-0.382199803288803,0.549884375850026,0
3.3199462890625,-2.6405975818634,1.96710968017578,2.55352449417114,-2.37125471419307,1.94553172210779,2.61077671679401,1270.577,1261.649,3053.865,3044.059,-0.03052515,0.04849063,0.02979257,-0.867816209793091,-0.361732959747314,0.590839624404907,-0.878065697626514,-0.377807139372939,0.543564494900563,0
3.3399658203125,-2.65775394439697,1.95996499061584,2.56523394584656,-2.38872907693451,1.93801299199733,2.62159417975029,1245.283,1260.507,3057.608,3054.917,-0.02890062,0.04894476,0.02833606,-0.857803344726563,-0.357231050729752,0.585477292537689,-0.867634212728789,-0.373318762843399,0.537106908828335,0
3.3599853515625,-2.67470598220825,1.95291197299957,2.57682490348816,-2.40599272667425,1.93058492580486,2.63228120132087,1251.44,1256.243,3046.396,3051.04,-0.02720739,0.04941627,0.02682089,-0.847598731517792,-0.352651447057724,0.579551517963409,-0.857015715678588,-0.368749920209162,0.530533553325099,0
3.3800048828125,-2.69145035743713,1.94595193862915,2.58829855918884,-2.42304196557559,1.92324911460621,2.64283549236868,1267.459,1255.555,3041.401,3030.028,-0.02551148,0.04989833,0.0252447,-0.837214529514313,-0.347995460033417,0.573683619499207,-0.846214826007803,-0.364102599125748,0.523847288101157,0
3.39996337890625,-2.70798301696777,1.93908643722534,2.59965395927429,-2.43982220956584,1.91602904440295,2.65322326275251,1252.815,1255.016,3039.307,3035.894,-0.02393862,0.05034754,0.0237498,-0.826640009880066,-0.343271642923355,0.567774474620819,-0.835270008391825,-0.3593933498684,0.517071924622901,0
3.41998291015625,-2.7243013381958,1.93231666088104,2.61088967323303,-2.45643259034873,1.90888206159239,2.66350587971929,1237.171,1251.121,3042.957,3038.932,-0.0223322,0.05078277,0.02228931,-0.815900862216949,-0.338497430086136,0.561790645122528,-0.824119146742881,-0.354595445619869,0.510169010073001,0
3.44000244140625,-2.74040126800537,1.92564332485199,2.62199521064758,-2.47281804716281,1.90183185728196,2.67364925803476,1250.241,1248.323,3029.376,3029.45,-0.02062725,0.05124132,0.02075179,-0.804992735385895,-0.333658188581467,0.555272996425629,-0.812800388649434,-0.349725300221754,0.503162159625937,0
3.4599609375,-2.75627970695496,1.9190685749054,2.63297200202942,-2.48892635951887,1.8949009004893,2.68362107072849,1265.753,1248.265,3023.225,3009.992,-0.01895052,0.05170258,0.01917398,-0.793916881084442,-0.328750371932983,0.548839032649994,-0.801354035689029,-0.344800254316973,0.496076321878038,0
3.47998046875,-2.77193307876587,1.91259264945984,2.64382195472717,-2.50485284867397,1.88804817714046,2.69348032619939,1240.92,1247.568,3025.895,3021.462,-0.01739896,0.05212089,0.01771057,-0.782671451568604,-0.323787689208984,0.542501032352448,-0.789715229532172,-0.33979240117828,0.488871346433721,0
3.5,-2.78735828399658,1.90621709823608,2.65453577041626,-2.5205447997813,1.88129636896134,2.70319439144611,1243.751,1243.338,3017.095,3018.802,-0.01580213,0.05254772,0.01620475,-0.771276593208313,-0.318777740001678,0.535692751407623,-0.777924000354857,-0.334718964672089,0.481572013878822,0
3.51995849609375,-2.80255341529846,1.89994263648987,2.665114402771,-2.53595246190338,1.87466688239045,2.71273246826842,1256.643,1242.741,3013.149,2999.693,-0.01419571,0.05298102,0.01465071,-0.759737312793732,-0.313720971345901,0.528930068016052,-0.766022343765667,-0.329598014335553,0.474204321495588,0
3.53997802734375,-2.81751394271851,1.89377021789551,2.67555832862854,-2.55116718971613,1.86812041006291,2.72215110956251,1235.905,1242.423,3014.561,3007.764,-0.01266386,0.05338022,0.01319546,-0.748047053813934,-0.308623075485229,0.522194087505341,-0.753942941956194,-0.324400585196356,0.466726596353819,0
3.55999755859375,-2.83223867416382,1.88770055770874,2.68585801124573,-2.56613872308604,1.86167857751006,2.73141920191151,1242.819,1238.42,3004.234,3002.748,-0.01107768,0.05378908,0.01170097,-0.736223578453064,-0.303485661745071,0.51497894525528,-0.741727567798258,-0.319144650954242,0.459164697851087,0
3.5799560546875,-2.84672403335571,1.8817343711853,2.69601488113403,-2.58081987775597,1.85536168679957,2.74050753601258,1256.002,1237.927,2999.723,2984.389,-0.009506952,0.05419803,0.01017658,-0.724269092082977,-0.298306614160538,0.507843792438507,-0.729419759131231,-0.31384894472519,0.451545577983967,0
3.5999755859375,-2.8609676361084,1.87587237358093,2.70603013038635,-2.59529790318687,1.84913219692586,2.7494701234383,1233.64,1237.666,3001.146,2994.413,-0.008039018,0.05456799,0.00876378,-0.712181806564331,-0.293093830347061,0.500765323638916,-0.716950039288888,-0.308483572640672,0.443826227386424,0
3.6199951171875,-2.87496709823608,1.87011551856995,2.71589517593384,-2.60952509409627,1.84301063413925,2.75827743234631,1237.635,1233.546,2992.376,2991.067,-0.006522614,0.0549442,0.007317757,-0.699985921382904,-0.287853926420212,0.49325230717659,-0.704361775018033,-0.303067194200314,0.436033492140578,0
3.63995361328125,-2.88872122764587,1.86446368694305,2.72561120986938,-2.62345692066038,1.83701615837888,2.76690189665443,1249.952,1233.091,2988.135,2973.281,-0.00500408,0.05532266,0.005836926,-0.687680840492249,-0.28258404135704,0.485800713300705,-0.691699885659414,-0.297619136941538,0.428195179458156,0
3.65997314453125,-2.90222597122192,1.85891819000244,2.73517894744873,-2.63717640706374,1.8311130466576,2.77539491228788,1230.313,1233.171,2988.698,2981.381,-0.003571299,0.05566752,0.004455505,-0.675262749195099,-0.277288526296616,0.478390544652939,-0.678893054168409,-0.29210871513241,0.420267140691237,0
3.67999267578125,-2.91548156738281,1.85347855091095,2.74459028244019,-2.65063849381582,1.82532068681534,2.78372858527554,1235.48,1229.327,2979.815,2977.224,-0.002095375,0.05601823,0.0030441,-0.662754774093628,-0.271973192691803,0.470571994781494,-0.665986083416798,-0.286555206197011,0.41227711095171,0
3.699951171875,-2.92848420143127,1.8481457233429,2.75384712219238,-2.66380138336803,1.81965706316959,2.79187704094374,1246.987,1228.976,2975.999,2960.177,-0.0006301039,0.05636811,0.00160992,-0.650154054164886,-0.266635179519653,0.462839007377625,-0.653025104588123,-0.280978459094862,0.404253647639716,0
3.719970703125,-2.94123363494873,1.84292030334473,2.76294994354248,-2.67674377421065,1.81408831395855,2.7998889974069,1227.666,1229.063,2976.221,2968.672,0.0007413169,0.05668402,0.000279761,-0.637459695339203,-0.261278986930847,0.455141186714172,-0.639937296597115,-0.275347140947358,0.396151671034529,0
3.739990234375,-2.95372748374939,1.83780205249786,2.77189159393311,-2.68942333385363,1.80863265367006,2.80773824883709,1232.011,1225.211,2968.354,2964.774,0.002150463,0.05700372,-0.001073254,-0.624697983264923,-0.255912512540817,0.447078049182892,-0.62676873176137,-0.26968107538565,0.387999702095468,0
3.75994873046875,-2.96596455574036,1.83279132843018,2.78067350387573,-2.70180106441834,1.80330686200183,2.81540065368973,1242.572,1224.851,2964.665,2948.842,0.003550505,0.05732173,-0.002443184,-0.611864566802979,-0.250531941652298,0.439092665910721,-0.613566574519476,-0.264000555950037,0.379826937856771,0
3.77996826171875,-2.97794389724731,1.82788848876953,2.7892963886261,-2.71395125899829,1.79807897271122,2.82292220292874,1224.965,1225.004,2964.421,2956.45,0.00486289,0.05760876,-0.003714044,-0.59895920753479,-0.245140701532364,0.431139916181564,-0.600256853941589,-0.258273755015919,0.371587586789143,0
3.79998779296875,-2.98966407775879,1.82309341430664,2.79775357246399,-2.72583438304408,1.79296599641037,2.83027842278479,1229.245,1221.341,2957.053,2952.484,0.006207346,0.0578981,-0.005001949,-0.586008250713348,-0.239746674895287,0.422859877347946,-0.586886736182787,-0.252520966862155,0.36331084698941,0
3.8199462890625,-3.00112438201904,1.81840658187866,2.80604672431946,-2.73741429475925,1.78798348390461,2.83744693976417,1238.861,1220.998,2953.48,2937.793,0.007538103,0.05818463,-0.006299974,-0.573006093502045,-0.234345808625221,0.414659887552261,-0.573504231419807,-0.246762848926546,0.355026439044019,0
3.8399658203125,-3.01232314109802,1.81382775306702,2.81417655944824,-2.7487608239245,1.78310138939013,2.8444709818276,1222.605,1221.167,2952.889,2944.889,0.008781652,0.0584419,-0.007502657,-0.559953987598419,-0.228941142559052,0.406494110822678,-0.560034590932614,-0.240967238923098,0.346688089934488,0
3.8599853515625,-3.02326059341431,1.80935716629028,2.82213735580444,-2.75983729406747,1.77833549372837,2.85132784449154,1226.698,1217.712,2946.243,2940.776,0.01005016,0.05870035,-0.008718124,-0.546878218650818,-0.22354131937027,0.398044317960739,-0.546525890176286,-0.235154822377061,0.338325560657667,0
3.8800048828125,-3.03393602371216,1.80499422550201,2.82993078231812,-2.77064299647982,1.77368610185671,2.85801708903178,1235.063,1217.405,2942.869,2927.544,0.01129994,0.05895505,-0.009936254,-0.533772468566895,-0.218142449855804,0.389674067497253,-0.532985466132484,-0.229328756186666,0.329943393154704,0
3.89996337890625,-3.04434871673584,1.80073928833008,2.83755660057068,-2.78114566623477,1.76916709647178,2.86451874192163,1225.452,1217.373,2939.937,2931.218,0.01245523,0.05918494,-0.01107609,-0.520639955997467,-0.212747976183891,0.381286114454269,-0.519462149665189,-0.223510050908514,0.32157181605655,0
3.91998291015625,-3.05449867248535,1.79659187793732,2.8450140953064,-2.79140913007042,1.76475101471128,2.87087231495249,1218.123,1215.225,2940.115,2931.157,0.01360698,0.05940263,-0.01217757,-0.507501721382141,-0.207366675138474,0.372878789901733,-0.505880764601328,-0.217666360335509,0.313164291730931,0
