t,x_s1,x_s2,x_s3,x_s_d1,x_s_d2,x_s_d3,propellers_rpms1,propellers_rpms2,propellers_rpms3,propellers_rpms4,rollRad,pitchRad,yawRad,v_s1,v_s2,v_s3,v_s_d1,v_s_d2,v_s_d3,insideCount
0,-0.0599999986588955,2.94000005722046,1.17999994754791,-0.0599999986588955,2.94000005722046,1.17999994754791,0,0,0,0,0,0,0,0,0,0,-1.06581410364015E-15,4.44089209850063E-16,4.44089209850063E-16,0
0.02001953125,-0.0599999986588955,2.94000005722046,1.17811644077301,-0.0600018744611685,2.93999925011514,1.18000110875888,0,0,0,0,-0.01635288,0.0001297794,-0.01587137,-1.10653664009419E-09,-7.76775763711157E-08,-0.0941759571433067,-0.000280531511337879,-0.000120704872184653,0.000173662369087018,5
0.0400390625,-0.0599999986588955,2.94000005722046,1.17242503166199,-0.0600149148426039,2.93999363920332,1.18000918137618,0,0,0,0,-0.03270202,0.0005238493,-0.03175127,-1.08383135799528E-09,-7.60859677484405E-08,-0.284568399190903,-0.00111312228156621,-0.000478945420720547,0.000689075717656889,5
0.05999755859375,-0.0599058866500854,2.93990302085876,1.16596508026123,-0.0600498857373401,2.93997859220429,1.18003083002592,1868.301,3252.834,3183.797,1722.355,-0.04942241,0.0003296772,-0.01369504,0.00470565492287278,-0.00484918523579836,-0.322997570037842,-0.00247936261166862,-0.00106680046642749,0.00153484356504269,5
0.08001708984375,-0.059820368885994,2.93960738182068,1.1600034236908,-0.0601176241590912,2.9399494462538,1.18007276333581,1924.583,2314.076,3252.92,2829.839,-0.07542871,-0.002137986,0.0209508,0.00427583884447813,-0.0147792873904109,-0.29808521270752,-0.00437432711648753,-0.0018821507536715,0.00270791686320324,5
0.10003662109375,-0.0599374249577522,2.93904519081116,1.15498661994934,-0.0602284473618957,2.93990176212568,1.18014136817759,980.9556,1499.185,3913.938,3896.469,-0.1031884,-0.008062454,0.06330721,-0.00585273467004299,-0.0281149372458458,-0.250841677188873,-0.00678144526308166,-0.00291786644505504,0.00419803766288393,4
0.1199951171875,-0.0604638159275055,2.93818378448486,1.15081310272217,-0.0603918861403606,2.93983143898525,1.18024254456713,346.9911,980.4659,4172.419,4613.277,-0.1214306,-0.01541917,0.1039964,-0.0263195671141148,-0.043065033853054,-0.208677634596825,-0.00967801353495435,-0.00416417885169243,0.00599115140585487,4
0.1400146484375,-0.0615636371076107,2.93704152107239,1.14728331565857,-0.0606187761383957,2.93973381455767,1.18038300028418,351.9845,746.5021,3976.997,4854.877,-0.1253976,-0.0211668,0.1351026,-0.0549911186099052,-0.0571137107908726,-0.176491469144821,-0.0130687916036232,-0.00562313592726786,0.00809020455552005,4
0.1600341796875,-0.0633408054709435,2.93568134307861,1.14427530765533,-0.0609183061960198,2.93960493514178,1.18056842365845,821.3716,815.5779,3461.714,4692.259,-0.1184547,-0.02352317,0.1522665,-0.0888586342334747,-0.0680132806301117,-0.150400310754776,-0.0169327949449082,-0.00728570861726639,0.0104822066917805,3
0.17999267578125,-0.065846748650074,2.93417286872864,1.14182555675507,-0.0612985250199726,2.93944133760391,1.18080379722281,1349.391,1083.808,3005.806,4255.126,-0.1079864,-0.02277748,0.1557732,-0.125297248363495,-0.075427271425724,-0.122488208115101,-0.0212433804254414,-0.00914043312572283,0.0131506644458931,3
0.20001220703125,-0.0690848454833031,2.9325544834137,1.14006245136261,-0.0617708265342762,2.93923811945689,1.181096174359,1635.246,1380.027,2920.768,3666.4,-0.09982966,-0.02030181,0.1501573,-0.161904886364937,-0.0809159502387047,-0.0881582498550415,-0.0260142813927851,-0.0111932185284278,0.0161040794142088,3
0.22003173828125,-0.073010079562664,2.93082666397095,1.13903641700745,-0.0623430170958408,2.9389919218434,1.18145038757383,1641.676,1581.165,3147.134,3113.304,-0.09583705,-0.01735529,0.1421915,-0.196261659264565,-0.0863866582512856,-0.0513045713305473,-0.0312204565115429,-0.0134332902383343,0.0193269498172333,3
0.24005126953125,-0.0775497034192085,2.92897415161133,1.13863360881805,-0.0630236859280799,2.93869904906057,1.18187175400574,1525.226,1624.798,3416.44,2777.197,-0.09476273,-0.01467615,0.1377323,-0.226981431245804,-0.0926225557923317,-0.0201385356485844,-0.0368494599812529,-0.015855293175199,0.0228115711116047,3
0.260009765625,-0.0826385766267776,2.92699313163757,1.13863611221313,-0.0638185570309634,2.93835703823113,1.18236381708338,1439.104,1500.852,3533.421,2744.076,-0.09441119,-0.01258823,0.1393004,-0.254443734884262,-0.0990567207336426,0.000126069411635399,-0.0428699302682246,-0.0184457333472145,0.0265385290140116,3
0.280029296875,-0.0882445797324181,2.92490124702454,1.13885378837585,-0.0647405670799769,2.93796032306502,1.18293458522515,1398.129,1274.642,3479.953,2978.025,-0.09322342,-0.01111071,0.1456937,-0.280300229787827,-0.104591503739357,0.0108839655295014,-0.0493064925116944,-0.0212152062638476,0.0305230676586995,3
0.300048828125,-0.0943702906370163,2.92273306846619,1.13920819759369,-0.065795319793345,2.93750649243883,1.18358752739957,1351.184,1062.174,3343.496,3325.029,-0.09053096,-0.009937319,0.1533224,-0.30628576874733,-0.108414866030216,0.0177233330905437,-0.0561292353135736,-0.0241508418861284,0.034746670465374,3
0.32000732421875,-0.101035535335541,2.92052626609802,1.13972556591034,-0.0669865614821475,2.93699393441958,1.18432496275165,1283.131,942.1409,3234.908,3590.117,-0.08598601,-0.008522648,0.1583637,-0.333262264728546,-0.11034494638443,0.0258664675056934,-0.0633036493784043,-0.0272377918282996,0.0391879745362408,3
0.34002685546875,-0.108251348137856,2.91831254959106,1.1404629945755,-0.068328931055223,2.93641635029375,1.18515595346331,1251.166,942.6049,3174.293,3650.272,-0.07945381,-0.006295713,0.1584857,-0.360790431499481,-0.110684640705585,0.0368714854121208,-0.0708617428582823,-0.0304898283040037,0.0438667944422071,4
0.36004638671875,-0.11600299179554,2.91611528396606,1.14145398139954,-0.0698261382244986,2.93577214387594,1.18608279602296,1319.334,1047.518,3119.825,3498.861,-0.07154742,-0.002966229,0.1534804,-0.387582749128342,-0.109864808619022,0.049546405673027,-0.078770346351984,-0.03389267944654,0.0487625967438377,4
0.3800048828125,-0.124251440167427,2.91394996643066,1.14270853996277,-0.0714797725314022,2.93506063123087,1.18710647443246,1457.56,1182.958,3088.57,3230.151,-0.06362186,0.001260226,0.1450326,-0.412422686815262,-0.108260586857796,0.0627285912632942,-0.0869921272359981,-0.0374302820709642,0.0538522707687797,4
0.4000244140625,-0.132943540811539,2.91182661056519,1.14421927928925,-0.0733065984369745,2.93427459907931,1.1882373666918,1577.269,1272.263,3108.446,2981.85,-0.05702307,0.005823124,0.1357508,-0.434605002403259,-0.106172598898411,0.0755357444286346,-0.0955658248284375,-0.0411193046236092,0.0591597980003546,4
0.4200439453125,-0.142024025321007,2.90975046157837,1.14595937728882,-0.0753082460412495,2.93341334603475,1.18947648191054,1631.28,1288.929,3157.519,2845.672,-0.05243444,0.01017368,0.1278617,-0.454024076461792,-0.103811353445053,0.0870073959231377,-0.104455339138072,-0.0449442142867657,0.0646628308243098,4
0.44000244140625,-0.151446551084518,2.90772461891174,1.14789664745331,-0.077483988232608,2.93247718495301,1.19082336997196,1610.208,1239.354,3216.802,2841.195,-0.04966369,0.01397803,0.122454,-0.471125513315201,-0.101295679807663,0.0968624129891396,-0.113620829717891,-0.048887868829098,0.0703367061060819,4
0.46002197265625,-0.161177545785904,2.90575170516968,1.1499992609024,-0.0798530997696509,2.93145782244394,1.19228996286983,1538.117,1156.681,3256.947,2939.131,-0.04789695,0.01718115,0.1193488,-0.486550688743591,-0.0986466854810715,0.105133041739464,-0.123107133063502,-0.0529695601420796,0.0762091797723108,4
0.48004150390625,-0.171194523572922,2.9038360118866,1.15224099159241,-0.0824149649110475,2.93035552344382,1.19387587943091,1473.739,1086.294,3246.906,3068.471,-0.04628627,0.0199834,0.1173876,-0.500848710536957,-0.0957884415984154,0.112084805965424,-0.132875537077637,-0.0571726314917467,0.0822562871906744,5
0.5,-0.181482091546059,2.90198302268982,1.15461695194244,-0.085166398670376,2.92917165836334,1.1955791479969,1435.774,1047.637,3213.613,3167.275,-0.0443379,0.02264696,0.1152156,-0.514378786087036,-0.092645950615406,0.118800058960915,-0.142884000065179,-0.0614789935111996,0.0884520025491718,5
0.52001953125,-0.192025661468506,2.90019822120667,1.15713739395142,-0.0881295333471192,2.92789670429234,1.19741346951549,1419.92,1043.589,3181.829,3211.271,-0.04192774,0.02537408,0.1118951,-0.527177691459656,-0.0892359912395477,0.126021668314934,-0.153182839569029,-0.0659102964334391,0.0948274748038155,5
0.5400390625,-0.202806115150452,2.89848518371582,1.15981197357178,-0.0913013599695072,2.9265319559073,1.1993769812898,1445,1073.468,3147.143,3186.424,-0.03928695,0.02828567,0.1070596,-0.539022624492645,-0.0856499522924423,0.13373014330864,-0.163731040940689,-0.0704488928010329,0.101357313933386,5
0.55999755859375,-0.213799551129341,2.89684438705444,1.16265428066254,-0.094676112580471,2.92507989413848,1.20146611391775,1489.234,1115.3,3135.637,3110.981,-0.03688531,0.0313325,0.1010463,-0.549672782421112,-0.0820378810167313,0.142113402485847,-0.17448465888317,-0.0750758741803766,0.108014315705644,5
0.58001708984375,-0.22497820854187,2.89527273178101,1.1656711101532,-0.0982790918331175,2.92352963282165,1.20369652970884,1516.544,1147.429,3150.581,3036.23,-0.03513668,0.03434034,0.09466399,-0.558932304382324,-0.0785835459828377,0.150838762521744,-0.185498893714783,-0.0798149917263209,0.114832651747179,5
0.60003662109375,-0.236313059926033,2.89376425743103,1.1688539981842,-0.102104766440831,2.92188355191493,1.20606480453317,1539.526,1166.96,3161.558,2981.613,-0.034285,0.03715747,0.08862684,-0.566743016242981,-0.0754288285970688,0.159142076969147,-0.196730728861449,-0.0846477366087834,0.121785692749472,5
0.6199951171875,-0.247778564691544,2.89231085777283,1.17219626903534,-0.106144683970236,2.92014528826426,1.20856570593183,1541.044,1168.632,3179.126,2959.795,-0.03441497,0.03963826,0.083441,-0.573275625705719,-0.0726705715060234,0.167114019393921,-0.208134604141382,-0.0895545055543457,0.128845234789665,5
0.6400146484375,-0.259354144334793,2.89090323448181,1.17569065093994,-0.110427588881679,2.91830247393137,1.21121702809507,1501.366,1155.259,3199.742,2988.722,-0.03535506,0.04169355,0.07930508,-0.578779578208923,-0.0703866705298424,0.174716964364052,-0.21977002223474,-0.0945609009039674,0.136048112861281,5
0.6600341796875,-0.271024078130722,2.88953113555908,1.17932331562042,-0.114945316258235,2.91635862205193,1.21401371655035,1465.661,1144.136,3195.672,3034.069,-0.03677453,0.04338215,0.07591493,-0.58349746465683,-0.0686045363545418,0.181634217500687,-0.231592256338351,-0.0996476779637659,0.143366638942526,5
0.67999267578125,-0.28277724981308,2.88818454742432,1.18309164047241,-0.119686638739014,2.91431856344567,1.21694882102647,1436.499,1140.892,3187.621,3069.972,-0.03843687,0.04478442,0.07286332,-0.587658405303955,-0.0673291683197021,0.188418298959732,-0.243554411173546,-0.104794659005432,0.150771782621969,5
0.70001220703125,-0.294604569673538,2.88685297966003,1.18699634075165,-0.124683985757554,2.91216834463331,1.22004241688759,1398.043,1145.261,3182.424,3104.479,-0.04017964,0.04596205,0.06986874,-0.59136563539505,-0.0665808990597725,0.19523586332798,-0.255719729227087,-0.11002905550423,0.158302694011575,5
0.72003173828125,-0.306497007608414,2.88552570343018,1.19103169441223,-0.129926464684368,2.909912652409,1.2232877610772,1392.349,1162.573,3161.275,3109.972,-0.04192455,0.04701778,0.06664029,-0.594621479511261,-0.0663671940565109,0.201767802238464,-0.268042056234039,-0.115331008569357,0.165930801422716,5
0.74005126953125,-0.31844562292099,2.88419151306152,1.19520151615143,-0.135417121205077,2.90755017629933,1.22668673901976,1400.512,1186.26,3150.541,3088.021,-0.04381912,0.04796129,0.06319527,-0.597430408000946,-0.066711850464344,0.208492234349251,-0.280511663843695,-0.120696332363285,0.173650082542878,5
0.760009765625,-0.330440938472748,2.88283824920654,1.19950711727142,-0.141140917956636,2.9050873864615,1.23023004187122,1392.25,1208.003,3150.024,3074.596,-0.04604606,0.04873472,0.05980221,-0.599764764308929,-0.0676634088158607,0.215282037854195,-0.293080296154222,-0.126104263719567,0.181430664670081,5
0.780029296875,-0.342474102973938,2.88145279884338,1.20394766330719,-0.147135516931739,2.90250807799222,1.23394098419916,1377.034,1225.236,3157.594,3063.847,-0.04859789,0.04930287,0.05668464,-0.601659297943115,-0.0692707300186157,0.222029685974121,-0.305815338775367,-0.131583796783543,0.189314262706778,5
0.800048828125,-0.35453736782074,2.8800220489502,1.20851278305054,-0.153386270014236,2.89981855356665,1.23781049812189,1374.281,1240.187,3151.377,3056.432,-0.05147731,0.04965322,0.05396005,-0.603163778781891,-0.0715397670865059,0.228258892893791,-0.318669158271032,-0.137114436218383,0.197271389286931,5
0.82000732421875,-0.36662557721138,2.87853240966797,1.21320116519928,-0.159875221826383,2.89702653888221,1.24182746840525,1364.134,1251.983,3152.184,3053.986,-0.05472689,0.04974711,0.05174372,-0.604409515857697,-0.0744826793670654,0.234420791268349,-0.331592781842754,-0.14267511039705,0.205271727915392,4
0.84002685546875,-0.378735840320587,2.87697005271912,1.21801137924194,-0.166644154783139,2.89411405613301,1.24601776035448,1319.306,1259.148,3160.232,3081.966,-0.05826943,0.04955092,0.05012856,-0.605514228343964,-0.0781143978238106,0.240508437156677,-0.344656091553402,-0.148295887618918,0.213358538918022,4
0.86004638671875,-0.390867352485657,2.87532186508179,1.22293210029602,-0.173675537522933,2.89108864857417,1.25037052122162,1297.994,1268.502,3149.571,3101.867,-0.06187908,0.0491434,0.04888721,-0.606574952602386,-0.0824049189686775,0.246033251285553,-0.357810651658344,-0.153955927336209,0.221501838261579,4
0.8800048828125,-0.403021246194839,2.87357521057129,1.22796297073364,-0.180948461186242,2.88795931270381,1.25487280742661,1286.29,1281.886,3143.048,3106.411,-0.06550737,0.04855987,0.04789819,-0.607695937156677,-0.0873352140188217,0.251541286706924,-0.371007022483504,-0.159633957038354,0.229671020432672,4
0.9000244140625,-0.41519957780838,2.87171745300293,1.23310422897339,-0.188508963212068,2.88470623989808,1.25955311833725,1250.466,1295.02,3144.164,3127.557,-0.06913513,0.04779737,0.04719644,-0.60891592502594,-0.092888131737709,0.25706472992897,-0.384317079523421,-0.165360902742685,0.237910579786325,4
0.9200439453125,-0.427404522895813,2.86973714828491,1.23834669589996,-0.196336588491207,2.881338231419,1.26439879126654,1245.912,1310.386,3129.901,3130.914,-0.07265476,0.04693075,0.04661844,-0.610248625278473,-0.0990097224712372,0.262123197317123,-0.397691837725364,-0.171115687549493,0.246190192241415,4
0.94000244140625,-0.439639329910278,2.86762356758118,1.24369251728058,-0.204407453948074,2.87786556348678,1.26939504145298,1248.145,1327.591,3124.907,3119.622,-0.07615469,0.04596099,0.04619734,-0.611739814281464,-0.105682641267776,0.267288237810135,-0.411081631631503,-0.176876941799768,0.254479112513653,4
0.96002197265625,-0.451907366514206,2.86536574363708,1.24914348125458,-0.21277195700315,2.87426655149935,1.27457306730061,1217.681,1340.805,3131.44,3133.122,-0.07969297,0.04484591,0.04611912,-0.613401889801025,-0.112893253564835,0.272546321153641,-0.424559845004915,-0.182676240476657,0.262822768648136,3
0.98004150390625,-0.464212417602539,2.86295413970947,1.2546900510788,-0.221406693208946,2.8705512657366,1.27991838034152,1214.8,1352.513,3122.898,3135.269,-0.08314975,0.04363975,0.04629042,-0.615253508090973,-0.120581313967705,0.277327388525009,-0.438077187556039,-0.188492375345573,0.271190647607604,3
1,-0.47655975818634,2.86037969589233,1.260333776474,-0.230284798736574,2.86673126495361,1.28541435058594,1215.816,1364.407,3121.813,3128.652,-0.08657724,0.04233563,0.0467483,-0.617366015911102,-0.128726452589035,0.282185167074203,-0.451584000205995,-0.194303979492187,0.279552008056641,3
1.02001953125,-0.488955199718475,2.85763359069824,1.26607620716095,-0.239461107372567,2.86278295570393,1.29109492275982,1182.137,1372.177,3130.151,3150.745,-0.08998289,0.04089873,0.04762615,-0.619773685932159,-0.13730326294899,0.2871233522892,-0.465154707681581,-0.200143075797255,0.287952922446475,3
1.0400390625,-0.501405298709869,2.8547089099884,1.27190780639648,-0.248909254116304,2.85871768211076,1.29694377567184,1178.683,1379.369,3121.012,3160.271,-0.09320318,0.03940325,0.04873932,-0.622502565383911,-0.146231085062027,0.291583001613617,-0.478739949598525,-0.205988425866395,0.296362834347881,3
1.05999755859375,-0.513917684555054,2.85159921646118,1.27783131599426,-0.258599401509697,2.85454828239877,1.30294243851408,1181.598,1388.466,3118.546,3157.943,-0.09627647,0.03786215,0.05004796,-0.62561970949173,-0.155482679605484,0.29617378115654,-0.492290296490434,-0.211818761581115,0.30475114456651,3
1.08001708984375,-0.526500344276428,2.84829878807068,1.28385019302368,-0.268590868588476,2.85024923324404,1.30912763259543,1151.654,1394.686,3126.61,3180.41,-0.09921873,0.03625137,0.05164499,-0.629134893417358,-0.165027350187302,0.300941050052643,-0.505880764601332,-0.21766636033551,0.313164291730931,3
1.10003662109375,-0.539161086082458,2.84480333328247,1.28995621204376,-0.278854332424133,2.84583315148354,1.31548120562628,1155.187,1401.077,3117.412,3186.326,-0.1018883,0.03465205,0.05333881,-0.633036494255066,-0.174774929881096,0.305302530527115,-0.519462149665191,-0.223510050908515,0.32157181605655,3
1.1199951171875,-0.551908373832703,2.84110927581787,1.29615366458893,-0.289357002179081,2.84131414609862,1.32198285851614,1166.307,1409.198,3116.026,3178.473,-0.1043666,0.03306986,0.05511933,-0.637365698814392,-0.184701472520828,0.309874594211578,-0.532985466132485,-0.229328756186667,0.329943393154705,3
1.1400146484375,-0.564750611782074,2.83721375465393,1.30244779586792,-0.300162704591434,2.83666475422696,1.32867210305637,1142.724,1413.429,3126.917,3196.502,-0.1067027,0.03146598,0.05712835,-0.642110288143158,-0.194781288504601,0.314704328775406,-0.54652589017629,-0.235154822377061,0.338325560657667,3
1.1600341796875,-0.577695429325104,2.83311533927917,1.30883121490479,-0.311239174734401,2.83189885856519,1.33552896572031,1151.277,1417.164,3120.162,3200.103,-0.1087768,0.0299102,0.0592083,-0.647241950035095,-0.204922676086426,0.319168090820313,-0.560034590932616,-0.240967238923098,0.346688089934489,3
1.17999267578125,-0.590751469135284,2.82881307601929,1.3153088092804,-0.322550701230474,2.8270318247214,1.34253133946411,1165.662,1421.877,3121.021,3192.375,-0.1106762,0.02839956,0.06136268,-0.652805209159851,-0.215108007192612,0.323877781629562,-0.573463232144024,-0.246745208083563,0.355001058539242,3
1.20001220703125,-0.603927314281464,2.82430672645569,1.32188665866852,-0.334165615614823,2.82203425154496,1.34972152476313,1143.501,1422.215,3134.628,3212.029,-0.1124397,0.02689038,0.06372841,-0.658789992332458,-0.225318565964699,0.328895181417465,-0.586886736182789,-0.252520966862155,0.363310846989412,3
1.22003173828125,-0.617230474948883,2.81959748268127,1.32855808734894,-0.346048739660615,2.8169212752441,1.35707774461917,1153.504,1422.861,3128.911,3217.765,-0.1139359,0.02545618,0.06612555,-0.665160238742828,-0.2354616522789,0.333568602800369,-0.600256853941591,-0.258273755015919,0.371587586789143,3
1.24005126953125,-0.630669713020325,2.8146870136261,1.33532845973969,-0.358198934240558,2.8116933859535,1.36459929385819,1170.26,1424.969,3130.162,3211.287,-0.1152456,0.02409827,0.06853097,-0.671960413455963,-0.24552409350872,0.338518500328064,-0.613566574519479,-0.264000555950038,0.379826937856772,2
1.260009765625,-0.644252955913544,2.80957746505737,1.34220266342163,-0.37057666480527,2.80636759428526,1.37226169871082,1161.706,1424.726,3137.821,3225.71,-0.1164536,0.02278296,0.07103819,-0.679162621498108,-0.255481034517288,0.343709647655487,-0.626768731761373,-0.26968107538565,0.387999702095469,2
1.280029296875,-0.65798819065094,2.80427122116089,1.34918487071991,-0.383256224448249,2.80091193399677,1.38011095014101,1149.879,1420.704,3152.472,3238.782,-0.1173985,0.02153445,0.07359553,-0.686763286590576,-0.26531508564949,0.349109083414078,-0.639937296597118,-0.275347140947359,0.39615167103453,2
1.300048828125,-0.671882092952728,2.79877281188965,1.35626816749573,-0.396198615290876,2.79534318478573,1.38812290660417,1172.846,1421.173,3143.023,3237.112,-0.1180435,0.02041483,0.07605386,-0.694697260856628,-0.274924010038376,0.354163467884064,-0.653025104588124,-0.280978459094862,0.404253647639717,2
1.32000732421875,-0.685942113399506,2.79308676719666,1.36345970630646,-0.409361504843077,2.78967956113998,1.39627136227237,1195.443,1422.141,3143.259,3228.915,-0.1185671,0.01940051,0.07843819,-0.703001201152802,-0.284305274486542,0.359576821327209,-0.6659860834168,-0.286555206197011,0.41227711095171,2
1.34002685546875,-0.700175166130066,2.78721714019775,1.37076926231384,-0.422823591595166,2.78388720129772,1.40460503526004,1176.653,1417.487,3161.94,3247.762,-0.1190145,0.01843493,0.08089386,-0.711651086807251,-0.293475657701492,0.365479797124863,-0.67889305416841,-0.29210871513241,0.420267140691238,2
1.36004638671875,-0.714586436748505,2.78116989135742,1.37819147109985,-0.43654307799852,2.77798408957644,1.41309805089348,1189.411,1414.914,3159.817,3251.967,-0.1192425,0.01759131,0.08325048,-0.72056782245636,-0.30236142873764,0.371107697486877,-0.691699885659415,-0.297619136941538,0.428195179458157,2
1.3800048828125,-0.729182124137878,2.77495074272156,1.38573169708252,-0.450474904562636,2.77198961381608,1.4217225152016,1212.22,1413.793,3163.041,3241.752,-0.1193256,0.01686672,0.08549192,-0.72978287935257,-0.310962647199631,0.377012342214584,-0.704361775018035,-0.303067194200314,0.436033492140578,2
1.4000244140625,-0.743967473506927,2.7685649394989,1.39339780807495,-0.464702095472036,2.76586805102946,1.43052982410961,1199.789,1407.873,3180.475,3256.219,-0.1193086,0.01620369,0.08776604,-0.739266991615295,-0.31928825378418,0.383307427167892,-0.716950039288891,-0.308483572640673,0.443826227386424,2
1.4200439453125,-0.758946239948273,2.76201963424683,1.40118360519409,-0.479180120902936,2.75963856115575,1.43949241153533,1217.481,1404.927,3175.065,3259.124,-0.1191125,0.01566466,0.0899174,-0.748939573764801,-0.327263623476028,0.389292299747467,-0.729419759131232,-0.313848944725189,0.451545577983966,2
1.44000244140625,-0.774123132228851,2.75532150268555,1.40909576416016,-0.493861275572861,2.75332167044526,1.4485807456364,1239.63,1402.865,3177.9,3250.81,-0.1188446,0.01523645,0.09193411,-0.758845508098602,-0.334903419017792,0.395609766244888,-0.741727567798258,-0.319144650954242,0.459164697851088,2
1.46002197265625,-0.789502203464508,2.74847674369812,1.41714322566986,-0.50883280894277,2.74687983789241,1.45784883798541,1223.183,1395.446,3198.099,3267.25,-0.1185224,0.01486072,0.09395685,-0.768956661224365,-0.342237800359726,0.402375906705856,-0.753942941956197,-0.324400585196357,0.466726596353819,2
1.48004150390625,-0.805085718631744,2.7414927482605,1.4253191947937,-0.524047536755517,2.74033336556487,1.4672674792795,1239.223,1392.189,3193.49,3269.979,-0.1180308,0.01460955,0.09581707,-0.779175400733948,-0.349200695753098,0.408796370029449,-0.766022343765669,-0.329598014335553,0.474204321495588,2
1.5,-0.82087653875351,2.73437666893005,1.43362903594971,-0.539455198877605,2.73370387899399,1.4768055561018,1264.005,1390.316,3195.314,3258.578,-0.1174704,0.01447257,0.09749927,-0.789542138576508,-0.355805814266205,0.415490210056305,-0.777924000354858,-0.334718964672088,0.481572013878822,1
1.52001953125,-0.836877167224884,2.72713494300842,1.44208109378815,-0.555147149984933,2.72695207081487,1.48651962134853,1250.239,1382.876,3214.647,3272.161,-0.1168824,0.01438371,0.09916355,-0.800028026103973,-0.362088084220886,0.422605723142624,-0.789715229532175,-0.33979240117828,0.488871346433721,1
1.5400390625,-0.853087782859802,2.71977519989014,1.45066833496094,-0.571073639140036,2.72009934746603,1.49637887681943,1266.44,1379.854,3209.142,3274.28,-0.1161777,0.01440621,0.1006598,-0.810532510280609,-0.367991060018539,0.429360836744308,-0.801354035689029,-0.344800254316973,0.496076321878038,1
1.55999755859375,-0.869509816169739,2.71230435371399,1.45939600467682,-0.587181951496087,2.71316839067337,1.50635068951315,1289.574,1377.735,3211.344,3263.016,-0.1154544,0.01452651,0.1019781,-0.821102917194366,-0.373538285493851,0.436385929584503,-0.812800388649436,-0.349725300221754,0.503162159625937,1
1.58001708984375,-0.88614410161972,2.70472884178162,1.46827232837677,-0.603567408310176,2.70611818636293,1.51649406782863,1273.6,1369.701,3231.822,3276.527,-0.1147322,0.01467796,0.1032799,-0.831713438034058,-0.378774762153625,0.443813771009445,-0.824119146742882,-0.35459544561987,0.510169010073001,0
1.60003662109375,-0.902989268302917,2.69705581665039,1.47728860378265,-0.620177789093064,2.69897120355237,1.5267766847954,1288.858,1366.869,3225.377,3278.427,-0.1139109,0.01492743,0.1044111,-0.842258393764496,-0.383647948503494,0.450815230607986,-0.835270008391827,-0.359393349868401,0.517071924622902,0
1.6199951171875,-0.920045018196106,2.68929219245911,1.48644936084747,-0.636958033083316,2.69175113334911,1.53716445517924,1312.365,1365.114,3226.17,3266.04,-0.1130911,0.01526201,0.1053571,-0.852791786193848,-0.388182073831558,0.458040446043015,-0.846214826007804,-0.364102599125749,0.523847288101157,0
1.6400146484375,-0.937310874462128,2.68144369125366,1.49576234817505,-0.654007271984653,2.68441532215046,1.54771874622704,1295.431,1357.248,3246.056,3279.153,-0.1122986,0.01561088,0.1062856,-0.863292694091797,-0.392428070306778,0.465646773576736,-0.857015715678588,-0.368749920209162,0.530533553325099,0
1.6600341796875,-0.954784035682678,2.67351698875427,1.5052182674408,-0.671270921724395,2.67698725595799,1.55840576779763,1309.062,1354.956,3238.743,3281.107,-0.1114346,0.01604153,0.1070432,-0.87365460395813,-0.39634108543396,0.472793340682983,-0.86763421272879,-0.373318762843399,0.537106908828335,0
1.67999267578125,-0.972462773323059,2.66551804542542,1.51482093334198,-0.688691692550512,2.66949158495151,1.56919005480539,1331.309,1353.711,3239.036,3268.003,-0.110592,0.0165417,0.1076142,-0.883935332298279,-0.399948745965958,0.480133473873138,-0.878034183119987,-0.377793579561193,0.543544985919778,0
1.70001220703125,-0.990345001220703,2.65745186805725,1.52457737922668,-0.706372354049449,2.66188409024902,1.58013522651994,1313.065,1346.245,3258.71,3280.212,-0.1097909,0.01704024,0.108172,-0.894115805625916,-0.403305917978287,0.487819731235504,-0.888274735793774,-0.382199803288802,0.549884375850026,0
1.72003173828125,-1.00842666625977,2.64932441711426,1.53447711467743,-0.72425607283747,2.65418922566779,1.59120610036939,1325.962,1344.703,3250.03,3281.489,-0.1089339,0.0176051,0.1085662,-0.90408855676651,-0.406370341777802,0.494988024234772,-0.898319376918855,-0.386521731750138,0.556102487199065,0
1.74005126953125,-1.02670502662659,2.64114093780518,1.54452335834503,-0.742338883699245,2.64640869732922,1.60240022169657,1347.68,1344.126,3249.22,3267.425,-0.1081179,0.01822259,0.1087832,-0.913918435573578,-0.409170120954514,0.502314865589142,-0.908163813044036,-0.390757517593098,0.562196662116077,0
1.760009765625,-1.04517650604248,2.63290596008301,1.55471956729889,-0.760560719141003,2.63856835059778,1.61368040586141,1339.312,1340.274,3258.774,3274.985,-0.1074319,0.01883024,0.108967,-0.923575222492218,-0.411747664213181,0.509812951087952,-0.91777478390713,-0.394892849856044,0.568146310914365,0
1.780029296875,-1.06383752822876,2.62462306022644,1.56506717205048,-0.7790289055498,2.63062200592748,1.62511309301018,1322.575,1332.526,3276.413,3283.712,-0.1066788,0.01943951,0.1091147,-0.93304717540741,-0.414144039154053,0.517379283905029,-0.927207006545171,-0.398951271751399,0.573985306046387,0
1.800048828125,-1.08268213272095,2.61629724502563,1.57555258274078,-0.797683800882025,2.62259532562346,1.63666136187673,1345.005,1333.61,3259.687,3278.305,-0.1058276,0.02011575,0.1090725,-0.942235827445984,-0.416293174028397,0.524269163608551,-0.936426808583846,-0.402918294997191,0.579692802708405,0
1.82000732421875,-1.10170674324036,2.60793280601501,1.58617949485779,-0.816463410111527,2.61451498441355,1.64828683458664,1368.084,1334.841,3254.875,3263.449,-0.1050793,0.02082021,0.1088667,-0.951224267482758,-0.418222367763519,0.531347453594208,-0.94540321420156,-0.406780591562751,0.585249625391268,0
1.84002685546875,-1.12090682983398,2.59953260421753,1.59695589542389,-0.835478236913388,2.60633343565348,1.6600579181788,1340.357,1328.33,3275.715,3278.948,-0.1044577,0.02147107,0.1086945,-0.96001011133194,-0.420009642839432,0.538819193840027,-0.954187384555097,-0.410560174664568,0.59068744528817,0
1.86004638671875,-1.14027667045593,2.59109997749329,1.60786962509155,-0.854666685898453,2.59807718211841,1.67193648217314,1344.987,1327.819,3267.84,3281.705,-0.1037962,0.02215112,0.1083879,-0.968483924865723,-0.421628773212433,0.545689582824707,-0.962747895957761,-0.414243523568132,0.595986809640129,0
1.8800048828125,-1.15981090068817,2.58263802528381,1.61892127990723,-0.873964974649439,2.58977366760063,1.68388304221498,1365.424,1328.971,3265.429,3263.918,-0.103149,0.02286101,0.1079199,-0.976710915565491,-0.423100054264069,0.552583754062653,-0.971056158224177,-0.417818336715394,0.601130019760457,0
1.9000244140625,-1.17950463294983,2.57414865493774,1.63011467456818,-0.893486564535158,2.58137407284289,1.69596783629653,1345.25,1324.11,3280.962,3273.312,-0.1025573,0.02352323,0.1074888,-0.984682559967041,-0.424469500780106,0.5596684217453,-0.979159571260204,-0.421305008961645,0.606146418448853,0
1.9200439453125,-1.19935059547424,2.56563472747803,1.64143657684326,-0.91316804490645,2.57290568167603,1.70815161020529,1355.407,1324.971,3267.229,3274.05,-0.1019495,0.02420252,0.1069494,-0.992308795452118,-0.425695598125458,0.566095054149628,-0.987029064241808,-0.424691031943447,0.611018009480403,0
1.94000244140625,-1.21934425830841,2.55709862709045,1.65288913249969,-0.932943991899774,2.5643966441608,1.72039386345315,1372.228,1326.355,3264.273,3259.322,-0.1014254,0.02488354,0.1062895,-0.999678611755371,-0.426809221506119,0.572630882263184,-0.994638524886308,-0.427965170275055,0.615728628108227,0
1.96002197265625,-1.23948001861572,2.54854106903076,1.66447734832764,-0.952930593197372,2.55579696798345,1.73276652175022,1343.067,1321.217,3282.63,3273.445,-0.1009828,0.02549521,0.1056968,-1.0067892074585,-0.427872210741043,0.579411089420319,-1.00203140433628,-0.431146119769234,0.620305172659443,0
1.98004150390625,-1.25975072383881,2.53996419906616,1.67618668079376,-0.973062766957995,2.54713465604207,1.74522929633648,1349.586,1322.277,3269.807,3274.493,-0.10048,0.02612157,0.1049946,-1.01354336738586,-0.428843259811401,0.585467457771301,-1.00918107987623,-0.434222425415264,0.624731162404951,0
2,-1.28015112876892,2.53136944770813,1.68801748752594,-0.993273599084619,2.53843849960327,1.7577407641983,1369.342,1324.841,3264.539,3256.198,-0.100007,0.02675614,0.1041606,-1.02002274990082,-0.429738759994507,0.591539859771729,-1.01606400046349,-0.437183953857422,0.628992018127441,0
2.02001953125,-1.30067563056946,2.52275729179382,1.69997382164001,-1.01368176147806,2.52965743746343,1.77037438889544,1343.069,1321.168,3279.789,3267.986,-0.09960968,0.02731999,0.1034007,-1.02622663974762,-0.430609226226807,0.597816467285156,-1.0227194988233,-0.440047628868552,0.633112088657522,0
2.0400390625,-1.32131707668304,2.51412892341614,1.71204137802124,-1.03422065061955,2.52082012725598,1.78308893967699,1349.053,1322.824,3265.79,3269.271,-0.09917559,0.02788781,0.102553,-1.03206753730774,-0.431413859128952,0.603380799293518,-1.02912348666547,-0.442803085930327,0.637076462196067,0
2.05999755859375,-1.34206962585449,2.50548553466797,1.72422122955322,-1.05482201812353,2.5119559343546,1.79584216754118,1365.676,1325.482,3261.527,3251.912,-0.09878676,0.02845249,0.1015992,-1.03763246536255,-0.432175070047379,0.608990430831909,-1.03525504859546,-0.445441325732794,0.640872191117535,0
2.08001708984375,-1.36292815208435,2.49682664871216,1.73651683330536,-1.07560676837143,2.50301283698163,1.80870891805959,1336.182,1322.059,3277.289,3264.761,-0.09846452,0.0289403,0.1007412,-1.04291892051697,-0.432942718267441,0.614781200885773,-1.0411492471255,-0.447977434695423,0.644520980787238,0
2.10003662109375,-1.38388502597809,2.48815321922302,1.74891293048859,-1.09650693059248,2.49402008106085,1.82164711408721,1342.26,1323.917,3262.491,3265.213,-0.0980773,0.02943269,0.09980509,-1.04784178733826,-0.433669328689575,0.619806230068207,-1.04678460577819,-0.450402172089984,0.648009536242619,0
2.1199951171875,-1.40493476390839,2.47946548461914,1.76140987873077,-1.11745308225396,2.48500753716864,1.83461377976925,1360.16,1327.041,3256.714,3246.623,-0.09771883,0.02992163,0.09877302,-1.05248939990997,-0.434370160102844,0.624846935272217,-1.0521429102862,-0.45270770082608,0.651326581984514,0
2.1400146484375,-1.42607188224792,2.47076392173767,1.77401125431061,-1.13856809990831,2.47592233495728,1.84768498154507,1330.036,1324.16,3271.427,3259.79,-0.09742749,0.0303305,0.09785323,-1.05686318874359,-0.435091197490692,0.63007003068924,-1.05725481901126,-0.454907212340279,0.654491096999312,0
2.1600341796875,-1.44728970527649,2.46204829216003,1.78670167922974,-1.15978280433347,2.46679424031336,1.86081789418076,1334.64,1326.04,3256.228,3261.213,-0.09707009,0.03074122,0.09686751,-1.06088280677795,-0.435784369707108,0.634522795677185,-1.06210153574728,-0.456992619150195,0.65749144554004,0
2.17999267578125,-1.4685822725296,2.45331907272339,1.79948163032532,-1.18102676265167,2.45765355853653,1.8739689163698,1351.663,1329.251,3250.714,3242.257,-0.09672868,0.03114943,0.09579199,-1.06463730335236,-0.436465173959732,0.638998866081238,-1.06666760390386,-0.458957270716794,0.660318059240953,0
2.20001220703125,-1.48994469642639,2.444575548172,1.81235432624817,-1.20242455577657,2.44844668594002,1.88721516963236,1320.622,1326.795,3264.876,3255.571,-0.09643999,0.0314796,0.0948366,-1.06812417507172,-0.437175154685974,0.643637299537659,-1.07097916161324,-0.460812413548163,0.662987118851036,0
2.22003173828125,-1.51137006282806,2.43581819534302,1.82530415058136,-1.22390595867498,2.43920383839376,1.9005131813276,1325.976,1328.719,3249.208,3255.905,-0.09606608,0.03181591,0.0938196,-1.07126665115356,-0.437861949205399,0.647489488124847,-1.0750201524698,-0.462551139021528,0.665488684690339,0
2.24005126953125,-1.53285324573517,2.42704725265503,1.83833122253418,-1.24546553876841,2.42992735338449,1.91385958843066,1343.487,1332.03,3243.017,3236.413,-0.09569909,0.03215178,0.09272237,-1.07415175437927,-0.438537329435349,0.651356399059296,-1.07878900047211,-0.464172769027497,0.667821781138895,0
2.260009765625,-1.55438852310181,2.41826295852661,1.85143566131592,-1.26703177594152,2.42064800401982,1.92721011658316,1325.115,1332.508,3246.661,3244.771,-0.09545089,0.03242259,0.09171699,-1.0767627954483,-0.439224898815155,0.655223727226257,-1.08227399942825,-0.465672266718726,0.669979161506271,0
2.280029296875,-1.57597076892853,2.40946388244629,1.86461567878723,-1.28873109644562,2.41131139261574,1.94064302965718,1299.54,1328.678,3258.783,3253.448,-0.09509935,0.03265155,0.09078205,-1.07911503314972,-0.439948499202728,0.658998727798462,-1.08549510920706,-0.467058220269158,0.671973181902092,0
2.300048828125,-1.5975935459137,2.40065121650696,1.87785398960114,-1.31049213921077,2.40194822384705,1.95411415175103,1317.341,1331.956,3236.932,3245.573,-0.09458749,0.03291351,0.08974579,-1.08113861083984,-0.440627932548523,0.66191291809082,-1.08844000459651,-0.468325326484384,0.673796212432981,0
2.32000732421875,-1.61925184726715,2.39182591438293,1.89115214347839,-1.33224276726637,2.39258953623693,1.96757882664355,1337.156,1335.95,3227.881,3226.189,-0.09411771,0.03317394,0.08864194,-1.08292067050934,-0.441271156072617,0.664909780025482,-1.09109983431736,-0.469469776906228,0.675442773735451,0
2.34002685546875,-1.64094126224518,2.38298726081848,1.90451550483704,-1.35411046309062,2.38318047763645,1.98111597206157,1300.6,1333.569,3242.657,3243.533,-0.093747,0.0333529,0.08768743,-1.08446574211121,-0.441928774118423,0.668169617652893,-1.09348983658457,-0.470498128112872,0.676922298990446,0
2.36004638671875,-1.66265535354614,2.37413597106934,1.91792905330658,-1.37602321127603,2.37375203426358,1.99468100703729,1300.88,1334.304,3230.037,3245.544,-0.09327136,0.03354435,0.08667985,-1.08570277690887,-0.442557007074356,0.670678555965424,-1.09560053017526,-0.471406300598994,0.678228918869363,0
2.3800048828125,-1.68438935279846,2.36527299880981,1.93139207363129,-1.39790843013262,2.36433543599182,2.00822900004707,1318.93,1337.12,3224.439,3223.747,-0.09273873,0.03375407,0.08558771,-1.08670341968536,-0.443161010742188,0.673153698444366,-1.09742594550583,-0.472191725819537,0.679358937915576,0
2.4000244140625,-1.70613873004913,2.35639786720276,1.94490659236908,-1.41989437329222,2.3548754988664,2.02183934619858,1291.259,1335.381,3235.114,3234.742,-0.09221622,0.03390663,0.08462697,-1.08745968341827,-0.443761885166168,0.675727903842926,-1.09897654259203,-0.472858904427064,0.68031883137712,0
2.4200439453125,-1.72789669036865,2.34751176834106,1.95845711231232,-1.44190854257966,2.3454034168267,2.03546716566781,1299.26,1336.309,3217.993,3233.621,-0.09159303,0.03407823,0.08362171,-1.08791160583496,-0.44430023431778,0.677526414394379,-1.10024571396254,-0.473404993411248,0.681104508914477,0
2.44000244140625,-1.74965965747833,2.33861589431763,1.97204494476318,-1.46387808506052,2.33595053645515,2.04906735901791,1315.911,1338.544,3211.999,3214.605,-0.09097359,0.03425732,0.08256037,-1.08814322948456,-0.444788992404938,0.679389774799347,-1.10123038958312,-0.473828671822132,0.681714070030222,0
2.46002197265625,-1.77142262458801,2.32971048355103,1.98567366600037,-1.48593173759011,2.32646146587939,2.06271962049488,1281.358,1335.898,3225.23,3230.467,-0.09039567,0.0343732,0.08164662,-1.08815121650696,-0.445262968540192,0.681433975696564,-1.10193621258339,-0.474132367740737,0.682151008090402,0
2.48004150390625,-1.79318010807037,2.32079744338989,1.99932742118835,-1.50799669231329,2.31696753228548,2.07637887856809,1286.328,1335.904,3210.111,3230.351,-0.08968088,0.03451706,0.08067295,-1.08787262439728,-0.445666760206223,0.682690739631653,-1.10235947007672,-0.474314483615674,0.682413024641327,0
2.5,-1.81492781639099,2.31187725067139,2.01300644874573,-1.52999999932945,2.30750012397766,2.08999997377396,1306.089,1338.126,3203.095,3208.545,-0.08891549,0.03468635,0.07961426,-1.08737874031067,-0.446004003286362,0.683953523635864,-1.10250000050292,-0.474374949932098,0.682500019669533,0
2.52001953125,-1.83666086196899,2.30295133590698,2.02671408653259,-1.55207058900185,2.29800376582252,2.10366272014916,1276.331,1336.025,3214.057,3221.224,-0.08817726,0.03480572,0.07868624,-1.08666229248047,-0.446300357580185,0.685378789901733,-1.10235860927677,-0.474314113237503,0.682412491765153,0
2.5400390625,-1.85837435722351,2.29402136802673,2.04043507575989,-1.57413551786515,2.2885098433554,2.11732196221386,1282.58,1335.771,3198.4,3220.738,-0.08732346,0.03495486,0.07770232,-1.08566451072693,-0.446502208709717,0.686049580574036,-1.10193449000042,-0.47413162656141,0.682149941729488,0
2.55999755859375,-1.88006341457367,2.28508901596069,2.05417060852051,-1.59612191359838,2.27904971150017,2.13093258853001,1300.83,1337.328,3192.563,3199.805,-0.08644035,0.03512817,0.07664338,-1.08445703983307,-0.446619689464569,0.686772406101227,-1.10123038958312,-0.473828671822132,0.681714070030222,0
2.58001708984375,-1.90172386169434,2.27615547180176,2.06792378425598,-1.6181586096433,2.26956793682606,2.14457435313522,1269.362,1334.738,3204.194,3213.573,-0.08558813,0.03525375,0.07571919,-1.08303070068359,-0.446680217981339,0.687659084796906,-1.10024227275454,-0.473403512755585,0.681102378642802,0
2.60003662109375,-1.92335045337677,2.26722288131714,2.08167934417725,-1.64017270144046,2.26009588812827,2.15820212463428,1276.106,1333.759,3189.001,3212.376,-0.0846049,0.03541563,0.07473378,-1.08132994174957,-0.446631073951721,0.687782466411591,-1.09897224258044,-0.472857054252202,0.680316169465104,0
2.6199951171875,-1.94493901729584,2.25829339027405,2.09543824195862,-1.66209156852628,2.2506648119635,2.17177094750084,1295.846,1334.934,3182.586,3190.562,-0.08358118,0.03560703,0.0736684,-1.07942116260529,-0.446478635072708,0.687943041324615,-1.09742594550583,-0.472191725819537,0.679358937915576,0
2.6400146484375,-1.96648502349854,2.24936819076538,2.10920357704163,-1.68404365734903,2.24121944141343,2.18536033620513,1265.5,1332.248,3193.221,3204.108,-0.08259209,0.03575568,0.07273368,-1.07729530334473,-0.446248054504395,0.688269019126892,-1.09559452046326,-0.471403714787811,0.678225198571351,0
2.6600341796875,-1.98798298835754,2.24045062065125,2.12296080589294,-1.7059562766819,2.23179105348221,2.198925291415,1272.123,1330.704,3178.402,3203.029,-0.08147994,0.03594184,0.07173491,-1.07490193843842,-0.445891469717026,0.687860131263733,-1.09348297402779,-0.470495175346408,0.676918050740891,0
2.67999267578125,-2.00942921638489,2.23154234886169,2.13671064376831,-1.72775723139253,2.2224107117184,2.21242112090437,1291.279,1331.426,3172.291,3181.606,-0.08032999,0.03616044,0.07065187,-1.07230222225189,-0.4454165995121,0.687496662139893,-1.09109983431736,-0.469469776906228,0.675442773735451,0
2.70001220703125,-2.03081893920898,2.22264528274536,2.15045666694641,-1.74957429229274,2.21302343991116,2.22592692089233,1261.457,1328.629,3182.776,3194.54,-0.0792136,0.03634124,0.06969044,-1.06948578357697,-0.444848567247391,0.68729966878891,-1.08843144721369,-0.468321644481621,0.673790915005369,0
2.72003173828125,-2.05214667320251,2.21376276016235,2.16418409347534,-1.77133515528999,2.20366034849157,2.23939793170129,1268.602,1326.648,3168.1,3192.917,-0.07797256,0.03656318,0.06865957,-1.0664039850235,-0.444141834974289,0.686370253562927,-1.08548570791771,-0.467054175156991,0.671967362056136,0
2.739990234375,-2.07340884208679,2.20489645004272,2.17789387702942,-1.79296822271738,2.1943522439355,2.25278983096475,1288.61,1327.025,3161.905,3170.778,-0.07669424,0.03681988,0.06754096,-1.0631138086319,-0.443303555250168,0.685487389564514,-1.08227399942825,-0.465672266718727,0.669979161506271,0
2.760009765625,-2.09460115432739,2.19604921340942,2.19158935546875,-1.81460030360772,2.18504456385877,2.26618111951479,1259.289,1324.132,3171.967,3183.474,-0.07545854,0.03704048,0.06654289,-1.0596045255661,-0.442358493804932,0.684773564338684,-1.07877792518082,-0.464168003639063,0.667814925005998,0
2.780029296875,-2.11571788787842,2.1872239112854,2.20525622367859,-1.83615965364354,2.17576817783687,2.27952738420123,1266.103,1321.596,3157.602,3182.136,-0.07410565,0.03730184,0.0654754,-1.05583214759827,-0.441265642642975,0.683338522911072,-1.07500824518964,-0.462546015651526,0.665481313516697,0
2.800048828125,-2.13675475120544,2.17842316627502,2.21889543533325,-1.85764080987419,2.16652543642485,2.29282524319738,1286.08,1321.557,3151.715,3159.775,-0.07271761,0.0375986,0.06431732,-1.05185067653656,-0.440033048391342,0.681957066059113,-1.07096642698373,-0.460806934192852,0.662979235508738,0
2.82000732421875,-2.15770769119263,2.16964960098267,2.23250699043274,-1.87897323600723,2.1573466894188,2.30603103117811,1269.851,1320.266,3152.835,3166.944,-0.07142864,0.03787152,0.06323862,-1.04763722419739,-0.438673257827759,0.680580914020538,-1.06666760390385,-0.458957270716794,0.660318059240952,0
2.84002685546875,-2.1785717010498,2.16090559959412,2.24608969688416,-1.90028201942005,2.14817811521475,2.31922218318877,1248.266,1314.685,3161.855,3173.526,-0.07003687,0.03814223,0.06220264,-1.04320847988129,-0.437205612659454,0.679136514663696,-1.06208716414723,-0.456986435452194,0.657482548835001,0
2.86004638671875,-2.19934225082397,2.15219378471375,2.25962853431702,-1.92149642800033,2.13905014786462,2.33235491268238,1267.573,1313.217,3142.727,3163.218,-0.068472,0.03847354,0.06104674,-1.03851985931396,-0.435573577880859,0.676937758922577,-1.0572396359531,-0.454900679494516,0.654481697963038,0
2.8800048828125,-2.22001457214355,2.14351844787598,2.27312564849854,-1.94254691640495,2.12999271078668,2.34538616777867,1289.297,1313.743,3134.65,3141.136,-0.06692364,0.03883381,0.05980992,-1.03361487388611,-0.433781623840332,0.674852848052979,-1.0521429102862,-0.45270770082608,0.651326581984514,0
2.9000244140625,-2.24058437347412,2.13488101959229,2.28658556938171,-1.96355695821617,2.12095267674793,2.3583923845069,1256.898,1310.678,3144.524,3156.884,-0.06548394,0.03915105,0.05869756,-1.02848613262177,-0.431863367557526,0.672994315624237,-1.04676782045836,-0.450394949835786,0.647999145330045,0
2.9200439453125,-2.26104640960693,2.12628531455994,2.2999951839447,-1.98445677645803,2.11196006883178,2.37133036759502,1260.122,1306.99,3133.412,3156.147,-0.06394516,0.03950624,0.05750853,-1.02310383319855,-0.429798513650894,0.670484066009521,-1.04113166921817,-0.447969871412971,0.644510099225252,0
2.94000244140625,-2.28139638900757,2.11773347854614,2.31335496902466,-2.00517798053537,2.10304431360073,2.38415778000673,1279.202,1306.361,3128.517,3133.045,-0.06235312,0.03989982,0.05621884,-1.01750516891479,-0.427593559026718,0.66798859834671,-1.03525504859546,-0.445441325732794,0.640872191117535,0
2.96002197265625,-2.30162954330444,2.10922813415527,2.32666683197021,-2.02584216016808,2.09415309439512,2.39694989157076,1254.746,1303.762,3135.63,3142.319,-0.06079624,0.0402669,0.05502848,-1.01167416572571,-0.425263851881027,0.66558974981308,-1.02910434715508,-0.442794850733705,0.637064613927399,0
2.98004150390625,-2.32174110412598,2.10077261924744,2.33991694450378,-2.04638065841765,2.08531595237754,2.4096642003716,1264.397,1300.286,3120.988,3138.639,-0.05914721,0.04067073,0.05376837,-1.00558412075043,-0.422779709100723,0.662507116794586,-1.02269958857548,-0.440039062045142,0.633099763265664,0
3,-2.34172677993774,2.09236931800842,2.353107213974,-2.06672639957428,2.07656174835205,2.42225918334961,1283.067,1299.406,3115.397,3117.225,-0.05750138,0.04109962,0.0524321,-0.999277472496033,-0.420150518417358,0.659508585929871,-1.01606400046349,-0.437183953857422,0.628992018127441,0
3.02001953125,-2.36158132553101,2.08402156829834,2.36624050140381,-2.08699882657197,2.06783908936099,2.4348087813708,1253.172,1296.489,3123.801,3130.744,-0.0559365,0.04149027,0.0512117,-0.992745161056519,-0.417401373386383,0.656666874885559,-1.0091596546337,-0.434213206731958,0.624717899159203,0
3.0400390625,-2.3813009262085,2.07573103904724,2.37930345535278,-2.10713056392826,2.05917696519221,2.44727128580198,1259.063,1292.446,3111.007,3128.83,-0.05426989,0.04191641,0.04991286,-0.98596602678299,-0.414511829614639,0.653149783611298,-1.00200923318578,-0.431136580142566,0.620291447661128,0
3.05999755859375,-2.4008800983429,2.06750154495239,2.39229702949524,-2.12705600675913,2.05060360379452,2.45960608409476,1278.92,1291.669,3105.505,3105.361,-0.0525692,0.04237385,0.04851642,-0.97897344827652,-0.411487460136414,0.649681925773621,-0.994638524886308,-0.427965170275055,0.615728628108227,0
3.08001708984375,-2.42031526565552,2.05933475494385,2.40522336959839,-2.14689219650438,2.04206864550612,2.47188563047583,1252.891,1289.471,3111.536,3116.419,-0.05093668,0.0427991,0.04722048,-0.971751749515533,-0.408344984054565,0.646320700645447,-0.987005430654711,-0.424680863071165,0.611003379164165,0
3.10003662109375,-2.43960094451904,2.05123329162598,2.41806983947754,-2.16657319653803,2.03360046101514,2.4840691070327,1260.668,1285.56,3098.472,3112.878,-0.04922161,0.04325604,0.04584905,-0.964285850524902,-0.405067503452301,0.642322063446045,-0.979135219574012,-0.421294531111384,0.606131343595068,0
3.1199951171875,-2.45873284339905,2.04320025444031,2.43083763122559,-2.18603502400946,2.02522658035469,2.49611690533293,1278.651,1284.711,3093.402,3090.828,-0.04750174,0.04373595,0.04439707,-0.956605851650238,-0.401662617921829,0.638394832611084,-0.971056158224178,-0.417818336715394,0.601130019760458,0
3.1400146484375,-2.47770714759827,2.03523707389832,2.44352912902832,-2.20539207344272,2.01689778275692,2.50809984103626,1251.312,1282.48,3099.764,3102.606,-0.04586389,0.04417947,0.04305295,-0.948700308799744,-0.39814966917038,0.634577572345734,-0.962722140342815,-0.41423244164655,0.595970865687568,0
3.1600341796875,-2.49651837348938,2.02734661102295,2.45613169670105,-2.22457999991466,2.00864175404465,2.51997808157008,1258.087,1278.273,3087.484,3099.225,-0.04414083,0.04465141,0.04163803,-0.940560042858124,-0.39451590180397,0.630126953125,-0.954160941629351,-0.410548797012349,0.590671075857482,0
3.17999267578125,-2.51516222953796,2.01953125,2.46864628791809,-2.24353658854737,2.00048526354177,2.53171311296128,1276.386,1277.371,3082.053,3076.932,-0.04240445,0.04514438,0.04014351,-0.932210445404053,-0.390765607357025,0.625725328922272,-0.945403214201559,-0.406780591562751,0.585249625391267,0
3.20001220703125,-2.53363537788391,2.01179313659668,2.48107481002808,-2.26237335188561,1.99238033051557,2.54337396678712,1250.592,1275.5,3087.23,3087.859,-0.04075222,0.04560074,0.03875469,-0.923640608787537,-0.386914968490601,0.621423244476318,-0.93639902618694,-0.402906341007952,0.579675604081262,0
3.22003173828125,-2.5519323348999,2.00413370132446,2.49340510368347,-2.28102768446584,1.98435389234802,2.55492188728337,1256.855,1271.281,3075.001,3084.91,-0.03902703,0.04608084,0.0372998,-0.914846539497375,-0.382954806089401,0.616511523723602,-0.927178570605173,-0.398939036560826,0.573967702844936,0
3.239990234375,-2.57004904747009,1.99655640125275,2.50563836097717,-2.2994392795179,1.97643189735754,2.5663195416865,1274.105,1270.405,3070.113,3062.938,-0.03729491,0.04657835,0.03576966,-0.905850768089294,-0.378890335559845,0.61166650056839,-0.917774783907129,-0.394892849856044,0.568146310914365,0
3.260009765625,-2.58798217773438,1.98906111717224,2.51777648925781,-2.31771654397337,1.96856770107001,2.57763403905129,1248.093,1268.848,3074.634,3074.223,-0.03565014,0.04703816,0.03434468,-0.896642029285431,-0.374736338853836,0.606902360916138,-0.908134108040216,-0.390744736359816,0.562178273303667,0
3.280029296875,-2.60572671890259,1.9816517829895,2.52980756759644,-2.33579875395963,1.96078743127139,2.58882778840789,1254.777,1264.614,3063.111,3070.083,-0.03392974,0.0475199,0.03285431,-0.887221992015839,-0.370487004518509,0.601553916931152,-0.898289055119065,-0.386508685126782,0.556083716560567,0
3.300048828125,-2.62327861785889,1.9743287563324,2.54173254966736,-2.35368185965298,1.95309283048767,2.59989828272254,1271.365,1263.84,3057.693,3049.056,-0.03220614,0.04801593,0.03129582,-0.877606987953186,-0.366144746541977,0.596250355243683,-0.888243810122448,-0.382186496836394,0.549865231386282,0
3.32000732421875,-2.64063429832458,1.9670946598053,2.55355095863342,-2.37130830610839,1.94550866300381,2.61080989274252,1257.034,1263.049,3056.171,3054.337,-0.03060452,0.04848045,0.02981383,-0.867785096168518,-0.361719757318497,0.590918719768524,-0.878034183119985,-0.377793579561194,0.543544985919778,0
3.34002685546875,-2.657790184021,1.95994997024536,2.56526112556458,-2.3887820321449,1.9379902068497,2.62162696154813,1239.78,1258.834,3060.517,3058.469,-0.02896614,0.04893166,0.02836796,-0.857780277729034,-0.357230633497238,0.585507452487946,-0.867602121152829,-0.373304954734798,0.537087042614081,0
3.36004638671875,-2.6747419834137,1.95289671421051,2.57685160636902,-2.40604503376583,1.93056241952464,2.63231358190229,1254.157,1255.947,3046.245,3048.285,-0.02721591,0.0494118,0.02683426,-0.847584307193756,-0.352659225463867,0.579525351524353,-0.856983060951777,-0.368735869792483,0.530513338493643,0
3.3800048828125,-2.691486120224,1.94593667984009,2.58832406997681,-2.42304196557559,1.92324911460621,2.64283549236868,1270.783,1255.866,3039.585,3028.236,-0.02549551,0.04989742,0.0252523,-0.837202310562134,-0.34800261259079,0.573622345924377,-0.846214826007803,-0.364102599125748,0.523847288101157,0
3.4000244140625,-2.70801854133606,1.93907141685486,2.59968066215515,-2.43987318937177,1.91600710921667,2.65325482168089,1244.861,1254.815,3043.237,3040.074,-0.02390187,0.05033928,0.02378499,-0.826631605625153,-0.343277543783188,0.567835569381714,-0.835236272052476,-0.359378834064062,0.51705104022176,0
3.4200439453125,-2.72433662414551,1.93230128288269,2.61091136932373,-2.45648288954422,1.90886041925377,2.66353701731738,1247.535,1250.511,3033.76,3038.039,-0.02225977,0.05079248,0.02226859,-0.815886974334717,-0.338489413261414,0.561537742614746,-0.824084890952781,-0.354580706310386,0.510147804107099,0
3.44000244140625,-2.74043607711792,1.92562866210938,2.62201714515686,-2.47281804716281,1.90183185728196,2.67364925803476,1261.529,1249.808,3029.991,3017.602,-0.02060275,0.05125562,0.02069316,-0.80497807264328,-0.333640664815903,0.555292010307312,-0.812800388649434,-0.349725300221754,0.503162159625937,0
3.46002197265625,-2.75631403923035,1.91905379295349,2.6329984664917,-2.48897526921199,1.89487985601472,2.68365134815842,1239.615,1249.222,3031.89,3026.358,-0.01901923,0.05168436,0.01921725,-0.793895483016968,-0.328738063573837,0.549066722393036,-0.801318788528228,-0.344785088448372,0.496054502206447,0
3.48004150390625,-2.77196717262268,1.91257834434509,2.64384508132935,-2.50490104797632,1.88802743832719,2.69351016386359,1247.387,1245.128,3020.915,3020.897,-0.01737393,0.05212595,0.01769354,-0.782653391361237,-0.323780834674835,0.54232782125473,-0.789679509600139,-0.339777031889425,0.488849234094216,0
3.5,-2.78739237785339,1.90620279312134,2.65455842018127,-2.5205447997813,1.88129636896134,2.70319439144611,1261.485,1244.578,3016.048,3001.823,-0.01574567,0.05256953,0.01613273,-0.77125757932663,-0.318768054246902,0.535663485527039,-0.777924000354857,-0.334718964672089,0.481572013878822,0
3.52001953125,-2.80258655548096,1.89992880821228,2.66513991355896,-2.53599921507943,1.87464676580493,2.71276141071155,1237.694,1244.026,3018.382,3012.342,-0.01422181,0.05297231,0.0146853,-0.759705424308777,-0.313710004091263,0.529069364070892,-0.765985728654519,-0.329582259876133,0.474181654997567,0
3.5400390625,-2.81754684448242,1.89375638961792,2.67557978630066,-2.55121320561109,1.86810061070885,2.72217959559352,1241.667,1239.783,3008.82,3009.447,-0.01264469,0.05338372,0.01319766,-0.748017489910126,-0.308611541986465,0.521992266178131,-0.753905903732742,-0.324384648683532,0.466703667929126,0
3.55999755859375,-2.832270860672,1.88768696784973,2.68587946891785,-2.56613872308604,1.86167857751006,2.73141920191151,1255.408,1239.255,3004.56,2990.009,-0.01105958,0.05379994,0.01166445,-0.736196875572205,-0.303470999002457,0.514979422092438,-0.741727567798258,-0.319144650954242,0.459164697851087,0
3.58001708984375,-2.84675526618958,1.88172137737274,2.69603943824768,-2.58086439685043,1.85534253147694,2.74053509545279,1234.184,1239.163,3005.493,2999.063,-0.009561813,0.05418073,0.01023359,-0.724237442016602,-0.298293739557266,0.50800234079361,-0.729381927869994,-0.313832666990361,0.451522158631107,0
3.60003662109375,-2.8609983921051,1.87585949897766,2.70605087280273,-2.59534166117872,1.84911336908442,2.74949721171974,1240.046,1235.166,2995.909,2994.551,-0.008014517,0.05456975,0.008763805,-0.712160110473633,-0.293084263801575,0.500577688217163,-0.716911837553691,-0.308467135501249,0.443802578692534,0
3.6199951171875,-2.87499761581421,1.87010300159454,2.71591567993164,-2.60952509409627,1.84301063413925,2.75827743234631,1252.488,1234.806,2991.853,2976.429,-0.006477873,0.05495926,0.007263698,-0.699964642524719,-0.287840485572815,0.493236243724823,-0.704361775018033,-0.303067194200314,0.436033492140578,0
3.6400146484375,-2.8887505531311,1.86445152759552,2.72563433647156,-2.62349913748426,1.83699799365897,2.76692803087948,1231.215,1234.713,2992.667,2985.955,-0.005037103,0.05531264,0.005870503,-0.687648832798004,-0.282568633556366,0.485931813716888,-0.691660998977508,-0.297602405088683,0.428171106749629,0
3.6600341796875,-2.90225553512573,1.85890579223633,2.7351987361908,-2.63721784221104,1.83109521827128,2.77542056261789,1236.181,1230.708,2984.223,2981.53,-0.003548929,0.05567212,0.004445597,-0.67523729801178,-0.277275562286377,0.478219449520111,-0.6788538526303,-0.292091847805727,0.42024287307172,0
3.67999267578125,-2.9155101776123,1.85346674919128,2.74461030960083,-2.65063849381582,1.82532068681534,2.78372858527554,1247.619,1230.331,2980.152,2964.629,-0.00206608,0.05603125,0.002996654,-0.662727355957031,-0.271957635879517,0.470573961734772,-0.665986083416798,-0.286555206197011,0.41227711095171,0
3.70001220703125,-2.92851257324219,1.84813451766968,2.75386953353882,-2.66384123964357,1.81963991412768,2.79190171387692,1228.71,1230.331,2980.257,2972.784,-0.0006716492,0.05635727,0.001648364,-0.650117635726929,-0.266619116067886,0.462959736585617,-0.65298533214413,-0.280961346123326,0.404229026602262,0
3.72003173828125,-2.94126129150391,1.84290885925293,2.76296901702881,-2.67678283166196,1.81407150862839,2.79991317582983,1233.512,1226.536,2972.091,2968.561,0.000760645,0.05668736,0.0002750563,-0.637432992458344,-0.261266946792603,0.45497539639473,-0.639897267894093,-0.275329917714721,0.396126891360527,0
3.739990234375,-2.95375466346741,1.83779108524323,2.77191042900085,-2.68942333385363,1.80863265367006,2.80773824883709,1243.848,1226.201,2968.416,2952.706,0.002180706,0.0570154,-0.001114799,-0.62466949224472,-0.255897849798203,0.447071939706802,-0.62676873176137,-0.26968107538565,0.387999702095468,0
3.760009765625,-2.96599125862122,1.83278059959412,2.78069424629211,-2.70183851231475,1.80329074921818,2.81542383572149,1225.603,1226.271,2968.235,2960.802,0.003512467,0.05731171,-0.002405367,-0.611827433109283,-0.250515758991241,0.43919637799263,-0.613526094901139,-0.263983138701136,0.379801879044709,0
3.780029296875,-2.97796988487244,1.82787823677063,2.78931403160095,-2.71398789452788,1.79806320946631,2.82294488206675,1230.286,1222.593,2960.837,2956.3,0.004880514,0.05761141,-0.00371724,-0.598932683467865,-0.245128482580185,0.430988013744354,-0.600216179640806,-0.2582562540006,0.371562407459372,0
3.800048828125,-2.98968958854675,1.8230836391449,2.79777097702026,-2.72587020252115,1.79295058429007,2.83030059674741,1239.871,1222.289,2957.04,2941.666,0.006234513,0.0579083,-0.005040299,-0.585979521274567,-0.239731982350349,0.422851651906967,-0.586845888408904,-0.252503391206207,0.363285560271529,0
3.82000732421875,-3.00114893913269,1.81839692592621,2.80606484413147,-2.73744929742843,1.78796842323393,2.8374686080838,1229.308,1222.265,2954.008,2945.725,0.007489105,0.05817888,-0.006283995,-0.572969436645508,-0.234329849481583,0.414688676595688,-0.573463232144022,-0.246745208083563,0.355001058539243,0
3.84002685546875,-3.01234722137451,1.81381845474243,2.81419467926025,-2.7487950044681,1.78308668245712,2.84449214121233,1220.467,1219.926,2954.658,2946.088,0.008746223,0.05843619,-0.007488276,-0.559924721717834,-0.228932023048401,0.406497180461884,-0.559993461530387,-0.240949542090342,0.346662628875244,0
3.86004638671875,-3.02328443527222,1.8093478679657,2.82215523719788,-2.75987065010211,1.77832114155852,2.85134849346595,1227.93,1217.706,2946.209,2939.336,0.01004447,0.05869843,-0.008713863,-0.546854913234711,-0.223536893725395,0.39802485704422,-0.54648465285111,-0.235137079108075,0.338300032788974,0
3.8800048828125,-3.03395938873291,1.80498480796814,2.82994794845581,-2.77064299647982,1.77368610185671,2.85801708903178,1236.592,1217.568,2942.044,2926.656,0.01130909,0.05895483,-0.009935722,-0.533750891685486,-0.218138888478279,0.389634937047958,-0.532985466132484,-0.229328756186666,0.329943393154704,0
3.9000244140625,-3.04437184333801,1.80072999000549,2.83757400512695,-2.78117737042527,1.76915345504432,2.86453836832583,1221.704,1217.59,2941.597,2933.069,0.01247535,0.05918223,-0.01106277,-0.520617544651031,-0.212742432951927,0.381305634975433,-0.51942076458699,-0.223492244065531,0.321546196721701,0
3.9200439453125,-3.05452156066895,1.79658269882202,2.84502863883972,-2.79144000531776,1.76473772995491,2.87089142820138,1223.644,1214.353,2935.919,2930.533,0.01364885,0.05940778,-0.01219142,-0.507482469081879,-0.207358419895172,0.372737437486649,-0.505839340129745,-0.217648536542653,0.313138648009699,0
