t,x_s1,x_s2,x_s3,x_s_d1,x_s_d2,x_s_d3,propellers_rpms1,propellers_rpms2,propellers_rpms3,propellers_rpms4,rollRad,pitchRad,yawRad,v_s1,v_s2,v_s3,v_s_d1,v_s_d2,v_s_d3,insideCount
0,-0.0599999986588955,2.94000005722046,1.17999994754791,-0.0599999986588955,2.94000005722046,1.17999994754791,0,0,0,0,0,0,0,0,0,0,-1.06581410364015E-15,4.44089209850063E-16,4.44089209850063E-16,0
0.01995849609375,-0.0599999986588955,2.94000005722046,1.17811644077301,-0.0600018573908239,2.93999925746004,1.18000109819152,0,0,0,0,-0.01635288,0.0001297794,-0.01587137,-1.10653664009419E-09,-7.76775763711157E-08,-0.0941759571433067,-0.000278830395522589,-0.000119972929573008,0.00017260929736197,5
0.03997802734375,-0.0599999986588955,2.94000005722046,1.17242503166199,-0.060014847005691,2.93999366839165,1.1800091393819,0,0,0,0,-0.03270202,0.0005238493,-0.03175127,-1.08383135799528E-09,-7.60859677484405E-08,-0.284568399190903,-0.00110975851463131,-0.000477498085781228,0.000686993385685745,5
0.05999755859375,-0.0599058903753757,2.93990302085876,1.16596496105194,-0.0600498857373401,2.93997859220429,1.18003083002592,1868.972,3252.972,3183.281,1722.006,-0.04942614,0.0003307642,-0.01369717,0.00470537692308426,-0.00484890071675181,-0.323006272315979,-0.00247936261166862,-0.00106680046642749,0.00153484356504269,5
0.0799560546875,-0.0598203800618649,2.93960738182068,1.16000306606293,-0.0601173573716436,2.93994956104499,1.18007259818167,1925.496,2314.381,3252.301,2829.28,-0.07544629,-0.002135855,0.02094784,0.00427543744444847,-0.0147797763347626,-0.29809358716011,-0.00436776476082353,-0.00187932715536027,0.00270385445243887,5
0.0999755859375,-0.059937484562397,2.93904495239258,1.15498697757721,-0.0602280337026576,2.93990194011169,1.18014111210282,978.7621,1498.468,3916.333,3896.943,-0.1032097,-0.008066182,0.06331681,-0.00585525576025248,-0.0281223282217979,-0.250803500413895,-0.00677334142420609,-0.00291437958958193,0.00419302100058057,4
0.1199951171875,-0.0604638978838921,2.93818354606628,1.15081334114075,-0.0603918861403606,2.93983143898525,1.18024254456713,346.5809,980.6145,4172.097,4613.561,-0.1214417,-0.0154245,0.1040136,-0.0263205915689468,-0.0430742055177689,-0.20868407189846,-0.00967801353495435,-0.00416417885169243,0.00599115140585487,4
0.13995361328125,-0.0615637339651585,2.93704128265381,1.14728260040283,-0.0606179788203098,2.93973415762137,1.18038250670631,353.2765,747.0821,3974.769,4855.23,-0.1254104,-0.02116947,0.1351159,-0.0549918115139008,-0.057118833065033,-0.176538839936256,-0.0130577281675476,-0.00561837563980114,0.00808335576156468,4
0.15997314453125,-0.0633411929011345,2.93568086624146,1.14427483081818,-0.0609172730813211,2.93960537966217,1.18056778411123,820.0153,814.008,3464.346,4692.653,-0.1184569,-0.0235285,0.1522799,-0.088872879743576,-0.0680225193500519,-0.150386199355125,-0.0169203082141145,-0.00728033592584475,0.0104744768105937,3
0.17999267578125,-0.0658473670482635,2.9341721534729,1.14182472229004,-0.0612985250199726,2.93944133760391,1.18080379722281,1349.249,1084.048,3005.296,4255.334,-0.1079715,-0.02278121,0.1557817,-0.125308603048325,-0.0754353553056717,-0.122502714395523,-0.0212433804254414,-0.00914043312572283,0.0131506644458931,3
0.20001220703125,-0.0690855756402016,2.93255376815796,1.14006054401398,-0.0617708265342762,2.93923811945689,1.181096174359,1637.41,1381.853,2917.201,3666.056,-0.09982593,-0.02030021,0.1501492,-0.161910504102707,-0.0809160321950912,-0.0882102847099304,-0.0260142813927851,-0.0111932185284278,0.0161040794142088,3
0.219970703125,-0.0730111077427864,2.93082594871521,1.13903474807739,-0.0623411120546116,2.93899274152942,1.18144920826256,1641.519,1580.881,3148.545,3112.622,-0.09585143,-0.01735369,0.1421763,-0.196276515722275,-0.0863878801465034,-0.051288329064846,-0.0312039351396938,-0.0134261815535814,0.0193167223010366,3
0.239990234375,-0.0775511041283607,2.92897319793701,1.13863325119019,-0.0630214373585105,2.93870001655724,1.18187036203406,1522.127,1623.183,3420.871,2777.287,-0.09476113,-0.01467988,0.1377308,-0.22699998319149,-0.0926345810294151,-0.0200775451958179,-0.0368316683029241,-0.015847637913056,0.022800557215184,3
0.260009765625,-0.0826400443911552,2.92699193954468,1.13863515853882,-0.0638185570309634,2.93835703823113,1.18236381708338,1439.601,1501.463,3531.793,2744.167,-0.09438349,-0.01258876,0.1393054,-0.25444695353508,-0.0990681797266006,9.44174826145172E-05,-0.0428699302682246,-0.0184457333472145,0.0265385290140116,3
0.27996826171875,-0.0882459133863449,2.92490005493164,1.13885092735291,-0.064737558267485,2.93796161767298,1.18293272262689,1402.402,1276.608,3474.497,2977.447,-0.09321277,-0.01110325,0.1456853,-0.280293554067612,-0.104589372873306,0.0107873538509011,-0.0492862758204926,-0.0212065075864124,0.030510552563791,3
0.29998779296875,-0.0943718999624252,2.92273187637329,1.13920629024506,-0.0657918945890516,2.93750796620855,1.18358540703494,1348.77,1060.022,3348.01,3325.477,-0.09053256,-0.009937852,0.1533194,-0.306299209594727,-0.108413338661194,0.0177666340023279,-0.0561078595514081,-0.0241416444928383,0.0347334378503248,3
0.32000732421875,-0.101037293672562,2.92052483558655,1.13972401618958,-0.0669865614821475,2.93699393441958,1.18432496275165,1280.733,941.4263,3236.494,3591.298,-0.08597004,-0.008525311,0.158367,-0.333270311355591,-0.110347725450993,0.0258841514587402,-0.0633036493784043,-0.0272377918282996,0.0391879745362408,3
0.3399658203125,-0.108252972364426,2.91831111907959,1.14046013355255,-0.0683246067173459,2.93641821093553,1.18515327649217,1254.867,945.2953,3169.031,3649.096,-0.07944582,-0.006289321,0.1584712,-0.360783576965332,-0.110680744051933,0.0368031151592731,-0.0708381612402705,-0.0304796817925674,0.0438521962973096,4
0.3599853515625,-0.116004802286625,2.91611385345459,1.1414520740509,-0.0698213312158394,2.93577421219747,1.18607982025561,1317.687,1045.768,3124.16,3498.176,-0.07154156,-0.002963566,0.1534722,-0.387592017650604,-0.109861999750137,0.0495959147810936,-0.0787457139191101,-0.0338820807988248,0.0487473480944833,4
0.3800048828125,-0.12425322830677,2.91394853591919,1.14270651340485,-0.0714797725314022,2.93506063123087,1.18710647443246,1455.554,1182.154,3089.364,3231.807,-0.06359735,0.001260308,0.145036,-0.412421375513077,-0.108260415494442,0.0627242773771286,-0.0869921272359981,-0.0374302820709642,0.0538522707687797,4
0.39996337890625,-0.132945016026497,2.91182518005371,1.14421546459198,-0.0733007663744719,2.93427710845288,1.18823375636729,1582.403,1274.978,3102.301,2980.242,-0.05701295,0.005832337,0.1357334,-0.434589803218842,-0.106163367629051,0.0754457414150238,-0.0955391997469985,-0.0411078485948847,0.0591433158066154,4
0.41998291015625,-0.14202556014061,2.90974926948547,1.14595711231232,-0.075301871434707,2.93341608884986,1.18947253572543,1628.489,1287.042,3162.923,2845.321,-0.05243711,0.01017546,0.1278558,-0.454027354717255,-0.103801436722279,0.087080329656601,-0.104427768518458,-0.0449323514193797,0.064645763297398,4
0.44000244140625,-0.151447936892509,2.90772342681885,1.1478945016861,-0.077483988232608,2.93247718495301,1.19082336997196,1606.508,1238.247,3218.104,2844.195,-0.04964505,0.01397582,0.1224635,-0.471119284629822,-0.101291008293629,0.0968667417764664,-0.113620829717891,-0.048887868829098,0.0703367061060819,4
0.4599609375,-0.161178559064865,2.90575075149536,1.14999508857727,-0.0798455868024366,2.93146105506384,1.19228531198523,1544.921,1159.435,3250.22,2936.329,-0.04788204,0.01719233,0.1193284,-0.486531615257263,-0.0986347496509552,0.105030469596386,-0.123077777052859,-0.0529569290708118,0.076191007003302,4
0.47998046875,-0.171195492148399,2.90383529663086,1.15223836898804,-0.082406855753501,2.93035901258777,1.1938708594761,1470.984,1084.675,3252.398,3067.801,-0.04628627,0.01998644,0.1173804,-0.500846803188324,-0.0957746580243111,0.112164914608002,-0.132845337826091,-0.057159637597476,0.0822375924153778,5
0.5,-0.181482821702957,2.90198254585266,1.15461432933807,-0.085166398670376,2.92917165836334,1.1955791479969,1431.28,1046.415,3214.854,3171.208,-0.04431873,0.02264465,0.1152267,-0.514366745948792,-0.0926371440291405,0.118800953030586,-0.142884000065179,-0.0614789935111996,0.0884520025491718,5
0.51995849609375,-0.192025870084763,2.90019822120667,1.15713250637054,-0.0881201847785335,2.92790072672023,1.1974076823062,1427.967,1046.411,3174.542,3207.743,-0.04191123,0.02538703,0.11187,-0.527152955532074,-0.0892197042703629,0.12590754032135,-0.153151056234245,-0.0658966209524049,0.0948077994055338,5
0.53997802734375,-0.202806189656258,2.89848566055298,1.15980911254883,-0.0912913676125048,2.92653625533937,1.19937079554481,1441.728,1071.945,3153.318,3185.562,-0.03929121,0.02828906,0.1070506,-0.539016008377075,-0.0856316387653351,0.133828848600388,-0.16369851368286,-0.0704348972306956,0.101337178011302,5
0.55999755859375,-0.213799297809601,2.89684510231018,1.16265141963959,-0.094676112580471,2.92507989413848,1.20146611391775,1483.373,1113.911,3137.003,3116.211,-0.03687093,0.03132909,0.1010601,-0.549655377864838,-0.0820262134075165,0.142115145921707,-0.17448465888317,-0.0750758741803766,0.108014315705644,5
0.5799560546875,-0.224977374076843,2.89527368545532,1.16566562652588,-0.0982677709141994,2.92353450389679,1.20368952152074,1526.438,1150.154,3142.916,3031.312,-0.03511644,0.03435535,0.09463359,-0.558903455734253,-0.0785655677318573,0.150712713599205,-0.185464977731761,-0.0798003986263293,0.114811656138046,5
0.5999755859375,-0.236311972141266,2.89376544952393,1.16885077953339,-0.102092760004862,2.92188871794891,1.20605737197736,1535.84,1165.731,3168.083,2980.6,-0.03429086,0.03716082,0.0886185,-0.56672990322113,-0.0754086226224899,0.159254774451256,-0.196696165293826,-0.0846328648712294,0.121764296254622,5
0.6199951171875,-0.247776985168457,2.8923122882843,1.17219293117523,-0.106144683970236,2.92014528826426,1.20856570593183,1533.942,1167.18,3180.239,2966.498,-0.03440484,0.03963364,0.08346056,-0.573251903057098,-0.0726566314697266,0.16710901260376,-0.208134604141382,-0.0895545055543457,0.128845234789665,5
0.63995361328125,-0.259351938962936,2.89090490341187,1.17568445205688,-0.110414176275438,2.91830824500113,1.21120872505287,1513.126,1157.634,3191.888,2982.491,-0.03533163,0.04170942,0.07927199,-0.578747451305389,-0.0703662633895874,0.174576967954636,-0.219734259350223,-0.0945455131338589,0.136025973932143,5
0.65997314453125,-0.271021544933319,2.88953328132629,1.17931973934174,-0.114931182097002,2.91636470358665,1.21400496683125,1461.133,1143.233,3202.584,3033.263,-0.03678411,0.0433846,0.07590903,-0.583479762077332,-0.0685829743742943,0.181762591004372,-0.231555939228262,-0.0996320517258771,0.143344156921357,5
0.67999267578125,-0.282774180173874,2.88818693161011,1.18308794498444,-0.119686638739014,2.91431856344567,1.21694882102647,1428.115,1139.41,3188.523,3078.092,-0.03843154,0.04477761,0.07288752,-0.587630152702332,-0.0673133954405785,0.188408300280571,-0.243554411173546,-0.104794659005432,0.150771782621969,5
0.70001220703125,-0.294600754976273,2.88685584068298,1.18698966503143,-0.124683985757554,2.91216834463331,1.22004241688759,1411.773,1147.444,3174.363,3096.68,-0.04015195,0.04597932,0.06982963,-0.591331005096436,-0.0665580779314041,0.195084735751152,-0.255719729227087,-0.11002905550423,0.158302694011575,5
0.719970703125,-0.306492626667023,2.88552904129028,1.19102621078491,-0.129910105849058,2.90991969115882,1.22327763417886,1393.52,1163.218,3163.743,3106.723,-0.04196876,0.04702529,0.06661385,-0.594594299793243,-0.0663423761725426,0.201828181743622,-0.268004259419652,-0.115314745656047,0.165907403394098,5
0.739990234375,-0.318440854549408,2.88419485092163,1.19519948959351,-0.135400001298574,2.90755754251682,1.2266761409821,1382.733,1183.727,3160.079,3098.25,-0.04387771,0.04794196,0.06324396,-0.597410321235657,-0.0667041838169098,0.208664536476135,-0.280473432677602,-0.12067988256057,0.173626415629864,5
0.760009765625,-0.330435633659363,2.88284158706665,1.19950330257416,-0.141140917956636,2.9050873864615,1.23023004187122,1392.729,1207.265,3147.027,3076.432,-0.04599759,0.04873126,0.05982817,-0.5997394323349,-0.0676616430282593,0.215190455317497,-0.293080296154222,-0.126104263719567,0.181430664670081,5
0.77996826171875,-0.34246814250946,2.88145661354065,1.20393931865692,-0.147116852635298,2.90251610871756,1.23392943011056,1398.12,1227.723,3146.739,3051.698,-0.04851853,0.04932948,0.05662882,-0.601626992225647,-0.0692498311400414,0.22180101275444,-0.305776327165692,-0.131567011177758,0.189290112662009,5
0.79998779296875,-0.354530960321426,2.88002634048462,1.20850741863251,-0.153366821193532,2.89982692185086,1.2377984583754,1367.015,1240.037,3158.646,3057.907,-0.05148583,0.04965578,0.05395345,-0.603141248226166,-0.0715155005455017,0.228405207395554,-0.318629798715703,-0.137097500901303,0.197247023847227,5
0.82000732421875,-0.366618514060974,2.87853717803955,1.21319615840912,-0.159875221826383,2.89702653888221,1.24182746840525,1350.357,1250.297,3154.195,3066.485,-0.0547482,0.04973458,0.05177679,-0.604377567768097,-0.0744619891047478,0.234438538551331,-0.331592781842754,-0.14267511039705,0.205271727915392,4
0.8399658203125,-0.378728151321411,2.87697529792786,1.21800351142883,-0.166623119864544,2.89412310687084,1.24600473873783,1335.279,1260.556,3153.205,3071.448,-0.05824546,0.04956835,0.05007573,-0.605480909347534,-0.0780886188149452,0.240366742014885,-0.344616121128287,-0.148278689461635,0.213333795320821,4
0.8599853515625,-0.390859156847,2.87532758712769,1.22292768955231,-0.173653699721778,2.89109804476993,1.25035700258242,1291.818,1268.858,3157.318,3100.648,-0.0618908,0.04914578,0.04887238,-0.606551051139832,-0.082390233874321,0.246206656098366,-0.357770416714212,-0.153938615363784,0.221476930914505,4
0.8800048828125,-0.403012275695801,2.87358117103577,1.22795784473419,-0.180948461186242,2.88795931270381,1.25487280742661,1276.617,1280.477,3142.925,3116.511,-0.06550045,0.0485539,0.04792198,-0.607655763626099,-0.0873209312558174,0.251506149768829,-0.371007022483504,-0.159633957038354,0.229671020432672,4
0.89996337890625,-0.415189683437347,2.87172389030457,1.23309516906738,-0.188485507600594,2.88471633219242,1.2595385981964,1270.694,1296.193,3135.302,3115.231,-0.06909039,0.0478204,0.04714035,-0.608871757984161,-0.092860035598278,0.256863385438919,-0.384276397333556,-0.165343398332914,0.237885395572837,4
0.91998291015625,-0.427394062280655,2.86974406242371,1.23834109306335,-0.196312316554895,2.88134867495511,1.26438376578173,1237.361,1310.631,3137.926,3132.265,-0.07268406,0.04692914,0.04662181,-0.610217094421387,-0.0989936590194702,0.262298345565796,-0.397650971463704,-0.171098103938772,0.246164894078718,4
0.94000244140625,-0.439628005027771,2.86763072013855,1.24368667602539,-0.204407453948074,2.87786556348678,1.26939504145298,1234.499,1325.806,3125.973,3132.759,-0.07617813,0.04594566,0.04624553,-0.611696898937225,-0.105668120086193,0.267277628183365,-0.411081631631503,-0.176876941799768,0.254479112513653,4
0.9599609375,-0.451895236968994,2.86537337303162,1.24913370609283,-0.212746045182651,2.87427770063182,1.27455702664937,1237.822,1341.805,3122.93,3120.435,-0.07965728,0.04486394,0.04607091,-0.613360047340393,-0.11286635696888,0.272351086139679,-0.424518689171827,-0.18265853227144,0.262797291226931,3
0.97998046875,-0.464199781417847,2.86296200752258,1.25468373298645,-0.221379956358585,2.87056276985637,1.27990182895749,1207.015,1353.204,3130.673,3135.565,-0.08316999,0.04363767,0.04628932,-0.615226745605469,-0.120570883154869,0.277502357959747,-0.438035925118965,-0.188474621271639,0.271165104193453,3
1,-0.476546227931976,2.86038780212402,1.26032698154449,-0.230284798736574,2.86673126495361,1.28541435058594,1203.533,1362.915,3122.313,3140.727,-0.08658363,0.04232306,0.04678606,-0.61732405424118,-0.128714263439178,0.282161802053452,-0.451584000205995,-0.194303979492187,0.279552008056641,3
1.01995849609375,-0.488940805196762,2.85764241218567,1.26606523990631,-0.23943271784574,2.86279517092421,1.29107734829033,1203.951,1373.245,3121.011,3137.11,-0.08993708,0.04092064,0.04756631,-0.619729518890381,-0.137273848056793,0.286910116672516,-0.465113307397641,-0.200125262411666,0.287927293698547,3
1.03997802734375,-0.501390278339386,2.85471796989441,1.27190053462982,-0.248880035413094,2.85873025410248,1.29692568790267,1169.925,1380.033,3129.26,3161.249,-0.09322982,0.03940136,0.04873573,-0.622474849224091,-0.146221742033958,0.291767209768295,-0.478698517198992,-0.205970598662363,0.296337185718871,3
1.05999755859375,-0.513901829719543,2.85160851478577,1.27782380580902,-0.258599401509697,2.85454828239877,1.30294243851408,1167.935,1386.779,3119.821,3170.75,-0.09629351,0.03784724,0.05009011,-0.625575304031372,-0.155472591519356,0.296166092157364,-0.492290296490434,-0.211818761581115,0.30475114456651,3
1.0799560546875,-0.526483535766602,2.84830856323242,1.28383827209473,-0.268559993341139,2.85026251800042,1.30910851934653,1173.721,1395.722,3117.2,3166.719,-0.09917878,0.0362721,0.05158859,-0.629087328910828,-0.164998561143875,0.300721377134323,-0.505839340129748,-0.217648536542653,0.3131386480097,3
1.0999755859375,-0.539143741130829,2.84481310844421,1.28994798660278,-0.278822628233634,2.845846792911,1.31546157922208,1146.616,1401.648,3125.764,3187.104,-0.1019165,0.03464881,0.05333885,-0.633009493350983,-0.17476949095726,0.305484712123871,-0.519420764586993,-0.223492244065532,0.321546196721701,3
1.1199951171875,-0.551890194416046,2.84111928939819,1.29614531993866,-0.289357002179081,2.84131414609862,1.32198285851614,1152.583,1407.486,3117.318,3191.335,-0.1043815,0.03305308,0.05516668,-0.637320935726166,-0.184694617986679,0.309864550828934,-0.532985466132485,-0.229328756186667,0.329943393154705,3
1.13995361328125,-0.564731359481812,2.83722424507141,1.30243468284607,-0.300129348556794,2.8366791063968,1.32865145408196,1165.253,1414.653,3116.767,3182.92,-0.1066623,0.03148606,0.05707486,-0.642061233520508,-0.194752141833305,0.31446960568428,-0.546484652851112,-0.235137079108074,0.338300032788975,3
1.15997314453125,-0.577675759792328,2.83312582969666,1.30882167816162,-0.311204994190806,2.83191356549821,1.33550780633558,1142.485,1417.592,3128.84,3200.984,-0.1088072,0.02990573,0.05920979,-0.647218644618988,-0.204919263720512,0.319352477788925,-0.559993461530388,-0.240949542090342,0.346662628875245,3
1.17999267578125,-0.590730965137482,2.82882380485535,1.31529927253723,-0.322550701230474,2.8270318247214,1.34253133946411,1151.43,1420.135,3122.769,3205.293,-0.1106916,0.02838126,0.06141131,-0.652763068675995,-0.21510411798954,0.323877036571503,-0.573463232144024,-0.246745208083563,0.355001058539242,3
1.199951171875,-0.603905856609344,2.82431793212891,1.32187235355377,-0.334129796137751,2.82204966366526,1.3496993508005,1166.379,1423.738,3123.871,3198.378,-0.1123987,0.02691103,0.06367344,-0.65874058008194,-0.225289940834045,0.328652381896973,-0.586845888408906,-0.252503391206208,0.363285560271529,3
1.219970703125,-0.617208659648895,2.81960868835449,1.32854735851288,-0.346012104131023,2.81693703848901,1.35705506548116,1144.985,1423.087,3137.877,3218.33,-0.1139641,0.02545216,0.06612436,-0.665140211582184,-0.235460221767426,0.333753228187561,-0.600216179640808,-0.2582562540006,0.371562407459373,3
1.239990234375,-0.630647003650665,2.81469821929932,1.33531785011292,-0.358161486344149,2.81170949873715,1.36457611182642,1155.938,1423.172,3132.208,3224.059,-0.1152584,0.02407965,0.06857936,-0.671919584274292,-0.245522916316986,0.338522791862488,-0.613526094901141,-0.263983138701136,0.379801879044709,2
1.260009765625,-0.644229471683502,2.80958890914917,1.34218955039978,-0.37057666480527,2.80636759428526,1.37226169871082,1173.861,1424.809,3133.567,3217.187,-0.1163668,0.02279427,0.07101386,-0.679120242595673,-0.255466878414154,0.343582272529602,-0.626768731761373,-0.26968107538565,0.387999702095469,2
1.27996826171875,-0.657963633537292,2.804283618927,1.34916758537292,-0.383217166996937,2.80092873932693,1.38008677171809,1166.542,1424.087,3141.668,3230.782,-0.1173783,0.02156086,0.07352477,-0.686709702014923,-0.265270560979843,0.348900109529495,-0.639897267894095,-0.27532991771472,0.396126891360527,2
1.29998779296875,-0.671857237815857,2.79878520965576,1.35625636577606,-0.396158759015336,2.79536033382764,1.388098233671,1155.638,1419.531,3156.916,3243.152,-0.1181336,0.02040094,0.07606738,-0.694679796695709,-0.274919778108597,0.354437440633774,-0.652985332144132,-0.280961346123326,0.404229026602261,2
1.32000732421875,-0.685916423797607,2.79309892654419,1.3634489774704,-0.409361504843077,2.78967956113998,1.39627136227237,1179.589,1419.613,3147.676,3240.88,-0.1186002,0.01937537,0.07849737,-0.702960968017578,-0.28431424498558,0.359631270170212,-0.6659860834168,-0.286555206197011,0.41227711095171,2
1.3399658203125,-0.700148165225983,2.78722977638245,1.3707526922226,-0.422782156447859,2.78390502968405,1.40457938493002,1202.863,1420.079,3148.14,3232.42,-0.1189591,0.01845813,0.08084323,-0.711590707302094,-0.293453931808472,0.365187108516693,-0.678853852630301,-0.292091847805726,0.42024287307172,2
1.3599853515625,-0.714559137821198,2.78118252754211,1.37817752361298,-0.436500861174643,2.77800225429635,1.41307191666844,1184.3,1414.749,3167.416,3251.159,-0.1192542,0.01759007,0.08325236,-0.720545589923859,-0.302359789609909,0.37124040722847,-0.69166099897751,-0.297602405088682,0.428171106749628,2
1.3800048828125,-0.7291539311409,2.77496337890625,1.38571774959564,-0.450474904562636,2.77198961381608,1.4217225152016,1197.041,1411.776,3165.368,3255.622,-0.1193416,0.01684467,0.08555362,-0.729743421077728,-0.310960620641708,0.377014219760895,-0.704361775018035,-0.303067194200314,0.436033492140578,2
1.39996337890625,-0.743938326835632,2.76857829093933,1.3933789730072,-0.464658337480184,2.7658868788709,1.43050273582817,1220.137,1410.31,3168.614,3245.305,-0.1192931,0.01621957,0.08772728,-0.73921674489975,-0.319258838891983,0.383063077926636,-0.716911837553692,-0.30846713550125,0.443802578692535,2
1.41998291015625,-0.758917033672333,2.76203298568726,1.40116906166077,-0.479135601808478,2.75965771647838,1.43946485209513,1207.854,1404.014,3186.322,3259.528,-0.1191525,0.01565587,0.08992168,-0.748935699462891,-0.327266812324524,0.389504611492157,-0.729381927869995,-0.313832666990362,0.451522158631107,2
1.44000244140625,-0.774093329906464,2.75533485412598,1.4090815782547,-0.493861275572861,2.75332167044526,1.4485807456364,1225.728,1401.001,3180.702,3262.263,-0.118843,0.01521637,0.09198175,-0.758815944194794,-0.334912151098251,0.395627975463867,-0.741727567798258,-0.319144650954242,0.459164697851088,2
1.4599609375,-0.789471447467804,2.74849057197571,1.41712319850922,-0.508786793047814,2.74689963724648,1.45782035195439,1248.215,1398.862,3183.415,3253.526,-0.1184718,0.01488705,0.09389598,-0.768903017044067,-0.342211663722992,0.402080416679382,-0.753905903732742,-0.324384648683532,0.466703667929125,2
1.47998046875,-0.805054724216461,2.74150657653809,1.42530286312103,-0.524000783579472,2.74035348215039,1.46723853683636,1231.785,1391.234,3203.915,3269.514,-0.1180579,0.01460797,0.09580895,-0.779168546199799,-0.349199384450912,0.408982485532761,-0.76598572865452,-0.329582259876133,0.474181654997567,2
1.5,-0.820844948291779,2.73439025878906,1.43361341953278,-0.539455198877605,2.73370387899399,1.4768055561018,1247.74,1387.983,3199.177,3272.029,-0.1174859,0.01445048,0.09755472,-0.789511978626251,-0.35581162571907,0.415526926517487,-0.777924000354858,-0.334718964672088,0.481572013878822,1
1.51995849609375,-0.836844384670258,2.72714900970459,1.44206011295319,-0.555098950682584,2.72697280962814,1.48648978368432,1272.602,1386.076,3200.854,3260.28,-0.1168563,0.01440389,0.09911861,-0.799975156784058,-0.362063884735107,0.422334849834442,-0.78967950960014,-0.339777031889425,0.488849234094216,1
1.53997802734375,-0.853055059909821,2.71978902816772,1.45065128803253,-0.571024729446907,2.7201203919406,1.49634859938949,1258.62,1378.498,3220.25,3273.661,-0.1162097,0.01440062,0.1006628,-0.810530364513397,-0.367993712425232,0.429557740688324,-0.801318788528229,-0.344785088448372,0.496054502206448,1
1.55999755859375,-0.869476556777954,2.71231818199158,1.45937943458557,-0.587181951496087,2.71316839067337,1.50635068951315,1274.475,1375.522,3214.525,3275.749,-0.1154576,0.01450399,0.1020378,-0.821076273918152,-0.373547345399857,0.436407953500748,-0.812800388649436,-0.349725300221754,0.503162159625937,1
1.5799560546875,-0.886109709739685,2.70474314689636,1.46824979782104,-0.603517109114681,2.70613982870156,1.51646293023053,1297.334,1373.455,3216.482,3264.38,-0.114696,0.01470064,0.1032326,-0.831661820411682,-0.378749430179596,0.443516284227371,-0.824084890952782,-0.354580706310386,0.510147804107099,0
1.5999755859375,-0.902954995632172,2.69707012176514,1.47727012634277,-0.620126809287134,2.69899313873865,1.52674512586702,1281.018,1365.417,3236.941,3277.651,-0.1139423,0.01492313,0.1044093,-0.842262327671051,-0.383647382259369,0.451019555330276,-0.835236272052476,-0.359378834064062,0.517051040221759,0
1.6199951171875,-0.920010387897491,2.68930625915527,1.48643171787262,-0.636958033083316,2.69175113334911,1.53716445517924,1295.925,1362.764,3230.171,3279.416,-0.1130981,0.01523903,0.1054146,-0.8527712225914,-0.38819083571434,0.458081364631653,-0.846214826007804,-0.364102599125749,0.523847288101157,0
1.63995361328125,-0.937275230884552,2.68145823478699,1.49573886394501,-0.653954964893072,2.68443782843068,1.54768636564562,1319.236,1361.178,3230.659,3266.728,-0.1122624,0.0156348,0.1062342,-0.863243877887726,-0.392404496669769,0.465354532003403,-0.856983060951778,-0.368735869792483,0.530513338493643,0
1.65997314453125,-0.954748451709747,2.6735315322876,1.5051988363266,-0.671217966514002,2.67701004110563,1.55837298599979,1301.876,1353.412,3250.433,3279.633,-0.1114613,0.01603916,0.1070376,-0.873660624027252,-0.396341025829315,0.472999036312103,-0.86760212115283,-0.373304954734798,0.537087042614082,0
1.67999267578125,-0.972426652908325,2.66553235054016,1.51480221748352,-0.688691692550512,2.66949158495151,1.56919005480539,1315.115,1351.337,3242.755,3281.462,-0.1105952,0.01651988,0.107672,-0.883914887905121,-0.399957239627838,0.480168044567108,-0.878034183119987,-0.377793579561193,0.543544985919778,0
1.699951171875,-0.990308046340942,2.65746665000916,1.52455258369446,-0.706318139005925,2.66190741746765,1.58010166482538,1337.071,1350.284,3242.832,3268.017,-0.1097574,0.01706455,0.1081225,-0.894066572189331,-0.403281420469284,0.487520396709442,-0.888243810122449,-0.382186496836395,0.549865231386283,0
1.719970703125,-1.00838994979858,2.64933919906616,1.53445672988892,-0.724201244699276,2.65421281668394,1.59117215914002,1318.15,1342.949,3262.35,3280.251,-0.1089664,0.01760122,0.1085645,-0.904097616672516,-0.406369119882584,0.495206087827682,-0.898289055119065,-0.386508685126782,0.556083716560567,0
1.739990234375,-1.02666795253754,2.64115571975708,1.54450380802155,-0.74228345468553,2.64643254688532,1.60236590849663,1330.65,1341.636,3253.197,3281.486,-0.1081238,0.0181987,0.1088459,-0.913901388645172,-0.409179180860519,0.502355575561523,-0.908134108040217,-0.390744736359816,0.562178273303667,0
1.760009765625,-1.04513883590698,2.63292098045349,1.55469691753387,-0.760560719141003,2.63856835059778,1.61368040586141,1352.062,1341.297,3252.062,3267.17,-0.1073265,0.01884388,0.1089528,-0.923544883728027,-0.411739647388458,0.50965404510498,-0.91777478390713,-0.394892849856044,0.568146310914365,0
1.77996826171875,-1.06379878520966,2.62463903427124,1.56503915786743,-0.778972314193065,2.6306463556073,1.62507806026454,1343.078,1337.662,3261.417,3274.672,-0.1066639,0.01947392,0.1090308,-0.932999014854431,-0.414093911647797,0.517114102840424,-0.927178570605173,-0.398939036560826,0.573967702844936,0
1.79998779296875,-1.08264398574829,2.61631345748901,1.57553172111511,-0.797626646773287,2.62261991743975,1.63662598076079,1325.749,1330.126,3278.906,3283.265,-0.1059352,0.02010023,0.1090777,-0.942253232002258,-0.416283458471298,0.524630963802338,-0.936399026186941,-0.402906341007953,0.579675604081262,0
1.82000732421875,-1.10166811943054,2.60794854164124,1.58616077899933,-0.816463410111527,2.61451498441355,1.64828683458664,1347.834,1331.462,3261.682,3277.799,-0.1051102,0.02078918,0.108939,-0.951209366321564,-0.418241918087006,0.531451940536499,-0.94540321420156,-0.406780591562751,0.585249625391268,0
1.8399658203125,-1.12086713314056,2.59954857826233,1.59692990779877,-0.835419998744244,2.60635849391067,1.66002186597783,1370.784,1332.943,3256.571,3262.53,-0.1043895,0.02150184,0.1086411,-0.9599529504776,-0.419996052980423,0.538453876972198,-0.954160941629351,-0.41054879701235,0.590671075857483,0
1.8599853515625,-1.14023673534393,2.59111618995667,1.60784673690796,-0.854607925216182,2.59810246519841,1.67190010651166,1342.33,1326.672,3277.14,3278.189,-0.1037988,0.02215573,0.1083837,-0.968482494354248,-0.421623677015305,0.545839190483093,-0.962722140342816,-0.41423244164655,0.595970865687568,0
1.8800048828125,-1.15977048873901,2.58265423774719,1.61889886856079,-0.873964974649439,2.58977366760063,1.68388304221498,1346.431,1326.368,3268.912,3281.024,-0.1031698,0.02283476,0.1079966,-0.976690053939819,-0.423098772764206,0.552609801292419,-0.971056158224177,-0.417818336715394,0.601130019760457,0
1.89996337890625,-1.17946338653564,2.57416534423828,1.63008677959442,-0.893426802120876,2.58139978694019,1.69593084051521,1366.61,1327.757,3266.279,3262.92,-0.1025541,0.02353996,0.1074522,-0.984642684459686,-0.424441277980804,0.559397280216217,-0.979135219574012,-0.421294531111384,0.606131343595068,0
1.91998291015625,-1.1993100643158,2.56565117835999,1.64141416549683,-0.91310780215452,2.5729316024492,1.70811431707208,1345.772,1323.129,3281.654,3272.347,-0.1019943,0.02419387,0.1069512,-0.992332279682159,-0.425696730613708,0.566366910934448,-0.98700543065471,-0.424680863071164,0.611003379164165,0
1.94000244140625,-1.21930336952209,2.55711507797241,1.652867436409,-0.932943991899774,2.5643966441608,1.72039386345315,1355.643,1324.181,3267.558,3273,-0.1014158,0.02486154,0.1063473,-0.999669790267944,-0.426822751760483,0.572663247585297,-0.994638524886308,-0.427965170275055,0.615728628108227,0
1.9599609375,-1.23943829536438,2.54855799674988,1.66444861888885,-0.952869434730639,2.55582328276311,1.73272866174593,1372.311,1325.796,3264.116,3258.194,-0.10092,0.0255285,0.105627,-1.00674521923065,-0.427848756313324,0.57905787229538,-1.00200923318578,-0.431136580142566,0.620291447661127,0
1.97998046875,-1.25970959663391,2.53998136520386,1.67616260051727,-0.973001172086935,2.54716115859433,1.74519116617712,1342.746,1320.898,3282.406,3272.096,-0.1005066,0.02612325,0.1049795,-1.01355803012848,-0.428836792707443,0.585699021816254,-1.0091596546337,-0.434213206731958,0.624717899159203,0
2,-1.28010976314545,2.53138637542725,1.68799459934235,-0.993273599084619,2.53843849960327,1.7577407641983,1348.519,1322.079,3269.325,3273.542,-0.1000315,0.02672999,0.1042289,-1.02001094818115,-0.429744452238083,0.591602087020874,-1.01606400046349,-0.437183953857422,0.628992018127441,0
2.01995849609375,-1.30063343048096,2.5227746963501,1.69994497299194,-1.01361934024125,2.52968429557778,1.77033574717631,1368.333,1324.807,3263.897,3254.747,-0.09958199,0.02734363,0.1033496,-1.02618718147278,-0.430587589740753,0.597516715526581,-1.02269958857548,-0.440039062045143,0.633099763265664,0
2.03997802734375,-1.32127523422241,2.51414632797241,1.71201753616333,-1.03415783849082,2.52084715356021,1.78305005597715,1341.619,1321.368,3278.811,3266.668,-0.09920648,0.02788461,0.1025506,-1.03208553791046,-0.431415051221848,0.603626728057861,-1.02910434715509,-0.442794850733705,0.637064613927399,0
2.05999755859375,-1.34202766418457,2.50550270080566,1.72419786453247,-1.05482201812353,2.5119559343546,1.79584216754118,1347.453,1323.123,3264.579,3267.851,-0.09879155,0.02842857,0.1016682,-1.03762090206146,-0.432185143232346,0.609017789363861,-1.03525504859546,-0.445441325732794,0.640872191117535,0
2.0799560546875,-1.36288523674011,2.49684429168701,1.73648691177368,-1.07554322220087,2.50304017912354,1.80866957995289,1363.865,1325.906,3260.083,3250.452,-0.09842031,0.02896785,0.1006841,-1.04288029670715,-0.432919442653656,0.614449620246887,-1.04113166921817,-0.447969871412971,0.644510099225253,0
2.0999755859375,-1.38384234905243,2.48817086219788,1.74888813495636,-1.09644304044274,2.49404757120739,1.82160756304102,1333.961,1322.646,3275.755,3263.297,-0.09811245,0.02942947,0.09980062,-1.04786241054535,-0.433667063713074,0.620062112808228,-1.04676782045836,-0.450394949835787,0.647999145330045,0
2.1199951171875,-1.40489196777344,2.47948336601257,1.76138615608215,-1.11745308225396,2.48500753716864,1.83461377976925,1339.783,1324.553,3260.754,3263.812,-0.09773641,0.02989515,0.09884325,-1.05248248577118,-0.43437933921814,0.624899387359619,-1.0521429102862,-0.45270770082608,0.651326581984514,0
2.13995361328125,-1.42602860927582,2.47078204154968,1.77398109436035,-1.13850357065857,2.4759501000907,1.84764503486553,1357.721,1327.753,3254.76,3245.021,-0.09738434,0.03035777,0.09779264,-1.05682921409607,-0.435070306062698,0.629748582839966,-1.0572396359531,-0.454900679494516,0.654481697963039,0
2.15997314453125,-1.44724667072296,2.46206641197205,1.78667664527893,-1.15971797923886,2.46682213274057,1.86077776435915,1327.321,1325.024,3269.198,3258.316,-0.09709832,0.03074003,0.09685788,-1.06090426445007,-0.435784965753555,0.63477748632431,-1.06208716414724,-0.456986435452193,0.657482548835001,0
2.17999267578125,-1.46853911876678,2.45333695411682,1.79945743083954,-1.18102676265167,2.45765355853653,1.8739689163698,1331.822,1326.887,3254.105,3259.49,-0.09674199,0.03112478,0.09586004,-1.06462907791138,-0.436474829912186,0.639038383960724,-1.06666760390386,-0.458957270716794,0.660318059240953,0
2.199951171875,-1.48990118503571,2.44459390640259,1.81232368946075,-1.20235918878472,2.44847481153047,1.88717470435054,1348.722,1330.123,3248.389,3240.568,-0.09639631,0.03150725,0.09477636,-1.06809079647064,-0.437153995037079,0.64331442117691,-1.07096642698373,-0.460806934192852,0.662979235508738,0
2.219970703125,-1.51132678985596,2.43583631515503,1.82527875900269,-1.22384034501537,2.43923207011845,1.90047256334669,1317.648,1327.756,3262.292,3253.866,-0.09610123,0.03181289,0.09381539,-1.07128798961639,-0.437862575054169,0.647750794887543,-1.07500824518964,-0.462546015651526,0.665481313516697,0
2.239990234375,-1.53280973434448,2.42706561088562,1.83830678462982,-1.24539969505118,2.42995568409656,1.91381882803312,1323.041,1329.634,3246.555,3254.068,-0.09571721,0.03212537,0.09279491,-1.07414519786835,-0.43854758143425,0.651401162147522,-1.07877792518082,-0.464168003639063,0.667814925005999,0
2.260009765625,-1.55434465408325,2.4182813167572,1.85140800476074,-1.26703177594152,2.42064800401982,1.92721011658316,1340.415,1332.927,3240.156,3234.742,-0.09533744,0.03243848,0.09169612,-1.07674849033356,-0.439220041036606,0.655063033103943,-1.08227399942825,-0.465672266718726,0.669979161506271,0
2.27996826171875,-1.57592630386353,2.4094831943512,1.86458265781403,-1.28866484336891,2.41133989946375,1.94060201584662,1322.07,1333.428,3243.787,3242.889,-0.09507432,0.03268812,0.09068982,-1.0790821313858,-0.439903229475021,0.658730328083038,-1.08548570791771,-0.467054175156991,0.671967362056137,0
2.29998779296875,-1.59754943847656,2.40067076683044,1.87782883644104,-1.31042570636616,2.40197680804417,1.95407302665558,1296.211,1329.574,3256.025,3251.569,-0.09470467,0.03289703,0.08975677,-1.08116066455841,-0.44062066078186,0.662307322025299,-1.08843144721369,-0.468321644481621,0.673790915005368,0
2.32000732421875,-1.61920785903931,2.39184498786926,1.89112913608551,-1.33224276726637,2.39258953623693,1.96757882664355,1314.121,1332.728,3233.989,3243.702,-0.09416831,0.03314078,0.08872346,-1.08291411399841,-0.441290467977524,0.665013909339905,-1.09109983431736,-0.469469776906228,0.675442773735451,0
2.3399658203125,-1.64089632034302,2.38300657272339,1.90448522567749,-1.354043721977,2.38320919447311,1.98107465613292,1334.419,1336.672,3224.741,3223.954,-0.09367137,0.03338514,0.08762233,-1.08442962169647,-0.441919833421707,0.667804539203644,-1.09348297402779,-0.470495175346408,0.676918050740891,0
2.3599853515625,-1.66261065006256,2.37415528297424,1.91790246963501,-1.37595634130987,2.37378080654189,1.99463961134278,1297.763,1334.306,3239.423,3241.368,-0.09327243,0.03354886,0.08667265,-1.08571183681488,-0.442559003829956,0.670863389968872,-1.09559452046326,-0.471403714787811,0.678225198571351,0
2.3800048828125,-1.68434429168701,2.36529207229614,1.93136596679688,-1.39790843013262,2.36433543599182,2.00822900004707,1297.817,1334.867,3226.87,3243.568,-0.09276802,0.03372686,0.08567102,-1.08669030666351,-0.443164050579071,0.673172354698181,-1.09742594550583,-0.472191725819537,0.679358937915576,0
2.39996337890625,-1.70609307289124,2.35641717910767,1.94487488269806,-1.41982729721844,2.35490435982705,2.02179782291363,1316.024,1337.571,3221.223,3221.633,-0.09220237,0.03392494,0.08458371,-1.08743596076965,-0.443739801645279,0.675447165966034,-1.09897224258044,-0.472857054252202,0.680316169465103,0
2.41998291015625,-1.72785186767578,2.34753108024597,1.95843136310577,-1.4418413890156,2.34543231112926,2.03542559441269,1288.453,1335.806,3231.92,3232.414,-0.0916447,0.03406826,0.08362763,-1.08794045448303,-0.444306999444962,0.677825689315796,-1.10024227275454,-0.473403512755585,0.681102378642803,0
2.44000244140625,-1.74961471557617,2.33863496780396,1.97201979160309,-1.46387808506052,2.33595053645515,2.04906735901791,1296.547,1336.577,3214.674,3231.357,-0.09098317,0.03423248,0.08262715,-1.08814370632172,-0.444805443286896,0.67942351102829,-1.10123038958312,-0.473828671822132,0.681714070030222,0
2.4599609375,-1.77137732505798,2.32973003387451,1.98564159870148,-1.48586448079375,2.32649040459993,2.06267798533405,1313.533,1338.685,3208.594,3212.13,-0.09032324,0.03440613,0.08156916,-1.08812928199768,-0.445247858762741,0.681089282035828,-1.10193449000042,-0.474131626561409,0.682149941729488,0
2.47998046875,-1.79313516616821,2.32081651687622,1.99930036067963,-1.50792940965705,2.3169964821328,2.07633722739875,1279.032,1336.015,3221.726,3227.978,-0.08970591,0.03451839,0.08065825,-1.08789372444153,-0.445668905973434,0.682940304279327,-1.10235860927677,-0.474314113237503,0.682412491765153,0
2.5,-1.81488275527954,2.31189632415771,2.01298046112061,-1.52999999932945,2.30750012397766,2.08999997377396,1283.909,1335.816,3206.814,3227.848,-0.08895064,0.0346601,0.07968722,-1.0873749256134,-0.446013987064362,0.684008955955505,-1.10250000050292,-0.474374949932098,0.682500019669533,0
2.51995849609375,-1.83661532402039,2.30297088623047,2.02668213844299,-1.55200330634561,2.29803271566984,2.10362106897983,1303.767,1337.873,3199.883,3205.902,-0.08814211,0.03482908,0.07863066,-1.0866425037384,-0.446286410093307,0.685083448886871,-1.10235947007672,-0.474314483615674,0.682413024641328,0
