t,x_s1,x_s2,x_s3,x_s_d1,x_s_d2,x_s_d3,propellers_rpms1,propellers_rpms2,propellers_rpms3,propellers_rpms4,rollRad,pitchRad,yawRad,v_s1,v_s2,v_s3,v_s_d1,v_s_d2,v_s_d3,insideCount
0,-0.0599999986588955,2.94000005722046,1.17999994754791,-0.0599999986588955,2.94000005722046,1.17999994754791,0,0,0,0,0,0,0,0,0,0,-1.06581410364015E-15,4.44089209850063E-16,4.44089209850063E-16,0
0.02001953125,-0.0599999986588955,2.94000005722046,1.17811644077301,-0.0600018744611685,2.93999925011514,1.18000110875888,0,0,0,0,-0.01635288,0.0001297794,-0.01587137,-1.10653664009419E-09,-7.76775763711157E-08,-0.0941759571433067,-0.000280531511337879,-0.000120704872184653,0.000173662369087018,5
0.0400390625,-0.0599999986588955,2.94000005722046,1.17242503166199,-0.0600149148426039,2.93999363920332,1.18000918137618,0,0,0,0,-0.03270202,0.0005238493,-0.03175127,-1.08383135799528E-09,-7.60859677484405E-08,-0.284568399190903,-0.00111312228156621,-0.000478945420720547,0.000689075717656889,5
0.05999755859375,-0.0599058866500854,2.93990302085876,1.16596508026123,-0.0600498857373401,2.93997859220429,1.18003083002592,1868.301,3252.834,3183.797,1722.355,-0.04942241,0.0003296772,-0.01369504,0.00470565492287278,-0.00484918523579836,-0.322997570037842,-0.00247936261166862,-0.00106680046642749,0.00153484356504269,5
0.08001708984375,-0.059820368885994,2.93960738182068,1.1600034236908,-0.0601176241590912,2.9399494462538,1.18007276333581,1924.583,2314.076,3252.92,2829.839,-0.07542871,-0.002137986,0.0209508,0.00427583884447813,-0.0147792873904109,-0.29808521270752,-0.00437432711648753,-0.0018821507536715,0.00270791686320324,5
0.10003662109375,-0.0599374249577522,2.93904519081116,1.15498661994934,-0.0602284473618957,2.93990176212568,1.18014136817759,980.9556,1499.185,3913.938,3896.469,-0.1031884,-0.008062454,0.06330721,-0.00585273467004299,-0.0281149372458458,-0.250841677188873,-0.00678144526308166,-0.00291786644505504,0.00419803766288393,4
0.12005615234375,-0.0604638159275055,2.93818378448486,1.15081310272217,-0.0603924771325442,2.93983118469783,1.18024291041944,346.9911,980.4659,4172.419,4613.277,-0.1214306,-0.01541917,0.1039964,-0.0263195671141148,-0.043065033853054,-0.208677634596825,-0.00968761908958522,-0.00416831185350196,0.0059970977017474,4
0.1400146484375,-0.061563603579998,2.93704152107239,1.1472829580307,-0.0606187761383957,2.93973381455767,1.18038300028418,353.035,747.3238,3975.466,4854.629,-0.1254099,-0.02116467,0.1350985,-0.0549894496798515,-0.0571117140352726,-0.176507622003555,-0.0130687916036232,-0.00562313592726786,0.00809020455552005,4
0.1600341796875,-0.0633409172296524,2.93568110466003,1.14427578449249,-0.0609183061960198,2.93960493514178,1.18056842365845,819.7252,814.1653,3464.859,4692.243,-0.1184633,-0.02352583,0.1522704,-0.0888658910989761,-0.0680188238620758,-0.150358960032463,-0.0169327949449082,-0.00728570861726639,0.0104822066917805,3
0.1800537109375,-0.0658468753099442,2.93417239189148,1.14182603359222,-0.061299822036312,2.93944077953402,1.18080460013771,1349.122,1083.997,3005.436,4255.347,-0.1079816,-0.02278015,0.1557836,-0.12529781460762,-0.0754342377185822,-0.122489742934704,-0.0212572516776453,-0.00914640153802824,0.0131592514117867,3
0.20001220703125,-0.0690848678350449,2.93255400657654,1.14006185531616,-0.0617708265342762,2.93923811945689,1.181096174359,1637.343,1381.569,2917.167,3666.466,-0.09983712,-0.02030074,0.1501608,-0.161899566650391,-0.0809159502387047,-0.0882076770067215,-0.0260142813927851,-0.0111932185284278,0.0161040794142088,3
0.22003173828125,-0.0730103105306625,2.93082618713379,1.13903653621674,-0.0623430170958408,2.9389919218434,1.18145038757383,1640.032,1579.378,3150.612,3113.489,-0.09584451,-0.01735795,0.142198,-0.196272283792496,-0.0863901302218437,-0.0512659475207329,-0.0312204565115429,-0.0134332902383343,0.0193269498172333,3
0.24005126953125,-0.0775500759482384,2.92897367477417,1.13863384723663,-0.0630236859280799,2.93869904906057,1.18187175400574,1524.337,1624.698,3416.644,2777.764,-0.09475581,-0.01467934,0.1377405,-0.226988285779953,-0.0926283001899719,-0.0201318264007568,-0.0368494599812529,-0.015855293175199,0.0228115711116047,3
0.260009765625,-0.0826390236616135,2.92699241638184,1.13863599300385,-0.0638185570309634,2.93835703823113,1.18236381708338,1440.279,1501.59,3531.798,2743.744,-0.09439681,-0.0125877,0.1393008,-0.254447489976883,-0.0990589112043381,0.000105153769254684,-0.0428699302682246,-0.0184457333472145,0.0265385290140116,3
0.280029296875,-0.0882451236248016,2.9249005317688,1.13885343074799,-0.0647405670799769,2.93796032306502,1.18293458522515,1398.859,1274.833,3479.387,2977.794,-0.09321383,-0.01110858,0.145687,-0.280305027961731,-0.10458954423666,0.0108742974698544,-0.0493064925116944,-0.0212152062638476,0.0305230676586995,3
0.300048828125,-0.09437096118927,2.92273235321045,1.1392080783844,-0.065795319793345,2.93750649243883,1.18358752739957,1350.941,1062.138,3343.941,3324.941,-0.09052883,-0.009936254,0.1533128,-0.306291967630386,-0.108412198722363,0.0177349355071783,-0.0561292353135736,-0.0241508418861284,0.034746670465374,3
0.32000732421875,-0.101036310195923,2.92052555084229,1.13972580432892,-0.0669865614821475,2.93699393441958,1.18432496275165,1282.701,942.1459,3235.537,3589.877,-0.08598601,-0.008521583,0.158355,-0.333267450332642,-0.110344275832176,0.0258850865066051,-0.0633036493784043,-0.0272377918282996,0.0391879745362408,3
0.34002685546875,-0.108252160251141,2.91831183433533,1.14046335220337,-0.068328931055223,2.93641635029375,1.18515595346331,1251.11,942.6572,3174.45,3650.038,-0.07945222,-0.00629518,0.1584809,-0.360792189836502,-0.110685840249062,0.0368796400725842,-0.0708617428582823,-0.0304898283040037,0.0438667944422071,4
0.36004638671875,-0.116003789007664,2.91611456871033,1.14145421981812,-0.0698261382244986,2.93577214387594,1.18608279602296,1319.599,1047.537,3119.574,3498.795,-0.07154582,-0.002965163,0.15348,-0.387581586837769,-0.109865933656693,0.049542710185051,-0.078770346351984,-0.03389267944654,0.0487625967438377,4
0.3800048828125,-0.124252200126648,2.91394925117493,1.14270865917206,-0.0714797725314022,2.93506063123087,1.18710647443246,1457.691,1182.844,3088.381,3230.343,-0.06362186,0.001260612,0.1450355,-0.412420988082886,-0.108260549604893,0.0627226829528809,-0.0869921272359981,-0.0374302820709642,0.0538522707687797,4
0.4000244140625,-0.132944285869598,2.91182589530945,1.14421939849854,-0.0733065984369745,2.93427459907931,1.1882373666918,1577.082,1272.09,3108.511,2982.165,-0.05702467,0.005822414,0.1357551,-0.434604555368423,-0.106171794235706,0.075534775853157,-0.0955658248284375,-0.0411193046236092,0.0591597980003546,4
0.4200439453125,-0.142024785280228,2.90974974632263,1.1459596157074,-0.0753082460412495,2.93341334603475,1.18947648191054,1631.008,1288.83,3157.651,2845.899,-0.05243551,0.01017289,0.1278652,-0.454025000333786,-0.103810451924801,0.0870099887251854,-0.104455339138072,-0.0449442142867657,0.0646628308243098,4
0.44000244140625,-0.151447325944901,2.90772390365601,1.14789688587189,-0.077483988232608,2.93247718495301,1.19082336997196,1610.157,1239.376,3216.792,2841.207,-0.04966156,0.01397784,0.1224549,-0.471126914024353,-0.10129476338625,0.0968640595674515,-0.113620829717891,-0.048887868829098,0.0703367061060819,4
0.46002197265625,-0.161178350448608,2.90575098991394,1.14999949932098,-0.0798530997696509,2.93145782244394,1.19228996286983,1538.311,1156.776,3256.815,2938.963,-0.04789322,0.01718197,0.1193469,-0.48655179142952,-0.098645307123661,0.105132885277271,-0.123107133063502,-0.0529695601420796,0.0762091797723108,4
0.48004150390625,-0.171195328235626,2.90383529663086,1.15224123001099,-0.0824149649110475,2.93035552344382,1.19387587943091,1473.932,1086.375,3246.817,3068.298,-0.04628254,0.01998466,0.1173841,-0.500849187374115,-0.0957864969968796,0.112085171043873,-0.132875537077637,-0.0571726314917467,0.0822562871906744,5
0.5,-0.181482911109924,2.90198230743408,1.15461730957031,-0.085166398670376,2.92917165836334,1.1955791479969,1435.818,1047.668,3213.651,3167.174,-0.04433577,0.02264816,0.1152121,-0.514378607273102,-0.0926437377929688,0.118802584707737,-0.142884000065179,-0.0614789935111996,0.0884520025491718,5
0.52001953125,-0.192026451230049,2.90019774436951,1.15713775157928,-0.0881295333471192,2.92789670429234,1.19741346951549,1419.839,1043.574,3181.929,3211.263,-0.04192721,0.02537481,0.111893,-0.527176856994629,-0.089233934879303,0.126024916768074,-0.153182839569029,-0.0659102964334391,0.0948274748038155,5
0.5400390625,-0.202806860208511,2.89848470687866,1.15981233119965,-0.0913013599695072,2.9265319559073,1.1993769812898,1444.948,1073.443,3147.14,3186.489,-0.03928695,0.02828615,0.1070586,-0.539021074771881,-0.0856480970978737,0.133730754256248,-0.163731040940689,-0.0704488928010329,0.101357313933386,5
0.55999755859375,-0.21380028128624,2.89684391021729,1.16265463829041,-0.094676112580471,2.92507989413848,1.20146611391775,1489.266,1115.286,3135.656,3110.937,-0.03688531,0.0313329,0.1010461,-0.549671173095703,-0.0820362418889999,0.142114505171776,-0.17448465888317,-0.0750758741803766,0.108014315705644,5
0.58001708984375,-0.224978908896446,2.89527225494385,1.16567146778107,-0.0982790918331175,2.92352963282165,1.20369652970884,1516.467,1147.385,3150.615,3036.306,-0.03513668,0.03434062,0.09466481,-0.558930695056915,-0.0785820335149765,0.150839373469353,-0.185498893714783,-0.0798149917263209,0.114832651747179,5
0.60003662109375,-0.236313730478287,2.89376378059387,1.16885423660278,-0.102104766440831,2.92188355191493,1.20606480453317,1539.515,1166.94,3161.525,2981.665,-0.03428447,0.03715759,0.08862779,-0.566741406917572,-0.075427271425724,0.159141391515732,-0.196730728861449,-0.0846477366087834,0.121785692749472,5
0.62005615234375,-0.247779205441475,2.89231038093567,1.17219650745392,-0.10615738857191,2.92013982182908,1.20857357068547,1541.087,1168.636,3179.075,2959.797,-0.0344139,0.03963846,0.08344146,-0.5732741355896,-0.0726688206195831,0.167113229632378,-0.208169783811058,-0.089569642383401,0.128867012681034,5
0.6400146484375,-0.259354621171951,2.89090275764465,1.17568945884705,-0.110427588881679,2.91830247393137,1.21121702809507,1506.801,1156.614,3195.276,2986.655,-0.03538596,0.04169841,0.07928798,-0.578772187232971,-0.0703825801610947,0.174645856022835,-0.21977002223474,-0.0945609009039674,0.136048112861281,5
0.6600341796875,-0.271024793386459,2.88953065872192,1.17932546138763,-0.114945316258235,2.91635862205193,1.21401371655035,1458.41,1142.837,3203.864,3034.754,-0.03682672,0.04337182,0.07593339,-0.583508789539337,-0.0686094462871552,0.181800112128258,-0.231592256338351,-0.0996476779637659,0.143366638942526,5
0.6800537109375,-0.282778054475784,2.88818383216858,1.18309354782104,-0.119701505244841,2.91431216680354,1.21695802410176,1429.622,1139.519,3187.947,3076.859,-0.03844593,0.04477017,0.07290643,-0.587663114070892,-0.0673453360795975,0.188405409455299,-0.243591252020807,-0.104810510592794,0.150794588861397,5
0.70001220703125,-0.294605374336243,2.88685202598572,1.18699479103088,-0.124683985757554,2.91216834463331,1.22004241688759,1413.622,1147.544,3173.261,3095.938,-0.04015621,0.04597383,0.06984702,-0.591366469860077,-0.0665894225239754,0.19506473839283,-0.255719729227087,-0.11002905550423,0.158302694011575,5
0.72003173828125,-0.306498169898987,2.88552451133728,1.19103288650513,-0.129926464684368,2.909912652409,1.2232877610772,1387.617,1161.979,3168.021,3109.535,-0.04194692,0.04701312,0.066652,-0.594639301300049,-0.0663743615150452,0.201903477311134,-0.268042056234039,-0.115331008569357,0.165930801422716,5
0.74005126953125,-0.318447023630142,2.88419008255005,1.19520282745361,-0.135417121205077,2.90755017629933,1.22668673901976,1390.093,1184.704,3151.608,3098.149,-0.04383617,0.0479448,0.06324104,-0.597441852092743,-0.0667237490415573,0.208494886755943,-0.280511663843695,-0.120696332363285,0.173650082542878,5
0.760009765625,-0.330442607402802,2.88283658027649,1.19950735569,-0.141140917956636,2.9050873864615,1.23023004187122,1400.009,1208.744,3147.157,3068.737,-0.04599918,0.04873902,0.0597938,-0.599781453609467,-0.0676726102828979,0.215228378772736,-0.293080296154222,-0.126104263719567,0.181430664670081,5
0.780029296875,-0.342476069927216,2.88145112991333,1.2039475440979,-0.147135516931739,2.90250807799222,1.23394098419916,1380.077,1226.006,3156.242,3061.797,-0.04855795,0.04931075,0.05666335,-0.601672887802124,-0.0692713111639023,0.222007900476456,-0.305815338775367,-0.131583796783543,0.189314262706778,5
0.800048828125,-0.354539543390274,2.88002038002014,1.20851290225983,-0.153386270014236,2.89981855356665,1.23781049812189,1373.264,1240.292,3151.666,3057.339,-0.05146506,0.04965759,0.05394359,-0.603172481060028,-0.0715353190898895,0.228270038962364,-0.318669158271032,-0.137114436218383,0.197271389286931,5
0.82000732421875,-0.366627842187881,2.87853074073792,1.21320199966431,-0.159875221826383,2.89702653888221,1.24182746840525,1362.714,1251.927,3153.24,3054.431,-0.05472903,0.04974955,0.05173057,-0.604415476322174,-0.0744787529110909,0.23445251584053,-0.331592781842754,-0.14267511039705,0.205271727915392,4
0.84002685546875,-0.378738194704056,2.87696838378906,1.21801269054413,-0.166644154783139,2.89411405613301,1.24601776035448,1318.525,1259.08,3161.005,3081.906,-0.05827103,0.0495533,0.05011901,-0.605517208576202,-0.0781128779053688,0.240533411502838,-0.344656091553402,-0.148295887618918,0.213358538918022,4
0.86004638671875,-0.390869677066803,2.87532019615173,1.22293341159821,-0.173675537522933,2.89108864857417,1.25037052122162,1298.507,1268.428,3149.566,3101.316,-0.06187375,0.04914646,0.04888118,-0.606574833393097,-0.0824043229222298,0.246036678552628,-0.357810651658344,-0.153955927336209,0.221501838261579,4
0.8800048828125,-0.403023540973663,2.87357354164124,1.22796404361725,-0.180948461186242,2.88795931270381,1.25487280742661,1287.139,1281.798,3142.643,3106.053,-0.06550045,0.04856246,0.04789726,-0.607693731784821,-0.0873334109783173,0.25153249502182,-0.371007022483504,-0.159633957038354,0.229671020432672,4
0.9000244140625,-0.415201783180237,2.87171578407288,1.23310518264771,-0.188508963212068,2.88470623989808,1.25955311833725,1250.493,1294.884,3143.92,3127.959,-0.06913353,0.04779801,0.04720138,-0.608913540840149,-0.0928847789764404,0.257058769464493,-0.384317079523421,-0.165360902742685,0.237910579786325,4
0.9200439453125,-0.427406758069992,2.86973571777344,1.23834764957428,-0.196336588491207,2.881338231419,1.26439879126654,1245.222,1310.252,3129.973,3131.668,-0.07265796,0.04692959,0.04662595,-0.610247790813446,-0.0990058183670044,0.262125730514526,-0.397691837725364,-0.171115687549493,0.246190192241415,4
0.94000244140625,-0.439641535282135,2.8676221370697,1.2436934709549,-0.204407453948074,2.87786556348678,1.26939504145298,1247.516,1327.54,3125.007,3120.141,-0.07615682,0.04595982,0.04620197,-0.611740708351135,-0.105678908526897,0.267293214797974,-0.411081631631503,-0.176876941799768,0.254479112513653,4
0.96002197265625,-0.451909631490707,2.86536431312561,1.24914443492889,-0.21277195700315,2.87426655149935,1.27457306730061,1217.759,1340.878,3131.463,3132.888,-0.07968871,0.04484672,0.04611733,-0.613403499126434,-0.112889684736729,0.272550791501999,-0.424559845004915,-0.182676240476657,0.262822768648136,3
0.98004150390625,-0.464214742183685,2.862952709198,1.25469100475311,-0.221406693208946,2.8705512657366,1.27991838034152,1215.219,1352.64,3122.77,3134.83,-0.08314176,0.04364192,0.04628404,-0.615254163742065,-0.120577163994312,0.277328282594681,-0.438077187556039,-0.188492375345573,0.271190647607604,3
1,-0.476561993360519,2.86037826538086,1.26033473014832,-0.230284798736574,2.86673126495361,1.28541435058594,1216.286,1364.495,3121.691,3128.242,-0.08656925,0.04233883,0.04674043,-0.617364823818207,-0.128721460700035,0.282185077667236,-0.451584000205995,-0.194303979492187,0.279552008056641,3
1.02001953125,-0.488957405090332,2.85763239860535,1.26607728004456,-0.239461107372567,2.86278295570393,1.29109492275982,1182.285,1372.195,3130.168,3150.596,-0.08997916,0.04090147,0.04762015,-0.619770765304565,-0.137297719717026,0.287125617265701,-0.465154707681581,-0.200143075797255,0.287952922446475,3
1.0400390625,-0.501407325267792,2.85470795631409,1.27190899848938,-0.248909254116304,2.85871768211076,1.29694377567184,1178.467,1379.317,3121.095,3160.461,-0.09320318,0.03940493,0.04873649,-0.622498512268066,-0.146225482225418,0.2915860414505,-0.478739949598525,-0.205988425866395,0.296362834347881,3
1.05999755859375,-0.513919711112976,2.85159850120544,1.27783250808716,-0.258599401509697,2.85454828239877,1.30294243851408,1181.407,1388.398,3118.652,3158.071,-0.0962786,0.03786303,0.05004706,-0.625615239143372,-0.15547750890255,0.296177089214325,-0.492290296490434,-0.211818761581115,0.30475114456651,3
1.08001708984375,-0.526502251625061,2.84829807281494,1.28385138511658,-0.268590868588476,2.85024923324404,1.30912763259543,1151.496,1394.643,3126.653,3180.532,-0.09922033,0.03625198,0.05164503,-0.629130363464355,-0.165022611618042,0.300942867994308,-0.505880764601332,-0.21766636033551,0.313164291730931,3
1.10003662109375,-0.539162874221802,2.84480261802673,1.28995740413666,-0.278854332424133,2.84583315148354,1.31548120562628,1155.204,1401.061,3117.411,3186.295,-0.1018888,0.03465251,0.05333875,-0.633032023906708,-0.174770519137383,0.305303037166595,-0.519462149665191,-0.223510050908515,0.32157181605655,3
1.12005615234375,-0.551910102367401,2.84110856056213,1.29615485668182,-0.289389534291349,2.84130014843955,1.32200299744335,1166.36,1409.208,3115.952,3178.465,-0.1043661,0.03307018,0.05511909,-0.637361228466034,-0.184697091579437,0.309873312711716,-0.533026788619656,-0.22934653609848,0.329968973742727,3
1.1400146484375,-0.564752101898193,2.83721327781677,1.30244660377502,-0.300162704591434,2.83666475422696,1.32867210305637,1153.103,1414.779,3120.418,3191.746,-0.1067438,0.03147525,0.05709995,-0.642099022865295,-0.19476480782032,0.314586251974106,-0.54652589017629,-0.235154822377061,0.338325560657667,3
1.1600341796875,-0.577697336673737,2.83311438560486,1.30883502960205,-0.311239174734401,2.83189885856519,1.33552896572031,1137.652,1416.154,3131.816,3203.637,-0.10887,0.02989114,0.05924717,-0.647259175777435,-0.204945251345634,0.319423913955688,-0.560034590932616,-0.240967238923098,0.346688089934489,3
1.1800537109375,-0.590753495693207,2.82881164550781,1.31531262397766,-0.322585703899652,2.82701676405071,1.34255300778374,1154.001,1420.035,3122.153,3203.014,-0.1107028,0.02837442,0.06143615,-0.65280669927597,-0.21513457596302,0.323878973722458,-0.573504231419809,-0.246762848926546,0.355026439044019,3
1.20001220703125,-0.603929221630096,2.82430529594421,1.32188498973846,-0.334165615614823,2.82203425154496,1.34972152476313,1169.644,1424.093,3121.728,3197.026,-0.1123907,0.02690793,0.06369372,-0.658786594867706,-0.225315675139427,0.328619509935379,-0.586886736182789,-0.252520966862155,0.363310846989412,3
1.22003173828125,-0.617232978343964,2.81959557533264,1.32855975627899,-0.346048739660615,2.8169212752441,1.35707774461917,1145.827,1423.239,3136.667,3218.93,-0.1139689,0.02544759,0.06614525,-0.665192067623138,-0.235481292009354,0.333740472793579,-0.600256853941591,-0.258273755015919,0.371587586789143,3
1.24005126953125,-0.630672633647919,2.81468462944031,1.33533084392548,-0.358198934240558,2.8116933859535,1.36459929385819,1154.185,1423.121,3132.748,3225.57,-0.1152792,0.02407243,0.06859913,-0.671979367733002,-0.245545148849487,0.33855402469635,-0.613566574519479,-0.264000555950038,0.379826937856772,2
1.260009765625,-0.644256293773651,2.809574842453,1.34220349788666,-0.37057666480527,2.80636759428526,1.37226169871082,1172.026,1424.763,3134.657,3217.956,-0.1163849,0.02278786,0.07102633,-0.679184675216675,-0.255493432283401,0.343630433082581,-0.626768731761373,-0.26968107538565,0.387999702095469,2
1.280029296875,-0.657991945743561,2.80426859855652,1.34918463230133,-0.383256224448249,2.80091193399677,1.38011095014101,1156.052,1422.416,3149.182,3234.804,-0.1173304,0.0215492,0.07355564,-0.686782896518707,-0.265313595533371,0.349055886268616,-0.639937296597118,-0.275347140947359,0.39615167103453,2
1.300048828125,-0.671886265277863,2.79877018928528,1.35626816749573,-0.396198615290876,2.79534318478573,1.38812290660417,1171.888,1421.58,3143.282,3238.002,-0.1180238,0.02042462,0.07602096,-0.694712698459625,-0.274916708469391,0.354178845882416,-0.653025104588124,-0.280978459094862,0.404253647639717,2
1.32000732421875,-0.685946404933929,2.79308414459229,1.36346089839935,-0.409361504843077,2.78967956113998,1.39627136227237,1192.499,1421.802,3145.571,3229.968,-0.1185741,0.0194053,0.078416,-0.703012585639954,-0.284302204847336,0.359636396169662,-0.6659860834168,-0.286555206197011,0.41227711095171,2
1.34002685546875,-0.700179576873779,2.78721451759338,1.37077128887177,-0.422823591595166,2.78388720129772,1.40460503526004,1175.36,1417.144,3163.476,3247.591,-0.1190161,0.01843876,0.08088036,-0.711655080318451,-0.293477594852448,0.365522444248199,-0.67889305416841,-0.29210871513241,0.420267140691238,2
1.36004638671875,-0.714590787887573,2.78116726875305,1.37819337844849,-0.43654307799852,2.77798408957644,1.41309805089348,1190.689,1414.776,3159.48,3250.955,-0.1192308,0.01759625,0.08324411,-0.720563948154449,-0.302362531423569,0.371105521917343,-0.691699885659415,-0.297619136941538,0.428195179458157,2
1.3800048828125,-0.729186356067657,2.77494812011719,1.38573312759399,-0.450474904562636,2.77198961381608,1.4217225152016,1213.72,1413.727,3161.945,3241.454,-0.1193144,0.01687038,0.08549445,-0.729775786399841,-0.310958921909332,0.37699019908905,-0.704361775018035,-0.303067194200314,0.436033492140578,2
1.4000244140625,-0.743971526622772,2.76856255531311,1.39339911937714,-0.464702095472036,2.76586805102946,1.43052982410961,1199.391,1407.68,3180.096,3257.3,-0.1193107,0.01620323,0.08777704,-0.739262580871582,-0.319281458854675,0.383300364017487,-0.716950039288891,-0.308483572640673,0.443826227386424,2
1.4200439453125,-0.758950293064117,2.76201748847961,1.40118527412415,-0.479180120902936,2.75963856115575,1.43949241153533,1215.823,1404.686,3175.494,3260.561,-0.1191216,0.01566125,0.08992968,-0.748940050601959,-0.327257394790649,0.389304965734482,-0.729419759131232,-0.313848944725189,0.451545577983966,2
1.44000244140625,-0.774127304553986,2.75531959533691,1.40909779071808,-0.493861275572861,2.75332167044526,1.4485807456364,1238.694,1402.804,3178.312,3251.229,-0.1188457,0.01523447,0.09193828,-0.75884872674942,-0.334898918867111,0.395624667406082,-0.741727567798258,-0.319144650954242,0.459164697851088,2
1.46002197265625,-0.789506435394287,2.74847483634949,1.41714537143707,-0.50883280894277,2.74687983789241,1.45784883798541,1223.744,1395.647,3197.895,3266.563,-0.1185112,0.01486319,0.09394944,-0.768958866596222,-0.342233091592789,0.402378559112549,-0.753942941956197,-0.324400585196357,0.466726596353819,2
1.48004150390625,-0.805090010166168,2.74149084091187,1.42532122135162,-0.524047536755517,2.74033336556487,1.4672674792795,1240.451,1392.478,3193.024,3268.94,-0.1180148,0.01461506,0.09580238,-0.779174625873566,-0.349194020032883,0.408792495727539,-0.766022343765669,-0.329598014335553,0.474204321495588,2
1.5,-0.820880711078644,2.734375,1.43363106250763,-0.539455198877605,2.73370387899399,1.4768055561018,1264.574,1390.462,3195.145,3258.121,-0.1174603,0.01447829,0.09748536,-0.789538264274597,-0.355797410011292,0.41549089550972,-0.777924000354858,-0.334718964672088,0.481572013878822,1
1.52001953125,-0.836881160736084,2.72713351249695,1.44208335876465,-0.555147149984933,2.72695207081487,1.48651962134853,1249.985,1382.823,3214.866,3272.296,-0.1168813,0.01438732,0.09915491,-0.800021827220917,-0.362079530954361,0.422613263130188,-0.789715229532175,-0.33979240117828,0.488871346433721,1
1.5400390625,-0.853091657161713,2.71977376937866,1.45067071914673,-0.571073639140036,2.72009934746603,1.49637887681943,1265.948,1379.704,3209.5,3274.526,-0.1161815,0.01440804,0.1006564,-0.810524940490723,-0.36798357963562,0.429370492696762,-0.801354035689029,-0.344800254316973,0.496076321878038,1
1.55999755859375,-0.86951357126236,2.71230316162109,1.4593985080719,-0.587181951496087,2.71316839067337,1.50635068951315,1289.315,1377.604,3211.53,3263.139,-0.1154571,0.01452758,0.1019784,-0.821094453334808,-0.373531818389893,0.436391055583954,-0.812800388649436,-0.349725300221754,0.503162159625937,1
1.58001708984375,-0.886147677898407,2.7047278881073,1.46827471256256,-0.603567408310176,2.70611818636293,1.51649406782863,1273.642,1369.646,3231.631,3276.663,-0.1147322,0.01467882,0.1032815,-0.831704199314117,-0.378768086433411,0.44380995631218,-0.824119146742882,-0.35459544561987,0.510169010073001,0
1.60003662109375,-0.90299266576767,2.69705510139465,1.47729086875916,-0.620177789093064,2.69897120355237,1.5267766847954,1289.052,1366.882,3225.112,3278.465,-0.1139103,0.01492843,0.1044116,-0.842249691486359,-0.383640706539154,0.450809717178345,-0.835270008391827,-0.359393349868401,0.517071924622902,0
1.62005615234375,-0.920048356056213,2.68929171562195,1.48645162582397,-0.637009682950695,2.69172890985411,1.53719642890757,1312.255,1365.133,3226.125,3266.169,-0.1130922,0.01526284,0.1053562,-0.852784097194672,-0.38817486166954,0.458039730787277,-0.846248027983674,-0.36411688500841,0.52386784170585,0
1.6400146484375,-0.937313675880432,2.68144369125366,1.4957617521286,-0.654007271984653,2.68441532215046,1.54771874622704,1306.838,1360.271,3236.885,3274.521,-0.1123652,0.01562273,0.1062481,-0.863269984722137,-0.392405539751053,0.465506464242935,-0.857015715678588,-0.368749920209162,0.530533553325099,0
1.6600341796875,-0.95478743314743,2.67351627349854,1.50522410869598,-0.671270921724395,2.67698725595799,1.55840576779763,1293.603,1351.547,3255.583,3283.721,-0.1115438,0.01601782,0.1070803,-0.873688340187073,-0.396367698907852,0.473115146160126,-0.86763421272879,-0.373318762843399,0.537106908828335,0
1.6800537109375,-0.972466230392456,2.66551637649536,1.51482713222504,-0.688745284465827,2.66946852584753,1.56922323075391,1318.278,1351.223,3241.475,3278.907,-0.1106021,0.01651111,0.1077031,-0.883937418460846,-0.399991720914841,0.480151891708374,-0.878065697626514,-0.377807139372939,0.543564494900563,0
1.70001220703125,-0.990347981452942,2.6574501991272,1.52457594871521,-0.706372354049449,2.66188409024902,1.58013522651994,1342.977,1351.044,3238.613,3265.74,-0.1097382,0.01706349,0.1081432,-0.894087970256805,-0.403305530548096,0.487438768148422,-0.888274735793774,-0.382199803288802,0.549884375850026,0
1.72003173828125,-1.00843048095703,2.64932250976563,1.53447937965393,-0.72425607283747,2.65418922566779,1.59120610036939,1319.262,1343.307,3260.493,3281.276,-0.1089776,0.01759575,0.1085852,-0.904129803180695,-0.406383961439133,0.495174527168274,-0.898319376918855,-0.386521731750138,0.556102487199065,0
1.74005126953125,-1.0267094373703,2.64113855361938,1.54452741146088,-0.742338883699245,2.64640869732922,1.60240022169657,1326.904,1341.398,3254.827,3284.135,-0.1081632,0.01818626,0.1088666,-0.9139484167099,-0.409197449684143,0.50240433216095,-0.908163813044036,-0.390757517593098,0.562196662116077,0
1.760009765625,-1.04518139362335,2.63290309906006,1.55472183227539,-0.760560719141003,2.63856835059778,1.61368040586141,1349.034,1341.101,3254.236,3268.002,-0.1073536,0.01883304,0.1089633,-0.923598766326904,-0.411768198013306,0.50972056388855,-0.91777478390713,-0.394892849856044,0.568146310914365,0
1.780029296875,-1.06384265422821,2.62462019920349,1.56506752967834,-0.7790289055498,2.63062200592748,1.62511309301018,1332.274,1334.794,3271.264,3277.572,-0.1065888,0.01946056,0.1090629,-0.93306577205658,-0.414143264293671,0.517287373542786,-0.927207006545171,-0.398951271751399,0.573985306046387,0
1.800048828125,-1.08268773555756,2.61629462242126,1.57555317878723,-0.797683800882025,2.62259532562346,1.63666136187673,1344.931,1334.325,3259.689,3278.578,-0.1058021,0.02012994,0.1090247,-0.942252337932587,-0.416281402111053,0.524279713630676,-0.936426808583846,-0.402918294997191,0.579692802708405,0
1.82000732421875,-1.10171258449554,2.60793018341064,1.58618175983429,-0.816463410111527,2.61451498441355,1.64828683458664,1363.451,1334.324,3258.369,3265.285,-0.1050953,0.02082428,0.1088371,-0.951238334178925,-0.418216705322266,0.53143185377121,-0.94540321420156,-0.406780591562751,0.585249625391268,0
1.84002685546875,-1.12091279029846,2.59952998161316,1.59695935249329,-0.835478236913388,2.60633343565348,1.6600579181788,1338.032,1327.734,3278.203,3278.969,-0.1044646,0.02147348,0.1086787,-0.960015118122101,-0.420014083385468,0.538881659507751,-0.954187384555097,-0.410560174664568,0.59068744528817,0
1.86004638671875,-1.14028239250183,2.59109735488892,1.60787296295166,-0.854666685898453,2.59807718211841,1.67193648217314,1346.855,1327.651,3267.244,3280.269,-0.1037791,0.02215687,0.108381,-0.96847665309906,-0.421634167432785,0.545681178569794,-0.962747895957761,-0.414243523568132,0.595986809640129,0
1.8800048828125,-1.15981638431549,2.58263540267944,1.61892378330231,-0.873964974649439,2.58977366760063,1.68388304221498,1368.015,1328.973,3263.55,3263.28,-0.1031314,0.02286602,0.1079232,-0.976698040962219,-0.423098295927048,0.552543103694916,-0.971056158224177,-0.417818336715394,0.601130019760457,0
1.9000244140625,-1.17950987815857,2.57414627075195,1.63011682033539,-0.893486564535158,2.58137407284289,1.69596783629653,1344.879,1323.875,3280.355,3274.735,-0.1025615,0.02352229,0.107503,-0.984673738479614,-0.424461930990219,0.559654116630554,-0.979159571260204,-0.421305008961645,0.606146418448853,0
1.9200439453125,-1.19935595989227,2.56563258171082,1.64143908023834,-0.91316804490645,2.57290568167603,1.70815161020529,1352.824,1324.595,3268.041,3276.168,-0.101966,0.02419669,0.1069664,-0.992307662963867,-0.425688564777374,0.566114544868469,-0.987029064241808,-0.424691031943447,0.611018009480403,0
1.94000244140625,-1.21934962272644,2.55709648132324,1.65289211273193,-0.932943991899774,2.5643966441608,1.72039386345315,1370.678,1326.227,3265.044,3259.973,-0.1014297,0.02487993,0.1062961,-0.999681711196899,-0.426805466413498,0.572653293609619,-0.994638524886308,-0.427965170275055,0.615728628108227,0
1.96002197265625,-1.23948550224304,2.54853916168213,1.66448032855988,-0.952930593197372,2.55579696798345,1.73276652175022,1343.986,1321.49,3282.369,3272.313,-0.1009668,0.025498,0.1056879,-1.00679063796997,-0.42786905169487,0.579412579536438,-1.00203140433628,-0.431146119769234,0.620305172659443,0
1.98004150390625,-1.25975632667542,2.53996253013611,1.67618942260742,-0.973062766957995,2.54713465604207,1.74522929633648,1351.489,1322.692,3268.922,3273.09,-0.1004571,0.02612882,0.1049761,-1.01354002952576,-0.428836941719055,0.585453867912292,-1.00918107987623,-0.434222425415264,0.624731162404951,0
2,-1.28015661239624,2.53136801719666,1.68802011013031,-0.993273599084619,2.53843849960327,1.7577407641983,1370.25,1325.051,3264.186,3255.599,-0.09999424,0.02676317,0.1041428,-1.02001571655273,-0.429729431867599,0.591535627841949,-1.01606400046349,-0.437183953857422,0.628992018127441,0
2.02001953125,-1.30068099498749,2.52275609970093,1.69997668266296,-1.01368176147806,2.52965743746343,1.77037438889544,1342.444,1321.078,3280.267,3268.311,-0.09961075,0.02732371,0.1033904,-1.02621757984161,-0.430599898099899,0.597828924655914,-1.0227194988233,-0.440047628868552,0.633112088657522,0
2.0400390625,-1.32132208347321,2.51412796974182,1.71204459667206,-1.03422065061955,2.52082012725598,1.78308893967699,1348.082,1322.597,3266.43,3269.756,-0.09918144,0.02788919,0.1025499,-1.03205692768097,-0.431406676769257,0.603395760059357,-1.02912348666547,-0.442803085930327,0.637076462196067,0
2.05999755859375,-1.34207451343536,2.50548458099365,1.72422444820404,-1.05482201812353,2.5119559343546,1.79584216754118,1365.501,1325.334,3261.654,3251.976,-0.09878942,0.0284535,0.1015994,-1.03762030601501,-0.432169407606125,0.608993530273438,-1.03525504859546,-0.445441325732794,0.640872191117535,0
2.08001708984375,-1.36293268203735,2.49682593345642,1.73651993274689,-1.07560676837143,2.50301283698163,1.80870891805959,1336.563,1322.018,3277.02,3264.621,-0.09846292,0.02894134,0.1007423,-1.0429060459137,-0.432936877012253,0.614774584770203,-1.0411492471255,-0.447977434695423,0.644520980787238,0
2.10003662109375,-1.38388919830322,2.48815274238586,1.74891591072083,-1.09650693059248,2.49402008106085,1.82164711408721,1342.461,1323.926,3262.13,3265.355,-0.09807623,0.02943325,0.0998065,-1.04782915115356,-0.433662533760071,0.61979728937149,-1.04678460577819,-0.450402172089984,0.648009536242619,0
2.12005615234375,-1.40493869781494,2.47946548461914,1.76141285896301,-1.11751730044875,2.48497990587347,1.83465353389096,1359.995,1327.049,3256.654,3246.84,-0.09772097,0.02992181,0.09877336,-1.05247819423676,-0.434363096952438,0.62484484910965,-1.05215889639072,-0.452714579200256,0.651336478144737,0
2.1400146484375,-1.42607545852661,2.47076416015625,1.77401101589203,-1.13856809990831,2.47592233495728,1.84768498154507,1342.602,1327.106,3261.448,3254.917,-0.09750046,0.03034194,0.09781203,-1.05683612823486,-0.435069411993027,0.629908680915833,-1.05725481901126,-0.454907212340279,0.654491096999312,0
2.1600341796875,-1.44729375839233,2.46204805374146,1.78670883178711,-1.15978280433347,2.46679424031336,1.86081789418076,1317.694,1322.995,3274.629,3263.48,-0.09719313,0.03071491,0.09690762,-1.06091487407684,-0.435811281204224,0.634890019893646,-1.06210153574728,-0.456992619150195,0.65749144554004,0
2.1800537109375,-1.46858656406403,2.45331788063049,1.79948902130127,-1.18109186728921,2.45762554582981,1.8740092192418,1335.602,1326.674,3252.852,3256.278,-0.09674891,0.03111487,0.09589151,-1.06463813781738,-0.436511129140854,0.639010369777679,-1.0666811584121,-0.458963102843021,0.660326450127245,0
2.20001220703125,-1.48994851112366,2.4445743560791,1.81235337257385,-1.20242455577657,2.44844668594002,1.88721516963236,1355.454,1330.856,3244.126,3237.532,-0.09637128,0.03150622,0.09479529,-1.06809949874878,-0.437180876731873,0.643218576908112,-1.07097916161324,-0.460812413548163,0.662987118851036,0
2.22003173828125,-1.51137459278107,2.43581676483154,1.82530748844147,-1.22390595867498,2.43920383839376,1.9005131813276,1319.175,1328.147,3260.22,3254.699,-0.09610656,0.03180694,0.0938368,-1.07130551338196,-0.437879055738449,0.647703111171722,-1.0750201524698,-0.462551139021528,0.665488684690339,0
2.24005126953125,-1.53285813331604,2.4270453453064,1.83833622932434,-1.24546553876841,2.42992735338449,1.91385958843066,1319.061,1329.468,3247.914,3257.189,-0.09575769,0.03211145,0.09281931,-1.0741765499115,-0.438565582036972,0.651435077190399,-1.07878900047211,-0.464172769027497,0.667821781138895,0
2.260009765625,-1.55439400672913,2.41826033592224,1.85143864154816,-1.26703177594152,2.42064800401982,1.92721011658316,1336.878,1332.741,3242.462,3235.947,-0.0953694,0.0324252,0.09171064,-1.07678854465485,-0.439247637987137,0.655123770236969,-1.08227399942825,-0.465672266718726,0.669979161506271,0
2.280029296875,-1.57597661018372,2.40946125984192,1.86461687088013,-1.28873109644562,2.41131139261574,1.94064302965718,1309.52,1330.973,3254.023,3246.663,-0.09500348,0.03267209,0.0907274,-1.07913625240326,-0.439951568841934,0.658913373947144,-1.08549510920706,-0.467058220269158,0.671973181902092,0
2.300048828125,-1.59759950637817,2.40064883232117,1.87785530090332,-1.31049213921077,2.40194822384705,1.95411415175103,1317.021,1332.754,3236.749,3246.189,-0.09455606,0.03292699,0.08969899,-1.08115339279175,-0.440619170665741,0.661919295787811,-1.08844000459651,-0.468325326484384,0.673796212432981,0
2.32000732421875,-1.61925828456879,2.39182353019714,1.89115500450134,-1.33224276726637,2.39258953623693,1.96757882664355,1332.886,1335.578,3230.878,3228.044,-0.09413156,0.03317866,0.0886125,-1.08293104171753,-0.441266059875488,0.664984226226807,-1.09109983431736,-0.469469776906228,0.675442773735451,0
2.34002685546875,-1.64094758033752,2.38298487663269,1.90451967716217,-1.35411046309062,2.38318047763645,1.98111597206157,1298.013,1333.016,3245.131,3243.841,-0.09375659,0.03335532,0.08767115,-1.08446872234344,-0.441932499408722,0.668231546878815,-1.09348983658457,-0.470498128112872,0.676922298990446,0
2.36004638671875,-1.6626615524292,2.37413358688354,1.91793322563171,-1.37602321127603,2.37375203426358,1.99468100703729,1302.317,1334.03,3229.865,3244.207,-0.09325751,0.03354974,0.08667158,-1.08569598197937,-0.442562729120255,0.670677006244659,-1.09560053017526,-0.471406300598994,0.678228918869363,0
2.3800048828125,-1.68439531326294,2.36527037620544,1.93139553070068,-1.39790843013262,2.36433543599182,2.00822900004707,1321.526,1337.033,3222.856,3222.842,-0.09271955,0.03375893,0.0855888,-1.08669114112854,-0.443161308765411,0.673116743564606,-1.09742594550583,-0.472191725819537,0.679358937915576,0
2.4000244140625,-1.70614433288574,2.35639524459839,1.94490969181061,-1.41989437329222,2.3548754988664,2.02183934619858,1291.347,1335.19,3234.38,3235.769,-0.09221515,0.03390646,0.08463974,-1.08744943141937,-0.443756759166718,0.675709545612335,-1.09897654259203,-0.472858904427064,0.68031883137712,0
2.4200439453125,-1.72790241241455,2.34750938415527,1.95846045017242,-1.44190854257966,2.3454034168267,2.03546716566781,1296.966,1336.016,3218.474,3235.729,-0.09160635,0.03407313,0.08363952,-1.08790731430054,-0.444294363260269,0.677537977695465,-1.10024571396254,-0.473404993411248,0.681104508914477,0
2.44000244140625,-1.74966526031494,2.33861374855042,1.97204864025116,-1.46387808506052,2.33595053645515,2.04906735901791,1314.177,1338.414,3212.629,3215.622,-0.09097944,0.03425337,0.08256968,-1.08814346790314,-0.444785177707672,0.679407715797424,-1.10123038958312,-0.473828671822132,0.681714070030222,0
2.46002197265625,-1.77142822742462,2.32970857620239,1.98567736148834,-1.48593173759011,2.32646146587939,2.06271962049488,1281.892,1336.102,3225.113,3229.645,-0.0903829,0.03437484,0.08163986,-1.08815169334412,-0.445259779691696,0.681436896324158,-1.10193621258339,-0.474132367740737,0.682151008090402,0
2.48004150390625,-1.7931854724884,2.3207950592041,1.99933099746704,-1.50799669231329,2.31696753228548,2.07637887856809,1288.025,1336.267,3209.487,3228.907,-0.08965904,0.03452349,0.08065493,-1.08786964416504,-0.445661425590515,0.682681441307068,-1.10235947007672,-0.474314483615674,0.682413024641327,0
2.5,-1.81493282318115,2.31187534332275,2.01301002502441,-1.52999999932945,2.30750012397766,2.08999997377396,1307.194,1338.348,3202.892,3207.55,-0.08889952,0.03469337,0.07959624,-1.08737182617188,-0.445996284484863,0.683951318264008,-1.10250000050292,-0.474374949932098,0.682500019669533,0
2.52001953125,-1.83666598796844,2.30294942855835,2.02671766281128,-1.55207058900185,2.29800376582252,2.10366272014916,1275.987,1335.995,3214.144,3221.589,-0.0881746,0.0348099,0.07867625,-1.0866516828537,-0.446291446685791,0.685381054878235,-1.10235860927677,-0.474314113237503,0.682412491765153,0
2.5400390625,-1.85837912559509,2.29401922225952,2.04043889045715,-1.57413551786515,2.2885098433554,2.11732196221386,1281.948,1335.569,3198.92,3221.034,-0.08732771,0.03495668,0.0776993,-1.08565294742584,-0.446494340896606,0.686059772968292,-1.10193449000042,-0.47413162656141,0.682149941729488,0
2.55999755859375,-1.88006782531738,2.28508710861206,2.05417442321777,-1.59612191359838,2.27904971150017,2.13093258853001,1300.227,1337.141,3192.913,3200.138,-0.08644461,0.03512834,0.07664586,-1.08444499969482,-0.446613192558289,0.68677830696106,-1.10123038958312,-0.473828671822132,0.681714070030222,0
2.58001708984375,-1.90172839164734,2.27615356445313,2.06792736053467,-1.6181586096433,2.26956793682606,2.14457435313522,1269.456,1334.642,3203.956,3213.709,-0.08558761,0.03525404,0.07572279,-1.08301830291748,-0.446673661470413,0.687650918960571,-1.10024227275454,-0.473403512755585,0.681102378642802,0
2.60003662109375,-1.92335474491119,2.26722097396851,2.08168292045593,-1.64017270144046,2.26009588812827,2.15820212463428,1276.483,1333.757,3188.708,3212.274,-0.08460224,0.03541623,0.07473589,-1.08131849765778,-0.446623772382736,0.687772929668427,-1.09897224258044,-0.472857054252202,0.680316169465104,0
2.62005615234375,-1.9449428319931,2.25829148292542,2.09544157981873,-1.66215854993296,2.25063599173545,2.17181241218235,1295.727,1334.964,3182.482,3190.753,-0.08357958,0.03560745,0.07366944,-1.07941067218781,-0.446470767259598,0.687938332557678,-1.09742078834771,-0.472189506838475,0.679355745389033,0
2.6400146484375,-1.96648848056793,2.24936699867249,2.10920381546021,-1.68404365734903,2.24121944141343,2.18536033620513,1278.489,1334.283,3184.293,3198.62,-0.08265067,0.03576672,0.07269464,-1.07727324962616,-0.446227312088013,0.688108265399933,-1.09559452046326,-0.471403714787811,0.678225198571351,0
2.6600341796875,-1.98798680305481,2.24044871330261,2.12296795845032,-1.7059562766819,2.23179105348221,2.198925291415,1255.17,1329.156,3194.478,3206.166,-0.08160139,0.03591736,0.07177759,-1.07492244243622,-0.445911347866058,0.688206672668457,-1.09348297402779,-0.470495175346408,0.676918050740891,0
2.6800537109375,-2.00943326950073,2.23153948783875,2.13671803474426,-1.72782382660604,2.22238205765848,2.2124623465139,1274.5,1329.099,3174.19,3196.452,-0.08036355,0.036128,0.07074837,-1.07230389118195,-0.445452362298965,0.687507271766663,-1.09109212156704,-0.469466458325234,0.675437999175592,0
2.70001220703125,-2.03082227706909,2.22264242172241,2.15045642852783,-1.74957429229274,2.21302343991116,2.22592692089233,1296.136,1330.613,3165.529,3175.129,-0.07913636,0.0363658,0.069644,-1.06947588920593,-0.444854885339737,0.686914145946503,-1.08843144721369,-0.468321644481621,0.673790915005369,0
2.72003173828125,-2.05215120315552,2.21375942230225,2.16418790817261,-1.77133515528999,2.20366034849157,2.23939793170129,1262.314,1327.577,3177.179,3191.493,-0.07800186,0.03655585,0.06867494,-1.06643402576447,-0.444156438112259,0.686573505401611,-1.08548570791771,-0.467054175156991,0.671967362056136,0
2.74005126953125,-2.07341384887695,2.20489263534546,2.177898645401,-1.79303427916751,2.19432382169042,2.25283072305409,1264.687,1325.028,3165.366,3192.024,-0.0767539,0.03678404,0.06763628,-1.06313216686249,-0.443323940038681,0.685542643070221,-1.08226375787775,-0.46566786006566,0.669972821498637,0
2.760009765625,-2.09460616111755,2.19604563713074,2.19158911705017,-1.81460030360772,2.18504456385877,2.26618111951479,1284.286,1325.192,3160.434,3168.665,-0.07543617,0.03705362,0.0664984,-1.05962014198303,-0.442363858222961,0.684524059295654,-1.07877792518082,-0.464168003639063,0.667814925005998,0
2.780029296875,-2.11572360992432,2.18721985816956,2.20526123046875,-1.83615965364354,2.17576817783687,2.27952738420123,1258.512,1322.541,3168.741,3179.068,-0.07413495,0.03729512,0.06547062,-1.05588102340698,-0.441291093826294,0.683605551719666,-1.07500824518964,-0.462546015651526,0.665481313516697,0
2.800048828125,-2.13676118850708,2.17841863632202,2.21890068054199,-1.85764080987419,2.16652543642485,2.29282524319738,1268.727,1320.093,3153.151,3175.681,-0.07272454,0.03757764,0.06437463,-1.05187571048737,-0.440062791109085,0.681973278522491,-1.07096642698373,-0.460806934192852,0.662979235508738,0
2.82000732421875,-2.15771460533142,2.16964483261108,2.23250937461853,-1.87897323600723,2.1573466894188,2.30603103117811,1287.317,1319.849,3147.458,3154.881,-0.07130986,0.0378888,0.06320509,-1.04765975475311,-0.438689976930618,0.680429875850677,-1.06666760390385,-0.458957270716794,0.660318059240952,0
2.84002685546875,-2.17857909202576,2.16090083122253,2.24609065055847,-1.90028201942005,2.14817811521475,2.31922218318877,1255.861,1316.544,3157.74,3169.387,-0.06995592,0.03816148,0.06215874,-1.04322397708893,-0.437200635671616,0.679062783718109,-1.06208716414723,-0.456986435452194,0.657482548835001,0
2.86004638671875,-2.19934940338135,2.1521897315979,2.25963020324707,-1.92149642800033,2.13905014786462,2.33235491268238,1262.189,1313.317,3144.252,3167.73,-0.06847839,0.03847667,0.06103322,-1.03853118419647,-0.435560673475266,0.676983833312988,-1.0572396359531,-0.454900679494516,0.654481697963038,0
2.8800048828125,-2.22002220153809,2.14351391792297,2.27312898635864,-1.94254691640495,2.12999271078668,2.34538616777867,1282.988,1313.045,3138.101,3144.456,-0.06695507,0.03883049,0.05980707,-1.03362631797791,-0.433775305747986,0.674941301345825,-1.0521429102862,-0.45270770082608,0.651326581984514,0
2.9000244140625,-2.24059200286865,2.13487672805786,2.28658986091614,-1.96355695821617,2.12095267674793,2.3583923845069,1255.871,1310.353,3146.248,3155.927,-0.06548074,0.03915325,0.05868727,-1.02849507331848,-0.431864768266678,0.673044204711914,-1.04676782045836,-0.450394949835786,0.647999145330045,0
2.9200439453125,-2.26105403900146,2.12628078460693,2.29999899864197,-1.98445677645803,2.11196006883178,2.37133036759502,1263.597,1307.087,3132.098,3153.62,-0.06390788,0.03951565,0.05749132,-1.02310478687286,-0.42979833483696,0.670459628105164,-1.04113166921817,-0.447969871412971,0.644510099225252,0
2.94000244140625,-2.2814040184021,2.11772918701172,2.31335806846619,-2.00517798053537,2.10304431360073,2.38415778000673,1282.908,1306.498,3126.764,3131.196,-0.06231797,0.03990985,0.05620544,-1.01749992370605,-0.427585989236832,0.667949974536896,-1.03525504859546,-0.445441325732794,0.640872191117535,0
2.96002197265625,-2.30163717269897,2.10922408103943,2.32666969299316,-2.02584216016808,2.09415309439512,2.39694989157076,1254.051,1303.662,3135.288,3143.758,-0.06079251,0.04027003,0.0550308,-1.01166713237762,-0.425250738859177,0.665584981441498,-1.02910434715508,-0.442794850733705,0.637064613927399,0
2.98004150390625,-2.32174873352051,2.10076856613159,2.33992028236389,-2.04638065841765,2.08531595237754,2.4096642003716,1261.409,1299.948,3122.011,3140.925,-0.05916212,0.04066858,0.05377925,-1.00557959079742,-0.422766834497452,0.66253525018692,-1.02269958857548,-0.440039062045142,0.633099763265664,0
3,-2.34173440933228,2.09236574172974,2.35311102867126,-2.06672639957428,2.07656174835205,2.42225918334961,1281.27,1299.21,3116.277,3118.061,-0.05750724,0.04109823,0.05243779,-0.999275624752045,-0.420140564441681,0.65953540802002,-1.01606400046349,-0.437183953857422,0.628992018127441,0
3.02001953125,-2.36158895492554,2.08401823043823,2.36624431610107,-2.08699882657197,2.06783908936099,2.4348087813708,1254.01,1296.587,3123.48,3129.9,-0.05592106,0.04149406,0.05120455,-0.992742776870728,-0.417391836643219,0.656665861606598,-1.0091596546337,-0.434213206731958,0.624717899159203,0
3.0400390625,-2.38130807876587,2.07572817802429,2.37930703163147,-2.10713056392826,2.05917696519221,2.44727128580198,1261.151,1292.704,3110.218,3127.292,-0.05424593,0.04192388,0.04989638,-0.985960602760315,-0.414499878883362,0.653136730194092,-1.00200923318578,-0.431136580142566,0.620291447661128,0
3.05999755859375,-2.40088748931885,2.06749868392944,2.39230060577393,-2.12705600675913,2.05060360379452,2.45960608409476,1279.744,1291.853,3105.086,3104.913,-0.05255535,0.04238078,0.04850105,-0.978964149951935,-0.411472648382187,0.649676859378815,-0.994638524886308,-0.427965170275055,0.615728628108227,0
3.08001708984375,-2.42032194137573,2.05933213233948,2.40522718429565,-2.14689219650438,2.04206864550612,2.47188563047583,1252.119,1289.43,3111.977,3116.859,-0.05093668,0.04280306,0.0472118,-0.971740067005157,-0.408329725265503,0.646333873271942,-0.987005430654711,-0.424680863071165,0.611003379164165,0
3.10003662109375,-2.43960762023926,2.05123138427734,2.41807389259338,-2.16657319653803,2.03360046101514,2.4840691070327,1259.686,1285.41,3098.949,3113.441,-0.04922587,0.04325829,0.04584543,-0.964272797107697,-0.405053496360779,0.642334938049316,-0.979135219574012,-0.421294531111384,0.606131343595068,0
3.12005615234375,-2.45873951911926,2.0431981086731,2.43084168434143,-2.18609429180905,2.02520107907628,2.49615359492419,1278.536,1284.595,3093.424,3090.913,-0.0475028,0.04373851,0.04439373,-0.956592082977295,-0.40164989233017,0.638395726680756,-0.97103109838088,-0.417807554164915,0.601114506523692,0
3.1400146484375,-2.47771286964417,2.03523540496826,2.44353055953979,-2.20539207344272,2.01689778275692,2.50809984103626,1263.051,1283.347,3093.017,3097.15,-0.04590171,0.04418992,0.04301763,-0.948679983615875,-0.398131430149078,0.634442627429962,-0.962722140342815,-0.41423244164655,0.595970865687568,0
3.1600341796875,-2.49652433395386,2.02734470367432,2.45613861083984,-2.22457999991466,2.00864175404465,2.51997808157008,1244.175,1278.28,3099.161,3102.08,-0.04424096,0.04463372,0.04167476,-0.94055837392807,-0.39451864361763,0.630407810211182,-0.954160941629351,-0.410548797012349,0.590671075857482,0
3.1800537109375,-2.51516819000244,2.01952934265137,2.46865296363831,-2.24359429055267,2.0004604359809,2.53174883325128,1260.937,1275.532,3082.925,3091.435,-0.04244759,0.04511942,0.04022512,-0.932206273078918,-0.390781760215759,0.625722825527191,-0.945376094901151,-0.406768922885412,0.585232837252444,0
3.20001220703125,-2.53364109992981,2.01179122924805,2.48107552528381,-2.26237335188561,1.99238033051557,2.54337396678712,1280.138,1275.417,3075.467,3070.104,-0.04068352,0.04561984,0.03870827,-0.923640668392181,-0.386920779943466,0.621125519275665,-0.93639902618694,-0.402906341007952,0.579675604081262,0
3.22003173828125,-2.55193853378296,2.00413179397583,2.4934093952179,-2.28102768446584,1.98435389234802,2.55492188728337,1251.425,1273.506,3081.616,3083.307,-0.0390478,0.04607598,0.03730714,-0.914857029914856,-0.382960021495819,0.616695284843445,-0.927178570605173,-0.398939036560826,0.573967702844936,0
3.24005126953125,-2.57005572319031,1.99655365943909,2.50564312934875,-2.29949529515787,1.97640779539255,2.56635421803604,1253.864,1269.115,3071.592,3081.941,-0.0373487,0.04655287,0.0358436,-0.905855238437653,-0.378898650407791,0.611688911914825,-0.917745706354326,-0.394880338597406,0.568128310524024,0
3.260009765625,-2.58798885345459,1.98905909061432,2.51777720451355,-2.31771654397337,1.96856770107001,2.57763403905129,1270.51,1268.169,3067.153,3059.781,-0.03561978,0.04705027,0.03429838,-0.896654307842255,-0.374741166830063,0.606707096099854,-0.908134108040216,-0.390744736359816,0.562178273303667,0
3.280029296875,-2.60573363304138,1.98164892196655,2.5298125743866,-2.33579875395963,1.96078743127139,2.58882778840789,1247.751,1266.817,3070.796,3068.398,-0.03395637,0.04751503,0.03284952,-0.887241244316101,-0.370497643947601,0.601774156093597,-0.898289055119065,-0.386508685126782,0.556083716560567,0
3.300048828125,-2.62328577041626,1.97432577610016,2.54173755645752,-2.35368185965298,1.95309283048767,2.59989828272254,1256.11,1262.721,3058.353,3063.554,-0.03222585,0.04799986,0.03134245,-0.877617359161377,-0.36615988612175,0.596255004405975,-0.888243810122448,-0.382186496836394,0.549865231386282,0
3.32000732421875,-2.64064192771912,1.96709132194519,2.55355381965637,-2.37130830610839,1.94550866300381,2.61080989274252,1272.092,1261.863,3053.199,3043.125,-0.03051184,0.04849344,0.02978074,-0.867800533771515,-0.36173152923584,0.590809762477875,-0.878034183119985,-0.377793579561194,0.543544985919778,0
3.34002685546875,-2.65779733657837,1.95994687080383,2.56526303291321,-2.3887820321449,1.9379902068497,2.62162696154813,1245.461,1260.467,3057.566,3054.991,-0.02890009,0.04894518,0.02833256,-0.857785522937775,-0.357228249311447,0.585459649562836,-0.867602121152829,-0.373304954734798,0.537087042614081,0
3.36004638671875,-2.67474889755249,1.95289373397827,2.57685399055481,-2.40604503376583,1.93056241952464,2.63231358190229,1250.303,1256.089,3046.751,3052.015,-0.02721804,0.04941367,0.02682617,-0.847580969333649,-0.352648973464966,0.57954466342926,-0.856983060951777,-0.368735869792483,0.530513338493643,0
3.3800048828125,-2.69149279594421,1.94593381881714,2.58832764625549,-2.42304196557559,1.92324911460621,2.64283549236868,1266.437,1255.388,3041.863,3030.671,-0.0255216,0.04989464,0.02525304,-0.837198913097382,-0.34799462556839,0.57367992401123,-0.846214826007803,-0.364102599125748,0.523847288101157,0
3.4000244140625,-2.70802569389343,1.93906831741333,2.59968519210815,-2.43987318937177,1.91600710921667,2.65325482168089,1243.101,1254.618,3044.486,3040.366,-0.02390986,0.05033857,0.02378182,-0.826629400253296,-0.343274533748627,0.567872107028961,-0.835236272052476,-0.359378834064062,0.51705104022176,0
3.4200439453125,-2.72434329986572,1.93229842185974,2.61091589927673,-2.45648288954422,1.90886041925377,2.66353701731738,1249.451,1250.483,3033.383,3036.269,-0.02223899,0.05079706,0.0222571,-0.815883576869965,-0.338487893342972,0.561530411243439,-0.824084890952781,-0.354580706310386,0.510147804107099,0
3.44000244140625,-2.74044275283813,1.92562580108643,2.62202119827271,-2.47281804716281,1.90183185728196,2.67364925803476,1264.376,1249.884,3028.749,3015.994,-0.02057505,0.05126223,0.02068046,-0.804970741271973,-0.333636075258255,0.555261492729187,-0.812800388649434,-0.349725300221754,0.503162159625937,0
3.46002197265625,-2.75632047653198,1.91905105113983,2.63300228118896,-2.48897526921199,1.89487985601472,2.68365134815842,1240.213,1249.235,3031.422,3026.432,-0.01900805,0.05168784,0.01921302,-0.793884634971619,-0.328729718923569,0.54905503988266,-0.801318788528228,-0.344785088448372,0.496054502206447,0
3.48004150390625,-2.77197337150574,1.91257572174072,2.64384913444519,-2.50490104797632,1.88802743832719,2.69351016386359,1245.549,1245.001,3021.331,3022.495,-0.01738192,0.05212513,0.01769877,-0.782641768455505,-0.323771268129349,0.54233855009079,-0.789679509600139,-0.339777031889425,0.488849234094216,0
3.5,-2.78739833831787,1.90620040893555,2.6545627117157,-2.5205447997813,1.88129636896134,2.70319439144611,1259.906,1244.417,3016.646,3002.816,-0.01575419,0.05256805,0.01613776,-0.771247744560242,-0.318759769201279,0.535678505897522,-0.777924000354857,-0.334718964672089,0.481572013878822,0
3.52001953125,-2.80259203910828,1.8999263048172,2.66514420509338,-2.53599921507943,1.87464676580493,2.71276141071155,1237.706,1244.021,3018.452,3012.091,-0.01421862,0.05297318,0.01468302,-0.759697020053864,-0.313702911138535,0.529072046279907,-0.765985728654519,-0.329582259876133,0.474181654997567,0
3.5400390625,-2.81755232810974,1.89375424385071,2.6755838394165,-2.55121320561109,1.86810061070885,2.72217959559352,1242.845,1239.904,3008.513,3008.4,-0.01263137,0.05338696,0.01318895,-0.748008489608765,-0.308604121208191,0.521985054016113,-0.753905903732742,-0.324384648683532,0.466703667929126,0
3.55999755859375,-2.83227610588074,1.8876850605011,2.68588328361511,-2.56613872308604,1.86167857751006,2.73141920191151,1256.137,1239.364,3004.145,2989.632,-0.01104892,0.0538035,0.0116555,-0.736185610294342,-0.30346217751503,0.51496833562851,-0.741727567798258,-0.319144650954242,0.459164697851087,0
3.58001708984375,-2.84676051139832,1.88171923160553,2.69604325294495,-2.58086439685043,1.85534253147694,2.74053509545279,1234.271,1239.169,3005.496,2999.028,-0.009559151,0.05418316,0.01022722,-0.724224209785461,-0.298284083604813,0.507999897003174,-0.729381927869994,-0.313832666990361,0.451522158631107,0
3.60003662109375,-2.86100339889526,1.87585783004761,2.70605492591858,-2.59534166117872,1.84911336908442,2.74949721171974,1239.278,1235.14,2996.277,2994.962,-0.008018245,0.05457053,0.00876204,-0.712145984172821,-0.293074935674667,0.500584363937378,-0.716911837553691,-0.308467135501249,0.443802578692534,0
3.62005615234375,-2.87500238418579,1.8701012134552,2.71591949462891,-2.60956808375069,1.84299213689194,2.75830404499028,1251.941,1234.706,2991.927,2976.906,-0.006481069,0.05495973,0.007263326,-0.699950754642487,-0.287832111120224,0.493233919143677,-0.704323221035771,-0.30305060549882,0.436009625388976,0
3.6400146484375,-2.88875508308411,1.86444973945618,2.72563624382019,-2.62349913748426,1.83699799365897,2.76692803087948,1239.156,1234.65,2988.971,2981.97,-0.005055745,0.05531784,0.005848055,-0.687634766101837,-0.282560467720032,0.485841333866119,-0.691660998977508,-0.297602405088683,0.428171106749629,0
3.6600341796875,-2.90225982666016,1.85890460014343,2.73520421981812,-2.63721784221104,1.83109521827128,2.77542056261789,1227.193,1231.738,2990.757,2983.379,-0.003613377,0.05566137,0.004470644,-0.675223112106323,-0.277272969484329,0.47839617729187,-0.6788538526303,-0.292091847805727,0.42024287307172,0
3.6800537109375,-2.91551375389099,1.85346531867981,2.74461531639099,-2.65067914117513,1.82530319739219,2.78375374792726,1236.885,1229.185,2979.946,2975.508,-0.002103365,0.05601643,0.003048266,-0.662721514701843,-0.271963685750961,0.470551460981369,-0.665946586243534,-0.286538211666779,0.412252660319947,0
3.70001220703125,-2.92851638793945,1.84813261032104,2.75387120246887,-2.66384123964357,1.81963991412768,2.79190171387692,1248.897,1229.137,2974.908,2959.137,-0.0006215818,0.05636824,0.001611025,-0.65012264251709,-0.26662677526474,0.462790220975876,-0.65298533214413,-0.280961346123326,0.404229026602262,0
3.72003173828125,-2.94126462936401,1.84290719032288,2.76297307014465,-2.67678283166196,1.81407150862839,2.79991317582983,1228.909,1229.1,2975.483,2968.272,0.0007480323,0.05668384,0.0002818547,-0.637428343296051,-0.261269152164459,0.455097168684006,-0.639897267894093,-0.275329917714721,0.396126891360527,0
3.74005126953125,-2.95375823974609,1.83778893947601,2.77191424369812,-2.68946158755233,1.8086161941722,2.80776192969886,1231.425,1225.259,2968.299,2965.483,0.002144941,0.05700116,-0.001067395,-0.624667048454285,-0.255901575088501,0.447054147720337,-0.626728467014511,-0.269663750589942,0.387974776299086,0
3.760009765625,-2.96599459648132,1.83277893066406,2.78069591522217,-2.70183851231475,1.80329074921818,2.81542383572149,1241.069,1224.854,2965.082,2949.892,0.003539483,0.057318,-0.00243626,-0.611835539340973,-0.250521659851074,0.439081758260727,-0.613526094901139,-0.263983138701136,0.379801879044709,0
3.780029296875,-2.97797346115112,1.82787585258484,2.78931832313538,-2.71398789452788,1.79806320946631,2.82294488206675,1224.501,1224.998,2964.546,2956.678,0.004858581,0.05760657,-0.003713512,-0.59893274307251,-0.24513179063797,0.431121528148651,-0.600216179640806,-0.2582562540006,0.371562407459372,0
3.800048828125,-2.98969316482544,1.8230813741684,2.79777503013611,-2.72587020252115,1.79295058429007,2.83030059674741,1230.04,1221.466,2957.122,2951.452,0.006213048,0.05789819,-0.005008341,-0.585982739925385,-0.239738523960114,0.422840863466263,-0.586845888408904,-0.252503391206207,0.363285560271529,0
3.82000732421875,-3.00115251541138,1.818394780159,2.80606770515442,-2.73744929742843,1.78796842323393,2.8374686080838,1239.336,1221.11,2953.122,2937.575,0.007545162,0.05818555,-0.006306898,-0.572979688644409,-0.234337478876114,0.414630144834518,-0.573463232144022,-0.246745208083563,0.355001058539243,0
3.84002685546875,-3.01235103607178,1.81381607055664,2.81419706344604,-2.7487950044681,1.78308668245712,2.84449214121233,1223.32,1221.154,2952.843,2944.301,0.008786249,0.05844288,-0.007509049,-0.559926390647888,-0.22893238067627,0.406469464302063,-0.559993461530387,-0.240949542090342,0.346662628875244,0
3.86004638671875,-3.02328824996948,1.80934548377991,2.82215762138367,-2.75987065010211,1.77832114155852,2.85134849346595,1226.098,1217.728,2946.388,2941.249,0.01004752,0.05869982,-0.008718124,-0.546849727630615,-0.223532468080521,0.398026764392853,-0.54648465285111,-0.235137079108075,0.338300032788974,0
3.8800048828125,-3.0339629650116,1.80498290061951,2.82995080947876,-2.77064299647982,1.77368610185671,2.85801708903178,1234.423,1217.29,2943.107,2928.019,0.01129662,0.05895348,-0.009933591,-0.533744752407074,-0.218134149909019,0.389656752347946,-0.532985466132484,-0.229328756186666,0.329943393154704,0
3.9000244140625,-3.0443754196167,1.80072784423828,2.83757710456848,-2.78117737042527,1.76915345504432,2.86453836832583,1220.484,1217.475,2942.155,2933.657,0.01246767,0.05918132,-0.01106171,-0.520613014698029,-0.212739542126656,0.381318718194962,-0.51942076458699,-0.223492244065531,0.321546196721701,0
3.9200439453125,-3.05452466011047,1.79658102989197,2.84503173828125,-2.79144000531776,1.76473772995491,2.87089142820138,1224.396,1214.328,2935.994,2929.599,0.01365592,0.05940913,-0.01219568,-0.507479012012482,-0.207356706261635,0.372736871242523,-0.505839340129745,-0.217648536542653,0.313138648009699,0
