t,x_s1,x_s2,x_s3,x_s_d1,x_s_d2,x_s_d3,propellers_rpms1,propellers_rpms2,propellers_rpms3,propellers_rpms4,rollRad,pitchRad,yawRad,v_s1,v_s2,v_s3,v_s_d1,v_s_d2,v_s_d3,insideCount
0,-0.0599999986588955,2.94000005722046,1.17999994754791,-0.0599999986588955,2.94000005722046,1.17999994754791,0,0,0,0,0,0,0,0,0,0,-1.06581410364015E-15,4.44089209850063E-16,4.44089209850063E-16,0
0.0199966430664063,-0.0599999986588955,2.94000005722046,1.1771354675293,-0.0600018680476204,2.93999925287472,1.18000110478858,0,0,0,0,-0.01635394,-0.002474609,2.024222E-05,-3.71994488546079E-08,-3.93859025393795E-08,-0.143225952982903,-0.000279892991557604,-0.000120430134961378,0.000173267094926113,9
0.0399932861328125,-0.0599999986588955,2.94000005722046,1.17048275470734,-0.060014863945674,2.93999366110285,1.18000914986856,0,0,0,0,-0.03270734,-0.004950816,5.430172E-05,-3.62924446051238E-08,-3.87405769686211E-08,-0.332637369632721,-0.00111059898697896,-0.000477859717552347,0.000687513678106196,9
0.05999755859375,-0.0599995739758015,2.93987059593201,1.16407775878906,-0.0600498857373401,2.93997859220429,1.18003083002592,1695.21,2831.979,3014.19,2752.09,-0.03300828,-0.004756405,0.01634441,2.12900013139006E-05,-0.00647868122905493,-0.320250034332275,-0.00247936261166862,-0.00106680046642749,0.00153484356504269,9
0.0799942016601563,-0.0600854456424713,2.93961358070374,1.15838313102722,-0.0601175240668593,2.93994948932069,1.18007270137395,2420.916,2187.368,2779.386,2952.903,-0.0269677,-0.003916445,0.04321646,-0.00429349765181541,-0.0128509886562824,-0.284730643033981,-0.00437186567523228,-0.00188109166426407,0.00270639311381153,9
0.0999984741210938,-0.0603754594922066,2.93927955627441,1.15355825424194,-0.0602281887669101,2.93990187339187,1.18014120809498,2685.904,1336.511,2539.971,3700.426,-0.01274855,-0.002845854,0.07089862,-0.014500742778182,-0.0166957005858421,-0.241246253252029,-0.00677637982016689,-0.00291568692648091,0.00419490191241918,9
0.1199951171875,-0.0609662346541882,2.938960313797,1.14950525760651,-0.0603918861403606,2.93983143898525,1.18024254456713,2977.764,980.996,2172.295,3996.814,0.009145607,-0.001266067,0.09387997,-0.0295388586819172,-0.0159565452486277,-0.202648907899857,-0.00967801353495435,-0.00416417885169243,0.00599115140585487,9
0.139999389648438,-0.0619143098592758,2.93877482414246,1.14610016345978,-0.0606185767455666,2.93973390035084,1.18038287685052,3358.849,891.7199,1703.737,4044.419,0.03462151,0.0007361183,0.1088092,-0.0474037788808346,-0.00927770603448153,-0.17025238275528,-0.0130660253322238,-0.00562194567796536,0.00808849210174802,9
0.159996032714844,-0.0632360950112343,2.9388484954834,1.14330697059631,-0.0609176604100223,2.93960521300545,1.18056802388615,3657.372,996.1648,1325.59,3906.408,0.05733434,0.002392883,0.1147763,-0.0660893991589546,0.00368650443851948,-0.1396624147892,-0.0169249902365933,-0.00728235046931681,0.0104773752055438,9
0.17999267578125,-0.064919114112854,2.93928503990173,1.14116609096527,-0.0612985250199726,2.93944133760391,1.18080379722281,3711.316,1202.328,1178.892,3680.431,0.07180461,0.002858591,0.1130932,-0.0841509848833084,0.0218267161399126,-0.107043527066708,-0.0212433804254414,-0.00914043312572283,0.0131506644458931,10
0.199996948242188,-0.066938117146492,2.94013905525208,1.13973307609558,-0.0617704296168641,2.93923829023936,1.18109592864822,3484.588,1421.436,1291.275,3452.171,0.07575022,0.001873877,0.1066343,-0.100950181484222,0.0427033714950085,-0.0716528296470642,-0.0260104776919234,-0.0111915819022102,0.0161017247421801,10
0.219993591308594,-0.0692675188183784,2.94140648841858,1.13902080059052,-0.0623418263269037,2.93899243419801,1.18144965043113,3068.953,1584.035,1581.854,3280.831,0.07063563,-0.0001304949,0.09877682,-0.116470165550709,0.0633744299411774,-0.0356160812079906,-0.0312101301935526,-0.0134288471121871,0.0193205573344865,10
0.239997863769531,-0.0718856602907181,2.94303607940674,1.13897025585175,-0.0630217183703222,2.93869989564571,1.18187053599376,2627.302,1655.351,1909.628,3188.347,0.06052709,-0.002402704,0.09227847,-0.130907118320465,0.0814762786030769,-0.00252477452158928,-0.0368338920540454,-0.0158485947310391,0.02280193382306,10
0.259994506835938,-0.0747741982340813,2.94495534896851,1.13945710659027,-0.0638179029240226,2.93835731967507,1.18236341216003,2317.529,1635.8,2142.31,3161.264,0.05004678,-0.004279167,0.08854733,-0.144427120685577,0.095961757004261,0.024340283125639,-0.0428651747123285,-0.0184436871643672,0.0265355850983733,10
0.279998779296875,-0.0779178515076637,2.94709849357605,1.14033043384552,-0.0647390625194898,2.93796097043536,1.18293365383054,2221.124,1544.296,2218.277,3172.406,0.04256402,-0.00539663,0.08751925,-0.157182708382607,0.107158876955509,0.0436677485704422,-0.0492963837173861,-0.0212108567320638,0.030516809833474,9
0.299995422363281,-0.0813047811388969,2.94942307472229,1.14146077632904,-0.0657923226682404,2.93750778201804,1.18358567203635,2321.861,1413.652,2146.827,3201.168,0.03932003,-0.005715144,0.08799872,-0.169346556067467,0.116234458982944,0.0565157830715179,-0.0561105313314725,-0.0241427940851591,0.0347350918094591,9
0.319999694824219,-0.0849254950881004,2.95191311836243,1.14277172088623,-0.0669860785243584,2.93699414222283,1.18432466377777,2531.138,1285.221,1992.408,3227.178,0.03956457,-0.005466404,0.08834719,-0.181035608053207,0.12449885904789,0.0655453503131866,-0.0633008373176985,-0.0272365818771378,0.0391862337367069,9
0.339996337890625,-0.0887696817517281,2.95457053184509,1.14424192905426,-0.068326768706371,2.93641728069206,1.18515461486636,2746.728,1199.532,1826.365,3231.547,0.0412982,-0.005032309,0.08719052,-0.192209273576736,0.132872492074966,0.0735127031803131,-0.0708499516420146,-0.0304847548730522,0.0438594951176439,9
0.359992980957031,-0.0928236618638039,2.95740365982056,1.14589083194733,-0.0698219320097035,2.93577395369266,1.18608019217563,2888.183,1177.557,1709.893,3203.127,0.04221178,-0.004801679,0.08392815,-0.202699184417725,0.141652747988701,0.0824445262551308,-0.0787487928009798,-0.0338834055556794,0.0487492540690281,9
0.379997253417969,-0.0970701277256012,2.96041417121887,1.14775490760803,-0.0714791088463715,2.935060916796,1.18710606357981,2918.53,1212.426,1669.645,3152.418,0.04054109,-0.005021656,0.07879896,-0.212323024868965,0.150524631142616,0.0932050198316574,-0.0869889214763108,-0.0374289027221294,0.0538502862508218,9
0.399993896484375,-0.101489849388599,2.96358966827393,1.14986777305603,-0.0733036822025899,2.9342758538535,1.18823556140379,2841.967,1280.042,1704.264,3097.982,0.03557876,-0.005735916,0.07265865,-0.220986485481262,0.158776357769966,0.105643600225449,-0.0955525119207663,-0.0411135764513579,0.0591515566763244,9
0.419998168945313,-0.106063991785049,2.9669017791748,1.1522444486618,-0.0753034649285836,2.93341540321397,1.18947352217404,2696.154,1350.261,1787.151,3058.978,0.02777229,-0.006820356,0.06657307,-0.228707209229469,0.165600806474686,0.118830889463425,-0.104434660908044,-0.0449353170220673,0.0646500300148815,9
0.439994812011719,-0.110775701701641,2.9703094959259,1.15487360954285,-0.0774831213880516,2.93247755793201,1.19082283335389,2536.878,1405.177,1875.427,3042.622,0.0183431,-0.008068313,0.06144162,-0.235585629940033,0.1703871935606,0.1314577460289,-0.11361726969793,-0.0488863370519643,0.070334502284139,9
0.459999084472656,-0.115611389279366,2.97376728057861,1.15772318840027,-0.0798502821969742,2.93145903476675,1.19228821865812,2411.568,1433.012,1939.389,3046.382,0.008748618,-0.009290171,0.05777694,-0.241784363985062,0.172894075512886,0.142480194568634,-0.123096124252221,-0.0529648233581361,0.0762023647937057,9
0.479995727539063,-0.120561376214027,2.9772322177887,1.16074955463409,-0.0824088828700873,2.93035814037613,1.19387211435783,2350.531,1431.892,1958.184,3065.455,0.0001856822,-0.0103581,0.05560397,-0.247499287128448,0.17324960231781,0.151316910982132,-0.132852887402757,-0.0571628859694044,0.0822422659629699,9
0.5,-0.125620037317276,2.98066902160645,1.16391241550446,-0.085166398670376,2.92917165836334,1.1955791479969,2353.69,1409.186,1936.226,3089.976,-0.006714894,-0.01123268,0.05457657,-0.252932995557785,0.171840310096741,0.15814220905304,-0.142884000065179,-0.0614789935111996,0.0884520025491718,8
0.519996643066406,-0.130784913897514,2.98405170440674,1.16718244552612,-0.0881260274065667,2.92789821280061,1.19741129917127,2404.837,1377.333,1882.57,3114.281,-0.01193895,-0.01194161,0.05412534,-0.258243799209595,0.169137299060822,0.163502484560013,-0.153170920546857,-0.0659051680111775,0.0948200963613094,8
0.539993286132813,-0.136055290699005,2.98736262321472,1.17054772377014,-0.091293865515634,2.92653518056143,1.19937234186584,2472.754,1352.409,1820.341,3129.136,-0.01598056,-0.01256746,0.05371828,-0.263519287109375,0.165551617741585,0.168264105916023,-0.163706645289342,-0.0704383960337938,0.101342211863077,8
0.55999755859375,-0.141430616378784,2.99058938026428,1.17400968074799,-0.094676112580471,2.92507989413848,1.20146611391775,2531.902,1343.268,1764.161,3134.141,-0.01956944,-0.01320395,0.05299006,-0.268766015768051,0.161334082484245,0.17309844493866,-0.17448465888317,-0.0750758741803766,0.108014315705644,8
0.579994201660156,-0.146909490227699,2.99372029304504,1.17758011817932,-0.0982748462459366,2.92353145957921,1.20369390148813,2561.485,1356.529,1728.251,3127.542,-0.02344754,-0.01393206,0.05186354,-0.273943454027176,0.156549900770187,0.17851896584034,-0.185486174984119,-0.0798095192118365,0.114824778247021,8
0.599998474121094,-0.152489572763443,2.99674224853516,1.18127393722534,-0.102097262171133,2.92188678079254,1.20606015903275,2553.494,1383.182,1719.696,3117.542,-0.02807185,-0.01479759,0.05049741,-0.279004007577896,0.151102602481842,0.184692993760109,-0.196709126405959,-0.0846384416756885,0.121772319800455,8
0.6199951171875,-0.158168017864227,2.99963855743408,1.18510234355927,-0.106144683970236,2.92014528826426,1.20856570593183,2514.83,1419.926,1729.55,3108.681,-0.03356062,-0.01579734,0.04919596,-0.283921450376511,0.144816666841507,0.191417843103409,-0.208134604141382,-0.0895545055543457,0.128845234789665,8
0.639999389648438,-0.163942351937294,3.0023889541626,1.18907010555267,-0.110424235525481,2.91830391678686,1.21121495220784,2456.895,1455.766,1753.307,3105.246,-0.03968376,-0.01689669,0.04830335,-0.288717538118362,0.137520462274551,0.198389515280724,-0.219761081350814,-0.0945570538913933,0.136042578028218,8
0.659996032714844,-0.169811442494392,3.00497150421143,1.19317233562469,-0.114936482147704,2.9163624231229,1.21400824781511,2399.909,1484.111,1774.261,3110.647,-0.04598906,-0.01803599,0.0480595,-0.293454170227051,0.129123106598854,0.20511069893837,-0.231569557951997,-0.0996379114822372,0.143352587560098,8
0.67999267578125,-0.175776109099388,3.00736451148987,1.19739878177643,-0.119686638739014,2.91431856344567,1.21694882102647,2355.333,1502.026,1788.356,3121.654,-0.05197905,-0.01916144,0.04857968,-0.298234164714813,0.119646407663822,0.211323797702789,-0.243554411173546,-0.104794659005432,0.150771782621969,8
0.699996948242188,-0.181839495897293,3.0095489025116,1.20173454284668,-0.124680083855354,2.91217002351282,1.22004000142426,2334.864,1507.205,1786.045,3138.897,-0.05723719,-0.02022831,0.04978764,-0.303169578313828,0.10922446846962,0.216785758733749,-0.255710395848158,-0.11002503961202,0.158296916205407,8
0.719993591308594,-0.18800687789917,3.01151013374329,1.20616638660431,-0.129916240141956,2.90991705174396,1.22328143159838,2336.995,1507.604,1769.395,3154.908,-0.06159039,-0.02121474,0.0515097,-0.308369159698486,0.0980629175901413,0.221592664718628,-0.268018433064612,-0.115320844179508,0.165916177555513,8
0.739997863769531,-0.19428513944149,3.01323771476746,1.2106853723526,-0.135402141159277,2.90755662179454,1.22667746565781,2355.443,1501.017,1745.685,3170.702,-0.06504291,-0.02212661,0.0534976,-0.313912391662598,0.0863818824291229,0.225949600338936,-0.280478211503383,-0.120681938755799,0.173629373950669,7
0.759994506835938,-0.200681805610657,3.01472520828247,1.21528744697571,-0.14113644597991,2.90508931062815,1.2302272735046,2381.927,1499.972,1715.602,3181.115,-0.06781899,-0.02298148,0.05552609,-0.319833874702454,0.0743772462010384,0.230102315545082,-0.293070637251543,-0.126100107763583,0.181424685349205,7
0.779998779296875,-0.207204505801201,3.01596856117249,1.21997511386871,-0.147126184485884,2.90251209348295,1.23393520697061,2403.681,1503.499,1692.493,3186.103,-0.0702217,-0.02381292,0.05746024,-0.326135039329529,0.062173418700695,0.234385535120964,-0.305795832832518,-0.131575403921268,0.189302187598958,7
0.799995422363281,-0.213860154151917,3.01696515083313,1.22475337982178,-0.153369252164744,2.89982587587186,1.23779996326238,2416.328,1514.533,1674.839,3187.711,-0.0725509,-0.02464756,0.05925115,-0.332782477140427,0.0498266816139221,0.238911852240562,-0.318634718604462,-0.13709961779199,0.197250069492735,7
0.819999694824219,-0.220655024051666,3.0177116394043,1.22963011264801,-0.159872691993147,2.89702762739878,1.24182590231796,2413.071,1531.443,1670.958,3185.813,-0.07501219,-0.02550776,0.06097281,-0.339743703603745,0.0373231060802937,0.243838474154472,-0.331587821991737,-0.142672976311719,0.205268657531342,7
0.839996337890625,-0.227594703435898,3.01820421218872,1.23461031913757,-0.166633637018892,2.89411858163313,1.24601124935738,2399.568,1550.29,1672.863,3185.931,-0.07765884,-0.02639246,0.06272795,-0.346983730792999,0.0246235094964504,0.249012872576714,-0.344636106234817,-0.148287288494656,0.213346167053785,7
0.859992980957031,-0.234684690833092,3.01843786239624,1.23969829082489,-0.173656429312624,2.89109687030325,1.25035869232919,2376.796,1569.172,1683.474,3186.436,-0.08041681,-0.02729474,0.0646629,-0.354499071836472,0.0116816107183695,0.254399001598358,-0.357775446040398,-0.153940779342338,0.221480044306994,7
0.879997253417969,-0.241930603981018,3.01840758323669,1.24489271640778,-0.180945630646592,2.88796053060595,1.25487105518773,2355.762,1582.347,1691.949,3192.562,-0.08308956,-0.02819063,0.06685045,-0.36229607462883,-0.00150928273797035,0.259722799062729,-0.371001963495383,-0.159631780297098,0.229667888678032,7
0.899993896484375,-0.249338775873184,3.01810932159424,1.25019097328186,-0.18849723509595,2.8847112861788,1.25954585807468,2339.982,1594.253,1696.49,3199.088,-0.08550824,-0.02905402,0.06933209,-0.370408982038498,-0.0149141699075699,0.264911025762558,-0.384296738353309,-0.165352150505452,0.237897987633041,7
0.919998168945313,-0.256916284561157,3.01754021644592,1.25558865070343,-0.196318384305134,2.8813460641717,1.26438752200817,2333.409,1595.852,1698.17,3209.959,-0.08748005,-0.02986948,0.07205605,-0.378876686096191,-0.0284575130790472,0.269882380962372,-0.397661187980262,-0.171102499820431,0.246171218589148,7
0.939994812011719,-0.264670878648758,3.01669955253601,1.26108109951019,-0.204404317663683,2.87786691294234,1.26939309994354,2337.803,1598.413,1689.318,3220.225,-0.08894852,-0.03062316,0.07492146,-0.38772988319397,-0.0420280396938324,0.274621218442917,-0.4110765036434,-0.176874735369747,0.254475938044738,7
0.959999084472656,-0.272610723972321,3.01558923721313,1.26666653156281,-0.212762239776093,2.87427073255068,1.27456705187416,2348.148,1597.574,1680.119,3229.275,-0.08993229,-0.0313209,0.07781505,-0.396992027759552,-0.0555188544094563,0.279274255037308,-0.424544411524882,-0.18266959988136,0.262813214588797,7
0.979995727539063,-0.280743807554245,3.0142126083374,1.27234435081482,-0.22138664033507,2.87055989392801,1.27990596665734,2363.335,1599.483,1665.386,3236.953,-0.09054907,-0.03196859,0.08061548,-0.406654596328735,-0.068831779062748,0.283890455961227,-0.438046240701377,-0.188479059778567,0.271171490030365,7
0.999992370605469,-0.28907784819603,3.0125744342804,1.27811813354492,-0.230281353443786,2.86673274736685,1.28541221778558,2374.815,1603.885,1656.843,3240.442,-0.09095707,-0.03258857,0.08327112,-0.416702836751938,-0.0819143727421761,0.288690507411957,-0.451578832238886,-0.194301755860316,0.279548808838816,7
1.01999664306641,-0.297619730234146,3.0106794834137,1.2839914560318,-0.239450461003889,2.86278753653895,1.29108833215045,2382.89,1610.647,1649.559,3243.741,-0.09129476,-0.03319364,0.0857501,-0.427092552185059,-0.0947422757744789,0.293668806552887,-0.465139182559269,-0.200136395770846,0.2879433116562,7
1.03999328613281,-0.306375443935394,3.00853300094604,1.28996980190277,-0.248887339851819,2.85872711120656,1.2969302096982,2383.765,1623.321,1647.62,3243.289,-0.09169743,-0.03379232,0.08810025,-0.437787413597107,-0.107328474521637,0.298918336629868,-0.478708875293167,-0.205975055460915,0.29634359787259,7
1.05999755859375,-0.315350472927094,3.00613880157471,1.29605782032013,-0.258599401509697,2.85454828239877,1.30294243851408,2378.414,1631.405,1654.155,3244.87,-0.09216668,-0.0343926,0.09037995,-0.448751389980316,-0.119706273078918,0.304403960704803,-0.492290296490434,-0.211818761581115,0.30475114456651,7
1.07999420166016,-0.324549555778503,3.00350093841553,1.30225825309753,-0.268579290074434,2.85025421515517,1.30912046494367,2370.926,1643.007,1658.724,3246.78,-0.09268226,-0.03498328,0.09265225,-0.459954798221588,-0.13189885020256,0.310020416975021,-0.50586523043438,-0.217659676417445,0.313154675341593,7
1.09999847412109,-0.333977341651917,3.00062251091003,1.30857300758362,-0.278834517009062,2.84584167750307,1.31546893894041,2362.322,1649.273,1668.158,3250.159,-0.09314619,-0.03555799,0.09497086,-0.471389949321747,-0.143921941518784,0.315737068653107,-0.519436284009554,-0.223498921639497,0.321555803983559,7
1.1199951171875,-0.343638300895691,2.99750733375549,1.31500113010406,-0.289357002179081,2.84131414609862,1.32198285851614,2358.633,1654.595,1670.829,3256.152,-0.09347003,-0.03610021,0.09733313,-0.483046561479568,-0.155757337808609,0.321408987045288,-0.532985466132485,-0.229328756186667,0.329943393154705,7
1.13999938964844,-0.35353696346283,2.99415993690491,1.32154285907745,-0.300154365346813,2.83666834237095,1.3286669406667,2357.899,1656.163,1674.931,3261.789,-0.09357549,-0.03660515,0.09972715,-0.494934618473053,-0.167375385761261,0.327088624238968,-0.546515580872639,-0.235150386571708,0.338319178707607,7
1.15999603271484,-0.363677829504013,2.99058556556702,1.32819664478302,-0.311217811600473,2.8319080505249,1.33551574092274,2364.081,1657.116,1670.646,3269.54,-0.09343914,-0.03706481,0.1020811,-0.507044076919556,-0.178722694516182,0.332688361406326,-0.560008885098767,-0.240956178420931,0.346672176798798,7
1.17999267578125,-0.374065399169922,2.98679041862488,1.33496379852295,-0.322550701230474,2.8270318247214,1.34253133946411,2371.354,1657.623,1669.075,3274.403,-0.0930892,-0.03748825,0.1043523,-0.519376873970032,-0.189757943153381,0.338357776403427,-0.573463232144024,-0.246745208083563,0.355001058539242,7
1.19999694824219,-0.384703457355499,2.98278164863586,1.34184503555298,-0.334156660511822,2.8220381046756,1.34971598112778,2381.336,1658.493,1663.126,3280.473,-0.0925816,-0.03787974,0.10647,-0.531904518604279,-0.200442180037498,0.344060987234116,-0.58687652428584,-0.252516572968185,0.36330452533874,7
1.21999359130859,-0.395595610141754,2.97856640815735,1.34884333610535,-0.346025842163694,2.81693112739735,1.35706356997782,2389.33,1664.717,1658.376,3282.343,-0.09203885,-0.03824885,0.1084213,-0.544604241847992,-0.210761398077011,0.34991791844368,-0.600231432569387,-0.258262816909651,0.371571849748761,7
1.23999786376953,-0.406744420528412,2.9741518497467,1.35596263408661,-0.358166167196084,2.81170748469733,1.36457900949675,2393.561,1666.931,1660.676,3284.71,-0.09150515,-0.03860998,0.1102083,-0.557442903518677,-0.220728561282158,0.355964154005051,-0.613531154887641,-0.263985315871967,0.379805011417393,7
1.25999450683594,-0.418152034282684,2.96954464912415,1.363205909729,-0.3705671011502,2.80637170925886,1.37225577835275,2395.366,1674.959,1660.338,3286.045,-0.09105028,-0.03896258,0.1118543,-0.570380687713623,-0.230362758040428,0.362161576747894,-0.626758665639206,-0.269676744214496,0.387993470686331,7
1.27999877929688,-0.429819911718369,2.96475076675415,1.37057673931122,-0.383236695417198,2.80092033679326,1.3800988607405,2392.918,1679.585,1668.013,3286.758,-0.09066519,-0.03931305,0.1134125,-0.5833939909935,-0.239699125289917,0.368543833494186,-0.639917282339435,-0.275338529371412,0.396139281255613,7
1.29999542236328,-0.441748917102814,2.95977568626404,1.37807643413544,-0.396163740917024,2.79535819025452,1.38810131770546,2391.075,1685.457,1671.287,3289.499,-0.09032963,-0.03965021,0.1149068,-0.596450805664063,-0.248758405447006,0.374984592199326,-0.652990303744023,-0.280963485263868,0.404232104259424,7
1.31999969482422,-0.45393979549408,2.95462441444397,1.38570690155029,-0.409356423791328,2.7896817473746,1.39626821685929,2387.97,1688.052,1679.809,3291.352,-0.08998661,-0.03997352,0.1163783,-0.609545230865479,-0.257559716701508,0.381521135568619,-0.665981146317813,-0.286553081901244,0.412274054652251,8
1.33999633789063,-0.466392934322357,2.94930243492126,1.39346730709076,-0.422802873722428,2.78389611561957,1.40459220990988,2388.913,1690.304,1681.144,3296.216,-0.0895898,-0.04027019,0.1178108,-0.622657001018524,-0.266097903251648,0.388019949197769,-0.678873453515705,-0.29210028151913,0.420255006953505,8
1.35999298095703,-0.479108810424805,2.94381523132324,1.40135860443115,-0.436506138147829,2.77799998376221,1.41307518336622,2390.411,1690.255,1686.059,3299.242,-0.08910298,-0.04054396,0.1192064,-0.635789573192596,-0.274366199970245,0.394562721252441,-0.691665859866827,-0.297604496593558,0.428174115871672,8
1.37999725341797,-0.492087215185165,2.93816828727722,1.40937983989716,-0.450469530727146,2.77199192602736,1.42171918854144,2395.888,1689.579,1684.629,3304.822,-0.08851016,-0.04079004,0.120516,-0.648923695087433,-0.282343596220016,0.40106263756752,-0.704356955827446,-0.303065120637236,0.436030508832034,8
1.39999389648438,-0.505328238010406,2.93236804008484,1.4175318479538,-0.464680216184654,2.76587746507559,1.43051627978847,2402.131,1692.676,1682.021,3307.182,-0.087871,-0.04101162,0.1217221,-0.662052094936371,-0.290014773607254,0.407600551843643,-0.716930938559026,-0.308475354130225,0.443814403124744,8
1.41999816894531,-0.518831372261047,2.92642045021057,1.42581605911255,-0.47914673136562,2.75965292774086,1.43947174182117,2407.503,1690.703,1684.271,3310.305,-0.08719242,-0.04121988,0.1228037,-0.675158262252808,-0.297380268573761,0.414208739995956,-0.729391385793766,-0.313836736470737,0.451528013536465,8
1.43999481201172,-0.532595634460449,2.92033171653748,1.43423342704773,-0.493855616658466,2.75332410531803,1.44857724249882,2412.654,1694.956,1681.282,3312.351,-0.08654474,-0.04141535,0.1237497,-0.688214719295502,-0.304442405700684,0.420867383480072,-0.7417228873516,-0.319142637088802,0.459161800431646,8
1.45999908447266,-0.546619713306427,2.91410732269287,1.44278633594513,-0.508815552717244,2.74688726276417,1.45783815555978,2414.381,1696.233,1685.958,3312.849,-0.085945,-0.04160869,0.1245845,-0.701205611228943,-0.311223447322845,0.427644520998001,-0.753929052770513,-0.324394609067776,0.466717998286247,8
1.47999572753906,-0.560901701450348,2.9077525138855,1.4514753818512,-0.524012471663969,2.74034845309416,1.46724577231745,2416.003,1700.402,1686.034,3314.595,-0.08542036,-0.04179565,0.1253153,-0.714099526405334,-0.317742437124252,0.434451073408127,-0.765994882555672,-0.329586198544069,0.474187321698441,8
1.49999237060547,-0.575439453125,2.90127205848694,1.46030235290527,-0.539449263805741,2.7337064326896,1.47680188200959,2414.558,1702.018,1693.31,3314.462,-0.08495431,-0.04197994,0.1259861,-0.726888358592987,-0.324028044939041,0.441348314285278,-0.777919478371521,-0.334717018988988,0.481569214555725,8
1.51999664306641,-0.590230405330658,2.89467024803162,1.46926665306091,-0.555129074991064,2.72695984797977,1.48650843206629,2414.458,1703.371,1695.981,3317.13,-0.08451435,-0.04215464,0.1265993,-0.73954838514328,-0.330095171928406,0.448217689990997,-0.789701834723693,-0.339786637766398,0.488863054409188,8
1.53999328613281,-0.605271995067596,2.88795113563538,1.47836828231812,-0.571036956668503,2.72011513090874,1.49635616862212,2414.745,1706.787,1698.02,3317.842,-0.08410423,-0.0423155,0.1271755,-0.75207531452179,-0.335953146219254,0.455079466104507,-0.801327600455846,-0.344788879974649,0.496059957209413,8
1.55999755859375,-0.620561301708221,2.88111901283264,1.48760676383972,-0.587181951496087,2.71316839067337,1.50635068951315,2415.342,1703.687,1704.099,3320.234,-0.0836648,-0.04246464,0.1277152,-0.764465034008026,-0.341610908508301,0.461924821138382,-0.812800388649436,-0.349725300221754,0.503162159625937,8
1.57999420166016,-0.636095404624939,2.87417769432068,1.49698066711426,-0.603548545866849,2.70612630234534,1.51648239107766,2418.483,1705.304,1702.228,3322.917,-0.08320514,-0.04259619,0.1281983,-0.776705265045166,-0.347061306238174,0.468695402145386,-0.824106301004481,-0.354589918457504,0.510161057949003,8
1.59999847412109,-0.651871383190155,2.86713147163391,1.50648999214172,-0.620145926473056,2.69898491314762,1.52675696031579,2420.868,1703.236,1705.999,3324.175,-0.08271246,-0.04271604,0.1286253,-0.788798034191132,-0.352305591106415,0.475464582443237,-0.835248923368005,-0.359384277571697,0.517058871988737,8
1.6199951171875,-0.667885839939117,2.85998463630676,1.51613318920135,-0.636958033083316,2.69175113334911,1.53716445517924,2425.396,1704.115,1702.748,3326.88,-0.08221285,-0.04282257,0.1289656,-0.800724446773529,-0.357337981462479,0.482157349586487,-0.846214826007804,-0.364102599125749,0.523847288101157,8
1.63999938964844,-0.684135437011719,2.85274124145508,1.52591073513031,-0.653994195024907,2.68442094880091,1.54771065096602,2427.54,1703.311,1706.212,3326.764,-0.08171963,-0.0429243,0.1292328,-0.812484681606293,-0.362166941165924,0.488876730203629,-0.857007552155828,-0.368746407673381,0.530528499715628,8
1.65999603271484,-0.700616538524628,2.8454053401947,1.5358213186264,-0.671237824488362,2.67700149677403,1.55838527903188,2430.839,1704.779,1703.68,3328.638,-0.0812621,-0.04301857,0.1294086,-0.824055016040802,-0.366797983646393,0.495530247688293,-0.867614155697522,-0.373310132863173,0.537094492570531,8
1.67999267578125,-0.717325210571289,2.83798027038574,1.54586565494537,-0.688691692550512,2.66949158495151,1.56919005480539,2430.923,1704.759,1708.637,3327.511,-0.08084558,-0.04311391,0.1295248,-0.835435271263123,-0.371249854564667,0.502215623855591,-0.878034183119987,-0.377793579561193,0.543544985919778,8
1.69999694824219,-0.734257340431213,2.83046960830688,1.55604219436646,-0.706358800111611,2.66188992212981,1.58012683598675,2431.786,1705.003,1709.101,3329.099,-0.08046208,-0.04320499,0.1295751,-0.846603512763977,-0.375535041093826,0.508825361728668,-0.888267004546665,-0.382196476749158,0.549879589839776,8
1.71999359130859,-0.751408457756042,2.82287621498108,1.56635010242462,-0.72422180503422,2.6542039701462,1.59118488696678,2431.872,1708.213,1709.84,3328.085,-0.08013878,-0.04329075,0.1295848,-0.857556700706482,-0.379666119813919,0.515394508838654,-0.898300426012065,-0.386513577704374,0.556090755685004,8
1.73999786376953,-0.768774211406708,2.81520295143127,1.57678842544556,-0.742290383213093,2.64642956573347,1.60237019758524,2431.01,1704.929,1715.939,3328.622,-0.07982399,-0.04337384,0.1295665,-0.868291795253754,-0.383660316467285,0.52191573381424,-0.908137821269591,-0.39074633405868,0.562180571969536,8
1.75999450683594,-0.786350250244141,2.80745267868042,1.58735477924347,-0.760546715064628,2.63857437616062,1.61367173667103,2431.891,1706.526,1714.52,3329.591,-0.07952359,-0.04344734,0.1295148,-0.878798365592957,-0.387519210577011,0.528318822383881,-0.917767514700581,-0.394889722119545,0.568141810929231,8
1.77999877929688,-0.804131925106049,2.79962778091431,1.59804809093475,-0.779000609654483,2.63063418086074,1.62509557650306,2431.727,1703.82,1719.32,3329.415,-0.07920667,-0.04351552,0.1294429,-0.88908326625824,-0.391249418258667,0.5346639752388,-0.927192788821983,-0.398945154262308,0.57397650459845,8
1.79999542236328,-0.822114586830139,2.7917308807373,1.60886526107788,-0.797633790944145,2.62261684350262,1.63663040334288,2434.117,1703.895,1716.429,3331.086,-0.07888017,-0.04357251,0.1293261,-0.8991339802742,-0.394845515489578,0.540859639644623,-0.936402499096495,-0.402907835303912,0.579677753977713,9
1.81999206542969,-0.840293705463409,2.78376460075378,1.61980533599854,-0.816448984455027,2.61452119137054,1.64827790441807,2434.804,1701.579,1720.032,3330.204,-0.07853609,-0.04362524,0.1291773,-0.908959567546844,-0.398310720920563,0.54700368642807,-0.945396434568188,-0.406777674475912,0.585245428475252,9
1.83999633789063,-0.858664691448212,2.77573180198669,1.63086545467377,-0.835449117627072,2.60634596486888,1.66003989195343,2437.179,1700.031,1718.131,3331.748,-0.07817603,-0.04367105,0.1289704,-0.918545305728912,-0.401642024517059,0.553006827831268,-0.954174163352093,-0.410554485950274,0.590679260733698,9
1.85999298095703,-0.877222537994385,2.76763510704041,1.64204394817352,-0.854615270215496,2.5980993048504,1.67190465341613,2438.934,1701.982,1716.327,3330.28,-0.07784633,-0.043711,0.1287143,-0.927891671657562,-0.404840469360352,0.558925449848175,-0.962725359910172,-0.414233826936439,0.595972858753131,9
1.87999725341797,-0.895962417125702,2.75947666168213,1.65333938598633,-0.873957566090845,2.58977685529642,1.6838784559643,2439.08,1698.014,1720.512,3329.891,-0.07752142,-0.04375201,0.1284147,-0.936996102333069,-0.407918870449066,0.564774036407471,-0.971053025860989,-0.417816988947023,0.601128080678429,9
1.89999389648438,-0.914879381656647,2.75125908851624,1.6647492647171,-0.893456683142228,2.58138692997148,1.69594933829086,2439.94,1699.688,1717.901,3329.51,-0.07722901,-0.04378876,0.1280692,-0.945846319198608,-0.410880893468857,0.570492386817932,-0.979147395688901,-0.421299770153459,0.606138881190213,9
1.91999816894531,-0.933968305587769,2.74298429489136,1.67627215385437,-0.913122862707269,2.57292512231409,1.70812364027167,2438.6,1697.216,1722.666,3327.827,-0.07694778,-0.04382711,0.1277016,-0.954447448253632,-0.413739711046219,0.576143980026245,-0.987011339258123,-0.424683405378145,0.611007036871143,9
1.93999481201172,-0.953223943710327,2.73465442657471,1.68790471553802,-0.932936403420974,2.56439990927123,1.72038916582329,2439.111,1697.506,1720.333,3328.098,-0.07668199,-0.0438596,0.1273004,-0.962786257266998,-0.416497319936752,0.581626057624817,-0.994635661494588,-0.427963938237592,0.615726855532351,9
1.95999908447266,-0.972641468048096,2.72627115249634,1.69964528083801,-0.952907658613767,2.55580683609405,1.73275232415044,2437.635,1695.014,1724.911,3326.064,-0.07640982,-0.04389049,0.1268907,-0.970873415470123,-0.419161766767502,0.587026357650757,-1.00202309041976,-0.431142542523221,0.620300025949072,9
1.97999572753906,-0.992215394973755,2.71783661842346,1.71148991584778,-0.973016570682103,2.54715453300902,1.74520069864106,2438.734,1694.15,1722.039,3326.74,-0.07613072,-0.04391339,0.1264501,-0.978696703910828,-0.421729654073715,0.592230618000031,-1.00916501115878,-0.434215511495054,0.624721215103391,9
1.99999237060547,-1.01194071769714,2.70935249328613,1.72343683242798,-0.993265847141347,2.5384418350479,1.75773596537614,2437.917,1691.386,1725.764,3324.546,-0.07583085,-0.04393417,0.1259988,-0.986269056797028,-0.424203842878342,0.597343921661377,-1.01606141646104,-0.437182842033357,0.628990418506833,9
2.01999664306641,-1.03181231021881,2.70082092285156,1.73548209667206,-1.01365835337184,2.52966750931758,1.77035989816261,2439.225,1688.698,1723.748,3325.281,-0.07549902,-0.04394802,0.1255097,-0.993578672409058,-0.426578760147095,0.602262675762177,-1.02271203275434,-0.440044416427654,0.633107466805174,9
2.03999328613281,-1.05182492733002,2.69224381446838,1.74762308597565,-1.03417354141348,2.52084039703127,1.78305977683431,2440.276,1689.715,1721.469,3322.878,-0.07517784,-0.04395494,0.1249911,-1.00063049793243,-0.428850322961807,0.607047438621521,-1.02910913225408,-0.442796909628122,0.637067576131623,9
2.05999755859375,-1.0719735622406,2.68362331390381,1.75985741615295,-1.05482201812353,2.5119559343546,1.79584216754118,2440.108,1684.314,1725.065,3321.835,-0.07483482,-0.04396186,0.124443,-1.00742590427399,-0.431025296449661,0.611714243888855,-1.03525504859546,-0.445441325732794,0.640872191117535,9
2.07999420166016,-1.09225249290466,2.67496132850647,1.77218151092529,-1.07558293843174,2.50302309033894,1.80869416619175,2441.092,1684.747,1721.375,3320.733,-0.0744998,-0.04396346,0.1238559,-1.01395547389984,-0.433100402355194,0.61620432138443,-1.0411426556922,-0.447974598585819,0.644516900376035,9
2.09999847412109,-1.11265707015991,2.666259765625,1.78459346294403,-1.09646699912883,2.4940372624541,1.82162239460902,2439.839,1681.36,1725.076,3318.116,-0.07415839,-0.04396613,0.1232495,-1.02022671699524,-0.435083389282227,0.620595157146454,-1.04677411523768,-0.450397658303471,0.648003042098304,9
2.1199951171875,-1.13318157196045,2.65752029418945,1.79708909988403,-1.11745308225396,2.48500753716864,1.83461377976925,2440.467,1680.525,1721.875,3317.493,-0.07381963,-0.04396346,0.1226078,-1.02622711658478,-0.436972618103027,0.624784350395203,-1.0521429102862,-0.45270770082608,0.651326581984514,8
2.13999938964844,-1.15382099151611,2.64874482154846,1.80966651439667,-1.138551967509,2.47592927627801,1.8476749948214,2438.688,1677.483,1725.786,3314.286,-0.07347129,-0.0439608,0.121957,-1.03196799755096,-0.438774645328522,0.628872573375702,-1.05725102347782,-0.454905579228273,0.654488747383304,8
2.15999603271484,-1.17456960678101,2.63993501663208,1.82232129573822,-1.15974228854654,2.4668116731246,1.86079281297862,2439.411,1675.816,1722.466,3313.923,-0.07311389,-0.04395068,0.1212751,-1.03743660449982,-0.440485835075378,0.632738530635834,-1.06209255378819,-0.456988754464129,0.657485885279498,8
2.17999267578125,-1.19542253017426,2.63109278678894,1.83505129814148,-1.18102676265167,2.45765355853653,1.8739689163698,2437.784,1672.622,1726.087,3310.473,-0.07273678,-0.04394003,0.1205872,-1.04264652729034,-0.44210946559906,0.636497557163239,-1.06666760390386,-0.458957270716794,0.660318059240953,8
2.19999694824219,-1.21637439727783,2.62222003936768,1.84785199165344,-1.20240821395574,2.44845371736898,1.88720505326679,2438.415,1668.914,1724.082,3310.309,-0.0723224,-0.04392298,0.119867,-1.04758620262146,-0.443640261888504,0.640033364295959,-1.07097597819164,-0.460811043810786,0.662985148161421,8
2.21999359130859,-1.23741936683655,2.61331868171692,1.86072027683258,-1.22386495005255,2.43922148325834,1.90048779503681,2438.764,1669.292,1721.753,3306.783,-0.07191334,-0.04389848,0.1191264,-1.05226194858551,-0.44507309794426,0.643412292003632,-1.07501271071614,-0.462547937042828,0.665484077890325,8
2.23999786376953,-1.25855314731598,2.60439014434814,1.87365317344666,-1.24540792547886,2.42995214277345,1.91382392305993,2438.141,1662.822,1725.134,3305.005,-0.07147072,-0.04387292,0.1183634,-1.05667626857758,-0.446412771940231,0.646645307540894,-1.07877930973132,-0.464168599372462,0.667815782108711,8
2.25999450683594,-1.27976953983307,2.5954372882843,1.88664674758911,-1.26701526177039,2.4206551096063,1.92719989352455,2438.828,1662.144,1721.388,3302.96,-0.07102171,-0.04384149,0.1175684,-1.06082201004028,-0.447653323411942,0.649677336215973,-1.08227143928024,-0.465671165158559,0.669977576652695,8
2.27999877929688,-1.30106353759766,2.58646130561829,1.89969837665558,-1.28869796983554,2.41132564607061,1.9406225227075,2437.602,1657.571,1724.475,3299.757,-0.07055033,-0.043809,0.1167559,-1.06470704078674,-0.44879874587059,0.65258377790451,-1.08549040888332,-0.467056197851165,0.67197027217779,8
2.29999542236328,-1.32243001461029,2.57746434211731,1.91280376911163,-1.31043401044317,2.40197323503182,1.95407816727483,2438.359,1655.841,1720.766,3298.131,-0.07007097,-0.04376958,0.1159088,-1.0683206319809,-0.449844270944595,0.655269622802734,-1.08843251702753,-0.468322104792631,0.6737915772711,8
2.31999206542969,-1.34386336803436,2.56844854354858,1.92596054077148,-1.33222611841886,2.3925966997709,1.96756852021384,2436.665,1651.638,1724.26,3294.197,-0.06957242,-0.04373017,0.1150498,-1.07167387008667,-0.450794368982315,0.657840609550476,-1.09109790637238,-0.469468947365361,0.675441580245663,7
2.33999633789063,-1.36535859107971,2.55941557884216,1.93916428089142,-1.35407709248145,2.38319483607731,1.98109531406483,2436.995,1647.716,1722.132,3293.032,-0.06904192,-0.0436849,0.1141568,-1.07475519180298,-0.45164492726326,0.660184800624847,-1.09348640563071,-0.470496651869278,0.67692017506657,7
2.35999298095703,-1.38690996170044,2.55036783218384,1.95241165161133,-1.37596470003558,2.37377721001573,1.99464478579218,2436.888,1647.465,1720.079,3288.698,-0.06851941,-0.0436327,0.1132448,-1.07757031917572,-0.452392578125,0.662367045879364,-1.09559527181965,-0.471404038075479,0.678225663696753,7
2.37999725341797,-1.40851211547852,2.54130697250366,1.96569955348969,-1.39790005743958,2.36433903852774,2.00822381695123,2435.813,1640.29,1723.644,3286.301,-0.0679628,-0.04357944,0.1123133,-1.08012175559998,-0.453042924404144,0.664395034313202,-1.09742530100382,-0.472191448508328,0.679358538938131,7
2.39999389648438,-1.43016052246094,2.53223514556885,1.97902369499207,-1.41986083522252,2.35488992936084,2.02181858453579,2436.296,1639.012,1719.837,3283.56,-0.06739768,-0.04351871,0.1113536,-1.08240282535553,-0.453589648008347,0.666208982467651,-1.09897439291323,-0.472857979480329,0.680317500623536,7
2.41999816894531,-1.45184874534607,2.52315449714661,1.99238157272339,-1.44185817738692,2.34542508756209,2.03543598721428,2434.765,1633.492,1723.289,3279.743,-0.06680273,-0.0434564,0.1103809,-1.08442306518555,-0.454036265611649,0.667893528938293,-1.10024313330221,-0.473403883025206,0.681102911362803,6
2.43999481201172,-1.47357213497162,2.51406693458557,2.00576829910278,-1.46386968334064,2.3359541514805,2.04906215795307,2435.795,1630.769,1719.167,3277.747,-0.06618967,-0.04338556,0.1093736,-1.08617126941681,-0.454376041889191,0.669338166713715,-1.10123006676374,-0.473828532921971,0.681713870189648,6
2.45999908447266,-1.49532544612885,2.50497460365295,2.01918172836304,-1.48590651627916,2.32647231790489,2.06270400730194,2434.186,1626.045,1722.446,3273.063,-0.06555317,-0.04331365,0.1083548,-1.0876601934433,-0.454611659049988,0.67066878080368,-1.10193556692257,-0.474132089930926,0.682150608395601,6
2.47999572753906,-1.51710295677185,2.49587988853455,2.03261685371399,-1.50794623031618,2.31698924467309,2.07634764018804,2435.412,1622.213,1718.586,3271.325,-0.06489484,-0.04323269,0.1072973,-1.08887672424316,-0.454737454652786,0.671752214431763,-1.10235882472314,-0.474314205938057,0.682412625136718,5
2.49999237060547,-1.53889966011047,2.48678469657898,2.04607129096985,-1.52999158792198,2.30750374317131,2.08999476671204,2433.775,1617.93,1721.565,3266.184,-0.06421734,-0.0431512,0.1062277,-1.08983397483826,-0.454755902290344,0.672727286815643,-1.10250000048238,-0.474374949923262,0.68250001965682,5
2.51999664306641,-1.56070995330811,2.47769141197205,2.05954051017761,-1.55204535801192,2.29801462201262,2.10364710096447,2434.427,1612.375,1719.517,3264.502,-0.06350361,-0.04306278,0.1051195,-1.09051966667175,-0.454663157463074,0.673465847969055,-1.10235893238473,-0.47431425226183,0.68241269178437,5
2.53999328613281,-1.58252882957458,2.46860218048096,2.07302141189575,-1.57408507527774,2.28853154739156,2.11729073584934,2434.424,1611.627,1717.233,3259.124,-0.06280053,-0.04296744,0.1039901,-1.09093952178955,-0.454456061124802,0.674045920372009,-1.10193578218388,-0.474132182551855,0.682150741652607,4
2.55999755859375,-1.60435080528259,2.4595193862915,2.08651089668274,-1.59612191359838,2.27904971150017,2.13093258853001,2433.319,1603.396,1720.902,3256.063,-0.06206603,-0.04287104,0.1028382,-1.09109568595886,-0.45414125919342,0.674473583698273,-1.10123038958312,-0.473828671822132,0.681714070030222,3
2.57999420166016,-1.62617027759552,2.4504451751709,2.10000467300415,-1.61813342708139,2.26957877217893,2.14455876392979,2433.822,1601.181,1717.233,3252.488,-0.06132355,-0.04276611,0.1016565,-1.09098124504089,-0.453713744878769,0.674685180187225,-1.10024356351463,-0.47340406813359,0.681103177684783,1
2.59999847412109,-1.6479823589325,2.44138145446777,2.11350011825562,-1.64013077892511,2.26011392621545,2.15817617260023,2432.181,1595.267,1720.474,3247.832,-0.06055815,-0.04266011,0.1004619,-1.09060525894165,-0.453177601099014,0.674770772457123,-1.09897493039424,-0.472858210743393,0.680317833349887,0
2.6199951171875,-1.66978168487549,2.43233108520508,2.12699246406555,-1.66209156852628,2.2506648119635,2.17177094750084,2433.111,1591.19,1717.04,3245.077,-0.05977412,-0.04254506,0.09923424,-1.08995795249939,-0.452528148889542,0.674616754055023,-1.09742594550583,-0.472191725819537,0.679358937915576,0
2.63999176025391,-1.6915625333786,2.42329573631287,2.14047932624817,-1.68401858115471,2.2412302309993,2.1853448128463,2431.5,1585.805,1720.074,3239.815,-0.05896771,-0.04242788,0.09799574,-1.08905112743378,-0.451767921447754,0.674347877502441,-1.09559677441039,-0.471404684598297,0.678226593871999,0
2.65999603271484,-1.71332001686096,2.41427779197693,2.15395617485046,-1.70591456353497,2.23180900148401,2.19889946898997,2432.288,1579.753,1717.986,3237.452,-0.05812243,-0.04230378,0.09672128,-1.08787453174591,-0.450892478227615,0.673842072486877,-1.09348726343002,-0.470497020956359,0.676920706085208,0
2.67999267578125,-1.73504865169525,2.40527987480164,2.16741967201233,-1.72775723139253,2.2224107117184,2.21242112090437,2432.509,1578.009,1715.842,3231.655,-0.05728459,-0.04217169,0.09542661,-1.08643400669098,-0.449898242950439,0.673178434371948,-1.09109983431736,-0.469469776906228,0.675442773735451,0
2.69999694824219,-1.75674343109131,2.3963041305542,2.18086695671082,-1.74955768413056,2.21303058593937,2.22591663964878,2431.741,1569.165,1719.166,3228.209,-0.05641427,-0.04203746,0.09410787,-1.08473193645477,-0.448791176080704,0.672363340854645,-1.08843358680109,-0.468322565086308,0.673792239511893,0
2.71999359130859,-1.77839851379395,2.38735294342041,2.1942937374115,-1.77129374718429,2.20367816524265,2.23937229811132,2432.51,1566.145,1715.677,3224.029,-0.05553703,-0.04189525,0.09275803,-1.08276236057281,-0.447566598653793,0.671337962150574,-1.08549158402443,-0.467056703481556,0.671970999646117,0
2.73999786376953,-1.80000925064087,2.3784282207489,2.20769762992859,-1.79297647980783,2.19434869114016,2.25279494249708,2431.07,1559.749,1718.692,3218.945,-0.05464061,-0.04175144,0.0913932,-1.08053338527679,-0.446229010820389,0.670192778110504,-1.08227271937422,-0.465671715947234,0.669978369091845,0
2.75999450683594,-1.82156980037689,2.36953258514404,2.2210738658905,-1.81458384274179,2.18505164650952,2.26617092945464,2432.128,1554.946,1715.553,3215.588,-0.05372981,-0.04159911,0.08999466,-1.07803606987,-0.444775253534317,0.668814539909363,-1.07878069424208,-0.464169195088763,0.667816639186824,0
2.77999877929688,-1.84307539463043,2.36066865921021,2.23442053794861,-1.83612684690458,2.17578229366013,2.27950707526701,2430.468,1549.361,1718.503,3209.792,-0.05280409,-0.04144464,0.08858625,-1.07528150081635,-0.443208992481232,0.667330980300903,-1.07501419914593,-0.462548577472581,0.665484999299265,0
2.79999542236328,-1.86452054977417,2.35183811187744,2.24773263931274,-1.85758361379882,2.16655004629821,2.2927898361021,2431.912,1543.504,1715.372,3206.84,-0.05185867,-0.04128166,0.08714183,-1.07225954532623,-0.441527128219604,0.665601193904877,-1.07097756992209,-0.460811728687929,0.662986133518392,0
2.81999206542969,-1.88590002059937,2.34304356575012,2.26100826263428,-1.87895695992541,2.1573536925621,2.30602095550813,2430.171,1538.351,1718.309,3200.536,-0.050901,-0.04111601,0.08569015,-1.06898260116577,-0.439732640981674,0.663779854774475,-1.06667099276523,-0.458958728849171,0.660320157107579,0
2.83999633789063,-1.90720891952515,2.33428692817688,2.27424263954163,-1.90024960698239,2.14819206138118,2.31920211834584,2431.302,1530.7,1716.597,3197.981,-0.04990604,-0.04094344,0.08420138,-1.06544089317322,-0.437823295593262,0.661717414855957,-1.06209435025759,-0.456989527434725,0.657486997379635,0
2.85999298095703,-1.92844176292419,2.32557129859924,2.28743290901184,-1.92143996495749,2.13907444233456,2.33231995936916,2431.395,1528.812,1714.744,3191.193,-0.04892546,-0.04076341,0.08269797,-1.06164121627808,-0.435796439647675,0.659516751766205,-1.0572529212638,-0.454906395792563,0.654489922203231,0
2.87999725341797,-1.94959342479706,2.31689810752869,2.30057621002197,-1.94253888918396,2.12999616467562,2.34538119854648,2430.881,1518.893,1718.011,3187.641,-0.04791453,-0.04058125,0.0811708,-1.05758535861969,-0.433658927679062,0.657163679599762,-1.05214490868305,-0.452708560680416,0.651327819087361,0
2.89999389648438,-1.970658659935,2.30826997756958,2.31366848945618,-1.96352501326936,2.1209664217661,2.35837260906308,2431.655,1515.474,1714.929,3182.551,-0.04690199,-0.04039163,0.07961854,-1.05326986312866,-0.431407123804092,0.654615342617035,-1.04677621342161,-0.450398561093403,0.648004340974112,0
2.91999816894531,-1.99163281917572,2.29968905448914,2.32670760154724,-1.98440911693069,2.11198057539494,2.37130086407726,2430.396,1508.189,1717.953,3177.285,-0.04587295,-0.04019935,0.07805378,-1.04870223999023,-0.429046154022217,0.65195232629776,-1.04114485287423,-0.447975543971863,0.644518260536375,0
2.93999481201172,-2.01251029968262,2.29115748405457,2.33968877792358,-2.00517008215741,2.10304771205211,2.38415289053452,2431.695,1502.581,1715.161,3173.317,-0.04483112,-0.03999908,0.07645917,-1.04387605190277,-0.426573723554611,0.649064600467682,-1.03525734386973,-0.445442313325187,0.640873612001643,0
2.95999908447266,-2.03328633308411,2.28267765045166,2.35261034965515,-2.02581860575671,2.0941632292003,2.39693531026807,2430.196,1496.609,1717.964,3167.122,-0.04377864,-0.03979615,0.07485805,-1.03880167007446,-0.423993289470673,0.646084129810333,-1.02911152474823,-0.442797939051516,0.637069057199471,0
2.97999572753906,-2.05395579338074,2.27425169944763,2.36546754837036,-2.04633384260397,2.08533609591429,2.40963521915279,2431.945,1489.771,1715.251,3163.686,-0.04270805,-0.03958523,0.0732244,-1.03347134590149,-0.421303242444992,0.64286470413208,-1.02271452148052,-0.440045487257004,0.633109007445237,0
2.99999237060547,-2.07451367378235,2.26588153839111,2.37825894355774,-2.0667186476113,2.07656508380516,2.42225438451524,2430.385,1484.376,1717.97,3156.983,-0.04163213,-0.03937164,0.07158674,-1.02789676189423,-0.418506264686584,0.639568328857422,-1.01606658442979,-0.437185065665935,0.628993617725676,0
3.01999664306641,-2.09495496749878,2.2575695514679,2.3909797668457,-2.08697572864857,2.06784902775215,2.4347944826559,2431.781,1475.825,1716.685,3153.992,-0.04052212,-0.03915166,0.06991543,-1.02207040786743,-0.415602117776871,0.636040687561035,-1.00916768936771,-0.434216663853534,0.624722873042298,0
3.03999328613281,-2.11527514457703,2.24931764602661,2.40362763404846,-2.10708469520508,2.05919670122237,2.4472428908773,2432.023,1473.545,1714.979,3146.706,-0.03943289,-0.03892476,0.06823447,-1.01599895954132,-0.412588715553284,0.632389783859253,-1.00202586176059,-0.431143734953757,0.620301741541063,0
3.05999755859375,-2.13546872138977,2.24112844467163,2.41619968414307,-2.12705600675913,2.05060360379452,2.45960608409476,2431.566,1463.124,1718.43,3142.855,-0.03831863,-0.03869573,0.06653473,-1.00968539714813,-0.409473806619644,0.62860107421875,-0.994638524886308,-0.427965170275055,0.615728628108227,0
3.07999420166016,-2.15553116798401,2.23300313949585,2.42869210243225,-2.14686960564145,2.04207836572333,2.47187164565552,2432.64,1458.934,1715.616,3137.439,-0.03720542,-0.03845924,0.06481425,-1.00312733650208,-0.406254976987839,0.624624133110046,-0.987014293508169,-0.424684676509408,0.611008865692653,0
3.09999847412109,-2.17545795440674,2.22494435310364,2.44110321998596,-2.16653584520328,2.033616532251,2.4840459847772,2431.363,1451.685,1718.657,3131.691,-0.0360837,-0.03822115,0.06308836,-0.996332883834839,-0.402937293052673,0.62055379152298,-0.979150439632689,-0.421301079877433,0.606140765536421,0
3.1199951171875,-2.19524383544922,2.21695399284363,2.4534285068512,-2.18603502400946,2.02522658035469,2.49611690533293,2433.009,1444.931,1716.347,3127.594,-0.03494919,-0.03797561,0.06133715,-0.989297688007355,-0.399520188570023,0.616263508796692,-0.971056158224178,-0.417818336715394,0.601130019760458,0
3.13999176025391,-2.21488428115845,2.20903396606445,2.46566653251648,-2.20537003837109,2.01690726383265,2.50808620027724,2431.603,1439.194,1718.926,3120.941,-0.03381256,-0.03772687,0.05958629,-0.982031762599945,-0.396006554365158,0.611901342868805,-0.962731798945895,-0.414236597473625,0.595976844822977,0
3.15999603271484,-2.234375,2.20118594169617,2.47781300544739,-2.22454360124808,2.00865741537402,2.51995554906156,2433.117,1430.345,1717.979,3117.582,-0.03264609,-0.03747334,0.05780838,-0.97453099489212,-0.392396926879883,0.607320725917816,-0.95417746870157,-0.410555908149813,0.590681306902481,0
3.17999267578125,-2.25371122360229,2.19341206550598,2.48986554145813,-2.24353658854737,2.00048526354177,2.53171311296128,2433.419,1427.56,1716.642,3110.182,-0.0315004,-0.03721182,0.05602719,-0.966801702976227,-0.388689637184143,0.602630317211151,-0.945403214201559,-0.406780591562751,0.585249625391267,0
3.19999694824219,-2.27288770675659,2.18571472167969,2.50182175636292,-2.2623590635174,1.99238647840124,2.54336512160655,2433.291,1417.012,1719.791,3106.276,-0.03033234,-0.03694923,0.05423145,-0.95884770154953,-0.384891837835312,0.597808301448822,-0.936405971974636,-0.402909329586355,0.579679903854719,0
3.21999359130859,-2.29190135002136,2.17809462547302,2.51367807388306,-2.28099231507127,1.9843691108104,2.55489999194326,2434.583,1412.509,1717.295,3100.539,-0.02916854,-0.03667919,0.05242077,-0.950668573379517,-0.381001591682434,0.592813909053802,-0.927196343299057,-0.398946683654493,0.573978704989081,0
3.23999786376953,-2.31074666976929,2.1705539226532,2.5254328250885,-2.29944628156995,1.97642888457015,2.56632387629027,2433.472,1404.949,1720.385,3094.818,-0.02799941,-0.03640807,0.05060878,-0.942271947860718,-0.377024084329605,0.587740838527679,-0.917771149318993,-0.394891285994308,0.568144060931169,0
3.25999450683594,-2.32942008972168,2.16309475898743,2.5370819568634,-2.31770268688992,1.96857366338589,2.57762546085652,2435.339,1398.025,1718.264,3090.44,-0.02682123,-0.03612951,0.0487771,-0.933655440807343,-0.372959434986115,0.582460165023804,-0.90814153446928,-0.390747931744771,0.562182870617026,0
3.27999877929688,-2.3479163646698,2.15571856498718,2.54862451553345,-2.33577134012187,1.96079922667992,2.58881081793642,2434.024,1392.225,1720.86,3083.754,-0.02564677,-0.03584988,0.04695092,-0.924828410148621,-0.368810653686523,0.577125072479248,-0.898304216251578,-0.386515208538549,0.556093102023818,0
3.29999542236328,-2.36623215675354,2.14842700958252,2.56005597114563,-2.35363442159312,1.95311324175956,2.5998689163037,2436.327,1383.95,1719.04,3079.99,-0.02445847,-0.03556279,0.04510308,-0.915788650512695,-0.364579081535339,0.571570992469788,-0.888270870184445,-0.382198140025101,0.549881982853707,0
3.31999206542969,-2.38436341285706,2.14122176170349,2.57137560844421,-2.37129490830989,1.94551442770222,2.61080159886703,2434.825,1379.025,1721.543,3072.803,-0.02327976,-0.0352741,0.04326538,-0.906545519828796,-0.360266983509064,0.565982699394226,-0.878042061913513,-0.37779696958594,0.54354986326829,0
3.33999633789063,-2.40230512619019,2.13410425186157,2.58257913589478,-2.38875555478454,1.93800159931817,2.62161057080077,2436.801,1368.974,1721.083,3069.76,-0.02207121,-0.03498062,0.04140469,-0.897097826004028,-0.355876922607422,0.560181379318237,-0.867618167158097,-0.373311858882592,0.53709697585572,0
3.35999298095703,-2.42005443572998,2.12707614898682,2.59366512298584,-2.40599926516969,1.93058211247293,2.63228524896102,2437.049,1366.98,1719.766,3061.779,-0.02089463,-0.03468075,0.03955174,-0.88745129108429,-0.351406931877136,0.554302632808685,-0.857011633930453,-0.36874816394697,0.530531026528563,0
3.37999725341797,-2.43760657310486,2.12013864517212,2.60463118553162,-2.42303550945299,1.9232518924954,2.64283149572124,2437.232,1355.728,1723.11,3058.236,-0.01969993,-0.03438034,0.03769009,-0.87761116027832,-0.34686541557312,0.548303425312042,-0.846218976345105,-0.364104384899943,0.523849857357654,0
3.39999389648438,-2.45495796203613,2.11329388618469,2.61547446250916,-2.43984769972619,1.91601807669906,2.65323904237604,2438.335,1351.478,1721.217,3052.088,-0.01851536,-0.03407408,0.03582568,-0.867579102516174,-0.342251092195511,0.542164444923401,-0.835253140422974,-0.35938609205264,0.51706148254665,0
3.41999816894531,-2.4721052646637,2.10654258728027,2.62619352340698,-2.45644516534361,1.90887665092339,2.66351366424015,2437.837,1343.67,1723.781,3046.774,-0.01732919,-0.03376622,0.03396515,-0.857361972332001,-0.33756896853447,0.535948574542999,-0.824110582941664,-0.354591760855451,0.510163708672097,0
3.43999481201172,-2.48904466629028,2.09988617897034,2.63678479194641,-2.4728118459714,1.90183452548138,2.67364541920187,2439.524,1336.88,1722.544,3041.942,-0.01614195,-0.03345303,0.03209757,-0.846961677074432,-0.332820177078247,0.529566466808319,-0.812804733542555,-0.349727169707881,0.503164849321754,0
3.45999145507813,-2.50577211380005,2.09332609176636,2.6472475528717,-2.48895081463434,1.8948903781363,2.68363620960993,2438.627,1330.841,1724.817,3035.74,-0.01496057,-0.03313771,0.0302418,-0.836385309696198,-0.328007459640503,0.523137331008911,-0.80133641229185,-0.344792671461508,0.496065412155666,0
3.47999572753906,-2.52228474617004,2.08686351776123,2.65757822990417,-2.50486489870395,1.88804299234919,2.69348778574196,2440.46,1322.083,1724.44,3031.901,-0.01376215,-0.0328192,0.02837574,-0.825635433197021,-0.323133230209351,0.516532301902771,-0.789706299681989,-0.339788558913217,0.488865818431069,0
3.49999237060547,-2.53857898712158,2.08049964904785,2.66777539253235,-2.52053886467493,1.8812989226718,2.70319071733255,2440.929,1318.82,1723.782,3024.677,-0.01259196,-0.03249482,0.02652246,-0.814717054367065,-0.318196833133698,0.509859085083008,-0.777928522316836,-0.334720910345999,0.481574813188698,0
3.51999664306641,-2.55465173721313,2.07423543930054,2.67783713340759,-2.53598168290031,1.87465430941181,2.7127505574575,2441.295,1308.629,1726.605,3020.868,-0.01141111,-0.03216992,0.02466899,-0.803636610507965,-0.313205242156982,0.503085613250732,-0.765999459475408,-0.329588167864767,0.474190155029786,0
3.53999328613281,-2.57049989700317,2.06807231903076,2.68776106834412,-2.55117869390181,1.86811546013321,2.72215823120146,2442.515,1303.864,1725.314,3014.998,-0.01024198,-0.03184075,0.02281982,-0.792397260665894,-0.308158367872238,0.496193438768387,-0.753933682518821,-0.324396601119134,0.466720864320997,0
3.55999755859375,-2.58611989021301,2.06201076507568,2.69754600524902,-2.56613872308604,1.86167857751006,2.73141920191151,2442.203,1296.512,1727.637,3009.796,-0.009076586,-0.03151052,0.02098144,-0.781005561351776,-0.303060472011566,0.489242643117905,-0.741727567798258,-0.319144650954242,0.459164697851087,0
3.57999420166016,-2.60150909423828,2.05605268478394,2.70718884468079,-2.58084770246059,1.8553497146065,2.74052476083022,2444.047,1289.832,1726.647,3005.011,-0.007914915,-0.03117603,0.01914391,-0.769465327262878,-0.297913491725922,0.482146829366684,-0.729396114728537,-0.313838771199258,0.451530940972359,0
3.59999847412109,-2.61666440963745,2.05019807815552,2.71668934822083,-2.59531431270705,1.84912513636775,2.74948028171299,2443.4,1284.088,1728.736,2999.047,-0.006767092,-0.03083994,0.01732475,-0.757783055305481,-0.292720079421997,0.475022882223129,-0.716935713767317,-0.308477408768949,0.443817359206151,0
3.6199951171875,-2.63158369064331,2.04444885253906,2.72604417800903,-2.60952509409627,1.84301063413925,2.75827743234631,2445.606,1276.072,1728.116,2995.021,-0.005616607,-0.03050065,0.01550479,-0.745963573455811,-0.287483721971512,0.467742919921875,-0.704361775018033,-0.303067194200314,0.436033492140578,0
3.63999176025391,-2.64626383781433,2.03880476951599,2.73525333404541,-2.62348330645344,1.83700480530926,2.76691823071727,2444.728,1271.411,1730.014,2988.651,-0.004486361,-0.0301603,0.01370814,-0.734012722969055,-0.282205909490585,0.460456222295761,-0.691675581599108,-0.297608679583365,0.428180134087064,0
3.65999603271484,-2.6607027053833,2.03326654434204,2.74431371688843,-2.63719194552437,1.83110636089208,2.77540453133521,2446.77,1262.194,1730.231,2985.316,-0.003343332,-0.02981782,0.01190992,-0.721936464309692,-0.276891052722931,0.453016996383667,-0.678878353700696,-0.292102389931838,0.420258040401444,0
3.67999267578125,-2.67489719390869,2.02783608436584,2.75322461128235,-2.65063849381582,1.82532068681534,2.78372858527554,2447.004,1259.764,1729.785,2978.189,-0.002236523,-0.02947107,0.01013725,-0.709738850593567,-0.271538287401199,0.445548504590988,-0.665986083416798,-0.286555206197011,0.41227711095171,0
3.69999694824219,-2.68884563446045,2.02251291275024,2.76198434829712,-2.66383127580226,1.81964420129024,2.79189554578451,2447.956,1249.684,1732.235,2974.965,-0.001124919,-0.02912486,0.008371728,-0.697428107261658,-0.266155034303665,0.437989056110382,-0.65299527533123,-0.280965624398954,0.404235181908735,0
3.71999359130859,-2.70254611968994,2.01729798316956,2.77059173583984,-2.6767584210412,1.81408201183655,2.79989806449274,2448.779,1245.91,1731.524,2968.975,-3.685345E-05,-0.02877599,0.006625844,-0.685008585453033,-0.260741472244263,0.430364906787872,-0.639922285921447,-0.275340682272968,0.396142378711232,0
3.73999786376953,-2.71599578857422,2.01219201087952,2.77904558181763,-2.68942811570037,1.808630596175,2.80774120902801,2448.941,1238.226,1733.735,2964.725,0.001045243,-0.02842711,0.004897691,-0.672487497329712,-0.255302637815475,0.422690808773041,-0.626763698705669,-0.269678909802388,0.38799658639423,0
3.75999450683594,-2.72919321060181,2.00719523429871,2.78734397888184,-2.70182915057228,1.80329477731443,2.81541804035694,2450.59,1232.746,1732.989,2959.822,0.002113176,-0.02807558,0.003184634,-0.659870624542236,-0.249840319156647,0.414919346570969,-0.613536214864365,-0.263987493038594,0.379808143784027,0
3.77999877929688,-2.74213647842407,2.00230813026428,2.79548668861389,-2.7139695770734,1.79807109095524,2.82293354268985,2450.255,1227.129,1734.944,2954.649,0.003161292,-0.02772351,0.001498928,-0.647163987159729,-0.244357481598854,0.407138764858246,-0.60023651686137,-0.258265004538452,0.371574997167698,0
3.79999542236328,-2.75482368469238,1.99753105640411,2.80347156524658,-2.72583886061506,1.79296406983666,2.83028119461452,2452.35,1219.852,1734.704,2950.819,0.004203748,-0.02737037,-0.0001747034,-0.634375274181366,-0.238858237862587,0.399244874715805,-0.586881630238189,-0.252518769916838,0.363307686166475,0
3.81999206542969,-2.767254114151,1.99286389350891,2.81129884719849,-2.73744054699573,1.78797218830065,2.83746319114912,2451.73,1215.946,1736.204,2945.038,0.005216551,-0.0270167,-0.001814678,-0.621509194374084,-0.233343794941902,0.391367942094803,-0.573473482003301,-0.246749618311662,0.355007403690404,0
3.83999633789063,-2.77942538261414,1.98830759525299,2.81896638870239,-2.74877791451009,1.78309403578861,2.84448156171422,2453.636,1207.295,1736.909,2942.082,0.006233576,-0.02666304,-0.003442402,-0.608575046062469,-0.227819621562958,0.383381843566895,-0.560014026276881,-0.240958390526246,0.346675359432959,0
3.85999298095703,-2.79133725166321,1.98386168479919,2.8264741897583,-2.75984146370944,1.77833369964791,2.85133042569855,2454.093,1205.211,1736.389,2935.744,0.007208593,-0.02630724,-0.005036037,-0.595576286315918,-0.222285196185112,0.375391364097595,-0.546520735526767,-0.235152604475377,0.338322369684062,0
3.87999725341797,-2.80298757553101,1.97952687740326,2.83382129669189,-2.77063893010371,1.77368785150474,2.85801457175126,2454.805,1196.468,1738.86,2932.784,0.008177551,-0.02595304,-0.006607835,-0.582522571086884,-0.216747626662254,0.36735600233078,-0.532990631455729,-0.229330978680956,0.329946590735853,0
3.89999389648438,-2.81437611579895,1.97530269622803,2.84100675582886,-2.78116151864576,1.76916027562219,2.86452855531919,2455.954,1192.767,1738.183,2927.721,0.009118553,-0.0255983,-0.008151404,-0.56941956281662,-0.211208045482635,0.359277069568634,-0.519441457145543,-0.223501147495394,0.321559006401168,0
