t,x_s1,x_s2,x_s3,x_s_d1,x_s_d2,x_s_d3,propellers_rpms1,propellers_rpms2,propellers_rpms3,propellers_rpms4,rollRad,pitchRad,yawRad,v_s1,v_s2,v_s3,v_s_d1,v_s_d2,v_s_d3,insideCount
0,-0.0599999986588955,2.94000005722046,1.17999994754791,-0.0599999986588955,2.94000005722046,1.17999994754791,0,0,0,0,0,0,0,0,0,0,-1.06581410364015E-15,4.44089209850063E-16,4.44089209850063E-16,0
0.0200004577636719,-0.0599999986588955,2.94000005722046,1.17811644077301,-0.0600018691155303,2.93999925241522,1.18000110544967,0,0,0,0,-0.01635288,0.0001297794,-0.01587137,-1.10653664009419E-09,-7.76775763711157E-08,-0.0941759571433067,-0.000279999361409376,-0.000120475902936966,0.000173332942931458,9
0.0400009155273438,-0.0599999986588955,2.94000005722046,1.17242503166199,-0.0600148724204753,2.93999365745638,1.18000915511487,0,0,0,0,-0.03270202,0.0005238493,-0.03175127,-1.08383135799528E-09,-7.60859677484405E-08,-0.284568399190903,-0.00111101934050116,-0.00047804058392963,0.00068777389696065,9
0.0600013732910156,-0.0599058866500854,2.93990302085876,1.16596508026123,-0.0600498951959519,2.93997858813451,1.18003083588125,1868.158,3252.8,3183.883,1722.412,-0.04942188,0.0003295469,-0.01369504,0.00470569217577577,-0.00484922388568521,-0.322996377944946,-0.0024796740721389,-0.00106693447916665,0.00153503637391071,9
0.0800018310546875,-0.0598203726112843,2.93960738182068,1.16000306606293,-0.0601175574246769,2.93994947496775,1.18007272202403,1925.485,2314.352,3252.117,2829.462,-0.07543244,-0.002136388,0.02094808,0.0042757336050272,-0.0147785618901253,-0.298098176717758,-0.00437268608126799,-0.00188144466206175,0.00270690098422899,9
0.100002288818359,-0.059937447309494,2.93904495239258,1.15498650074005,-0.0602282146177137,2.939901862269,1.18014122409785,980.1899,1498.867,3914.947,3896.591,-0.1031959,-0.008062987,0.06330824,-0.00585369300097227,-0.0281167067587376,-0.250826597213745,-0.00677688628291668,-0.00291590484325321,0.00419521543698747,8
0.120002746582031,-0.0604638494551182,2.93818354606628,1.15081310272217,-0.0603919599823235,2.93983140721312,1.18024259027882,346.3973,980.3658,4172.893,4613.372,-0.1214327,-0.01542077,0.1040022,-0.0263200812041759,-0.043068565428257,-0.208669185638428,-0.00967921398219614,-0.00416469537060396,0.00599189453988277,8
0.139999389648438,-0.0615636222064495,2.93704128265381,1.14728271961212,-0.0606185767455666,2.93973390035084,1.18038287685052,352.8918,747.0881,3975.384,4854.959,-0.1254019,-0.0211668,0.1351063,-0.0549886450171471,-0.0571140795946121,-0.176518157124519,-0.0130660253322238,-0.00562194567796536,0.00808849210174802,7
0.159999847412109,-0.0633408725261688,2.93568086624146,1.14427483081818,-0.0609177249752248,2.93960518522485,1.18056806385509,820.8884,814.8865,3462.835,4692.414,-0.118459,-0.02352423,0.1522706,-0.0888627246022224,-0.0680153369903564,-0.150394544005394,-0.0169257706321904,-0.00728268625174051,0.0104778583075938,7
0.180000305175781,-0.0658469200134277,2.9341721534729,1.1418251991272,-0.0612986871007165,2.9394412678651,1.18080389755851,1348.757,1083.42,3006.629,4255.228,-0.1079795,-0.02277961,0.1557787,-0.125302344560623,-0.0754309520125389,-0.122480385005474,-0.0212451141043368,-0.00914117907931815,0.0131517376757159,7
0.200000762939453,-0.069084994494915,2.93255376815796,1.140061378479,-0.0617705288407759,2.93923824754608,1.18109599007255,1636.517,1381.203,2918.349,3666.351,-0.09982646,-0.02030074,0.1501562,-0.161903664469719,-0.0809151530265808,-0.0881907790899277,-0.0260114285934326,-0.0111919910485645,0.016102313395512,7
0.220001220703125,-0.0730103328824043,2.93082594871521,1.13903546333313,-0.0623420644491781,2.93899233174064,1.18144979784016,1641.416,1580.691,3148.229,3113.098,-0.09583918,-0.01735475,0.1421881,-0.196267157793045,-0.08638596534729,-0.0512945279479027,-0.03121219533433,-0.0134297356845702,0.019321835755004,7
0.240001678466797,-0.0775500759482384,2.92897343635559,1.13863301277161,-0.0630218588825902,2.9386998351872,1.18187062297754,1524.07,1624.235,3417.832,2777.425,-0.09475687,-0.01467775,0.1377326,-0.226987138390541,-0.0926247760653496,-0.0201203711330891,-0.0368350039519641,-0.0158490731496507,0.0228026221408387,7
0.260002136230469,-0.0826389789581299,2.92699217796326,1.1386353969574,-0.0638182299684225,2.938357178957,1.18236361461609,1438.962,1500.861,3533.28,2744.17,-0.09439095,-0.01258876,0.1393017,-0.254445105791092,-0.0990582332015038,0.000119902193546295,-0.0428675524613532,-0.0184447102433459,0.0265370570382875,7
0.280002593994141,-0.0882448554039001,2.9249005317688,1.13885200023651,-0.06473925057268,2.93796088952133,1.18293377024442,1400.554,1275.979,3476.631,2977.642,-0.0932117,-0.01110591,0.1456842,-0.280293941497803,-0.104584895074368,0.0108320629224181,-0.0492976472675982,-0.0212114004024205,0.0305175920312465,7
0.299999237060547,-0.0943706333637238,2.92273235321045,1.1392068862915,-0.065792536715479,2.93750768991949,1.18358580454179,1350.613,1061.555,3345.121,3324.847,-0.09053363,-0.009935189,0.1533112,-0.306288480758667,-0.10840743035078,0.0177422426640987,-0.0561118672418845,-0.0241433688900884,0.0347359188016424,7
0.319999694824219,-0.101035952568054,2.92052555084229,1.13972496986389,-0.0669860785243584,2.93699414222283,1.18432466377777,1280.795,941.0364,3237.698,3590.583,-0.08597802,-0.008524246,0.1583614,-0.333266139030457,-0.110343165695667,0.025906503200531,-0.0633008373176985,-0.0272365818771378,0.0391862337367069,7
0.340000152587891,-0.10825152695179,2.91831183433533,1.14046156406403,-0.0683270389802989,2.93641716440073,1.1851547821788,1253.149,944.1986,3170.898,3649.903,-0.07944476,-0.006291984,0.1584782,-0.360779345035553,-0.110680371522903,0.0368277840316296,-0.0708514254995047,-0.0304853890327553,0.0438604075056398,7
0.360000610351563,-0.116003081202507,2.91611456871033,1.14145255088806,-0.0698225328270578,2.93577369517774,1.1860805641102,1319.846,1047.271,3120.555,3498.067,-0.07154689,-0.0029625,0.1534735,-0.387577891349792,-0.109858363866806,0.0495515391230583,-0.0787518717320621,-0.0338847303337087,0.0487511600740379,8
0.380001068115234,-0.124251455068588,2.91394948959351,1.14270758628845,-0.0714794406858296,2.93506077401475,1.18710626900424,1455.338,1181.646,3090.83,3231.312,-0.0636144,0.001258832,0.145038,-0.412418961524963,-0.10825652629137,0.0627489909529686,-0.0869905243502129,-0.0374295923939903,0.0538512785061227,8
0.400001525878906,-0.132943272590637,2.91182613372803,1.14421725273132,-0.0733044112230977,2.93427554017634,1.18823601270221,1579.491,1273.658,3104.854,2981.736,-0.05701881,0.005826166,0.135747,-0.434590816497803,-0.106165133416653,0.0754815638065338,-0.0955558400788823,-0.0411150084648172,0.0591536169647403,8
0.420001983642578,-0.142023652791977,2.90974998474121,1.14595782756805,-0.0753038633184856,2.93341523179792,1.18947376879637,1631.265,1288.615,3159.029,2844.739,-0.0524403,0.01017567,0.1278563,-0.454019486904144,-0.103802233934402,0.087029755115509,-0.104436384033078,-0.0449360584346311,0.0646510967113616,8
0.44000244140625,-0.15144607424736,2.90772414207458,1.14789569377899,-0.077483988232608,2.93247718495301,1.19082336997196,1606.949,1238.098,3219.4,2842.898,-0.04965837,0.01397519,0.1224618,-0.47112163901329,-0.101290881633759,0.0968933701515198,-0.113620829717891,-0.048887868829098,0.0703367061060819,8
0.459999084472656,-0.161176785826683,2.9057514667511,1.1499969959259,-0.0798502821969742,2.93145903476675,1.19228821865812,1541.497,1158.205,3252.758,2938.275,-0.04788737,0.01718577,0.1193418,-0.486535966396332,-0.0986394956707954,0.105066820979118,-0.123096124252221,-0.0529648233581361,0.0762023647937057,8
0.479999542236328,-0.171193644404411,2.9038360118866,1.15223920345306,-0.0824093896672336,2.93035792231548,1.19387242808941,1474.132,1086.078,3248.439,3067.088,-0.0462884,0.01998665,0.1173797,-0.500842750072479,-0.0957785099744797,0.112107932567596,-0.13285477482153,-0.0571636980729742,0.0822434343651008,8
0.5,-0.181481078267097,2.9019832611084,1.15461575984955,-0.085166398670376,2.92917165836334,1.1955791479969,1431.786,1046.32,3216.245,3169.738,-0.04433258,0.02264362,0.1152246,-0.514372646808624,-0.0926396176218987,0.118830308318138,-0.142884000065179,-0.0614789935111996,0.0884520025491718,8
0.520000457763672,-0.192024305462837,2.90019869804382,1.15713465213776,-0.0881266117110474,2.92789796139072,1.19741166088358,1423.824,1045.124,3177.274,3210.25,-0.04191815,0.02537926,0.1118856,-0.527160823345184,-0.089227169752121,0.125947207212448,-0.153172907027918,-0.0659060227384819,0.0948213260877149,9
0.540000915527344,-0.202804610133171,2.89848589897156,1.15980982780457,-0.0912951145137283,2.92653464315245,1.19937311505516,1445.657,1073.415,3148.846,3184.505,-0.03929335,0.02828929,0.1070483,-0.539015114307404,-0.0856383740901947,0.133761197328568,-0.163710711144578,-0.0704401454577151,0.101344728821151,9
0.560001373291016,-0.213797897100449,2.89684534072876,1.16265296936035,-0.0946767781905844,2.92507960774504,1.20146652596211,1484.062,1113.888,3138.765,3114.191,-0.03688798,0.03132787,0.1010574,-0.54966539144516,-0.0820314437150955,0.142154440283775,-0.174486736240074,-0.0750767680090178,0.108015601688526,9
0.580001831054688,-0.22497621178627,2.8952739238739,1.16566812992096,-0.0982762614093182,2.92353085067394,1.20369477754168,1521.009,1148.779,3145.896,3034.9,-0.03512923,0.03434544,0.09465477,-0.558915019035339,-0.0785765126347542,0.150757431983948,-0.185490414529404,-0.0798113433697334,0.11482740272751,9
0.600002288818359,-0.23631089925766,2.89376544952393,1.16885161399841,-0.10209801256102,2.92188645792073,1.20606062355983,1540.643,1167.027,3163.265,2979.15,-0.03429246,0.03716112,0.08861706,-0.566734254360199,-0.0754193663597107,0.159175127744675,-0.19671128661765,-0.0846393711544298,0.121773657074397,9
0.619998931884766,-0.247776225209236,2.89231204986572,1.17219471931458,-0.106145477944935,2.92014494663912,1.20856619743999,1535,1167.303,3182.113,2963.926,-0.03442189,0.03963231,0.08345837,-0.573266744613647,-0.0726657062768936,0.167153686285019,-0.208136802817102,-0.0895554515830839,0.128846595874672,9
0.639999389648438,-0.259351491928101,2.89090442657471,1.17568731307983,-0.110424235525481,2.91830391678686,1.21121495220784,1506.243,1156.263,3195.177,2987.186,-0.03534654,0.0416977,0.07929898,-0.578763842582703,-0.0703809559345245,0.17462994158268,-0.219761081350814,-0.0945570538913933,0.136042578028218,9
0.659999847412109,-0.271021276712418,2.88953256607056,1.17932069301605,-0.114937365519793,2.91636204303257,1.21400879466451,1466.865,1144.314,3197.408,3031.402,-0.03677879,0.04338517,0.07590738,-0.583490014076233,-0.0685966536402702,0.181669771671295,-0.231571827761751,-0.0996388881179631,0.143353992680462,9
0.680000305175781,-0.282774269580841,2.88818597793579,1.18308973312378,-0.119688496929273,2.91431776391831,1.21694997133476,1429.881,1139.742,3190.281,3074.808,-0.0384422,0.04477732,0.07288273,-0.587650239467621,-0.0673249140381813,0.188454285264015,-0.243559016194652,-0.104796640417365,0.150774633349401,9
0.700000762939453,-0.294601321220398,2.88685441017151,1.18699252605438,-0.124681059317553,2.91216960379868,1.22004060528183,1404.268,1146.266,3177.382,3102.11,-0.04016846,0.04596749,0.06985656,-0.591351211071014,-0.0665740296244621,0.195137187838554,-0.255712729184339,-0.110026043581393,0.158298360651655,9
0.720001220703125,-0.306493610143661,2.88552713394165,1.19102895259857,-0.129918284978346,2.90991617190799,1.22328269744952,1393.35,1162.881,3163.585,3106.905,-0.04193413,0.04702075,0.06662868,-0.594615519046783,-0.0663595795631409,0.201820030808449,-0.268023157655716,-0.11532287703907,0.16591910230247,9
0.740001678466797,-0.318442046642303,2.884192943573,1.19519972801208,-0.135403211103301,2.90755616142752,1.22667812800413,1392.301,1185.113,3153.633,3093.938,-0.04383297,0.04795256,0.06321795,-0.597422778606415,-0.0667096003890038,0.208540663123131,-0.280480600923771,-0.120682966856639,0.173630853115714,9
0.760002136230469,-0.330437213182449,2.88283967971802,1.19950497150421,-0.14113868194985,2.90508834855275,1.23022865767651,1392.61,1207.611,3149.684,3074.407,-0.04600238,0.0487345,0.05981035,-0.599757194519043,-0.0676620528101921,0.215259522199631,-0.293075466693575,-0.12610218573757,0.181427675003881,9
0.780002593994141,-0.342470049858093,2.88145446777344,1.20394265651703,-0.147127351009062,2.90251159156062,1.23393592910403,1387.521,1226.536,3150.829,3059.031,-0.04854304,0.04931827,0.0566502,-0.601642251014709,-0.0692559108138084,0.221886351704597,-0.30579827106028,-0.131576453022558,0.189303696978092,9
0.799999237060547,-0.354533016681671,2.88002395629883,1.20850908756256,-0.153370467664426,2.8998253528763,1.23780071571459,1373.953,1240.595,3154.12,3054.51,-0.05147784,0.04966017,0.05393675,-0.60315078496933,-0.0715206190943718,0.228322103619576,-0.318637178554805,-0.1371006762399,0.197251592319181,9
0.819999694824219,-0.366620898246765,2.87853455543518,1.21319925785065,-0.159872691993147,2.89702762739878,1.24182590231796,1352.116,1250.759,3156.704,3062.265,-0.05474927,0.0497379,0.0517639,-0.604393362998962,-0.0744698867201805,0.234507068991661,-0.331587821991737,-0.142672976311719,0.205268657531342,9
0.840000152587891,-0.378730714321136,2.87697267532349,1.2180073261261,-0.166634951706069,2.89411801595997,1.24601206321137,1326.796,1259.526,3155.421,3078.356,-0.05825079,0.04955927,0.05010508,-0.605491518974304,-0.0780989676713943,0.24040475487709,-0.344638604388044,-0.148288363380199,0.213347713529636,8
0.860000610351563,-0.390861868858337,2.87532472610474,1.2229288816452,-0.173659158941841,2.89109569582005,1.2503603820997,1301.138,1269.195,3151.424,3096.729,-0.06187002,0.04915204,0.04886143,-0.606557250022888,-0.0823918059468269,0.246079713106155,-0.357780475378537,-0.153942943326036,0.221483157706883,8
0.880001068115234,-0.403015315532684,2.87357831001282,1.22796046733856,-0.180947045911593,2.88795992165696,1.25487193130418,1277.319,1281.014,3145.513,3113.465,-0.06551323,0.04855464,0.04791778,-0.607671856880188,-0.0873246043920517,0.251577883958817,-0.37100449298811,-0.159632868667153,0.229669454554527,8
0.900001525878906,-0.415193021297455,2.87172102928162,1.23309910297394,-0.188500167066783,2.88471002463366,1.2595476731043,1259.123,1295.188,3138.692,3123.976,-0.06911862,0.04780599,0.04717891,-0.608886301517487,-0.0928691700100899,0.256934523582458,-0.384301823631742,-0.165354338558695,0.237901135662636,8
0.920001983642578,-0.427397608757019,2.86974120140076,1.23834276199341,-0.196319901267052,2.88134541146536,1.26438846107986,1246.463,1310.902,3132.583,3127.853,-0.07266914,0.04693381,0.04660876,-0.610228717327118,-0.0989959090948105,0.262185961008072,-0.397663742114492,-0.171103598793035,0.246172799719906,8
0.94000244140625,-0.439631998538971,2.86762762069702,1.24368965625763,-0.204407453948074,2.87786556348678,1.26939504145298,1236.611,1326.626,3128.232,3128.284,-0.07618239,0.04594906,0.04623149,-0.611717700958252,-0.105675339698792,0.267346173524857,-0.411081631631503,-0.176876941799768,0.254479112513653,8
0.959999084472656,-0.451899498701096,2.86537003517151,1.24913799762726,-0.212762239776093,2.87427073255068,1.27456705187416,1227.301,1341.009,3125.923,3128.402,-0.07967645,0.04485292,0.04610186,-0.613376200199127,-0.1128780990839,0.272414565086365,-0.424544411524882,-0.18266959988136,0.262813214588797,8
0.979999542236328,-0.464204221963882,2.86295866966248,1.25468575954437,-0.221388311353785,2.87055917493534,1.27990700109753,1216.225,1353.277,3125.421,3131.248,-0.08315241,0.04364338,0.04627607,-0.615238070487976,-0.120572961866856,0.277386516332626,-0.438048819599778,-0.188480169406503,0.271173086491326,8
1,-0.476551115512848,2.86038422584534,1.2603303194046,-0.230284798736574,2.86673126495361,1.28541435058594,1204.998,1363.58,3124.544,3137.112,-0.08659109,0.04232534,0.04677775,-0.617345333099365,-0.128722131252289,0.282227396965027,-0.451584000205995,-0.194303979492187,0.279552008056641,8
1.02000045776367,-0.488946050405502,2.8576385974884,1.2660698890686,-0.239452235373992,2.86278677307706,1.29108943057007,1192.939,1372.387,3124.173,3145.439,-0.08995892,0.040908,0.04760304,-0.619747579097748,-0.137286707758904,0.286977887153625,-0.465141770078335,-0.200137509108014,0.287944913453762,8
1.04000091552734,-0.50139582157135,2.85471415519714,1.27190268039703,-0.24889099213045,2.8587255397331,1.29693247063265,1179.838,1380.18,3123.494,3156.656,-0.09321436,0.03940739,0.04872277,-0.622487664222717,-0.146222412586212,0.291642546653748,-0.478714054341683,-0.205977283860805,0.296346803950333,8
1.06000137329102,-0.513907849788666,2.85160446166992,1.277827501297,-0.258601279453084,2.85454747437219,1.3029436010505,1169.316,1387.537,3122.322,3166.923,-0.09630629,0.03784923,0.050081,-0.625600874423981,-0.15548175573349,0.296240955591202,-0.492292886511004,-0.21181987599461,0.304752747912622,8
1.08000183105469,-0.526490032672882,2.848304271698,1.28384351730347,-0.268583149539609,2.85025255453512,1.30912285413647,1161.774,1394.822,3120.856,3175.489,-0.09920595,0.03625798,0.05162755,-0.62910932302475,-0.165014758706093,0.300801664590836,-0.50587040849135,-0.217661904390701,0.313157880805523,8
1.10000228881836,-0.539150536060333,2.84480881690979,1.28995060920715,-0.278836498506168,2.84584082492022,1.31547016558151,1157.057,1401.844,3119.71,3182.171,-0.1019016,0.03465475,0.05332603,-0.633024275302887,-0.174771994352341,0.305355608463287,-0.519438870577854,-0.223500034567576,0.321557405192552,7
1.11999893188477,-0.551897525787354,2.84111475944519,1.29614925384521,-0.289359035362208,2.84131327127672,1.32198411715334,1154.45,1408.254,3119.635,3187.248,-0.1043948,0.03305548,0.05515755,-0.63735020160675,-0.184706270694733,0.309935122728348,-0.532988048794549,-0.229329867434001,0.329944991945551,7
1.13999938964844,-0.564739286899567,2.83721923828125,1.30244052410126,-0.300154365346813,2.83666834237095,1.3286669406667,1152.427,1413.59,3121.04,3192.128,-0.1066889,0.03147054,0.05711829,-0.642087876796722,-0.194772452116013,0.314561277627945,-0.546515580872639,-0.235150386571708,0.338319178707607,7
1.15999984741211,-0.577683985233307,2.83312082290649,1.30882477760315,-0.311219947869739,2.83190713134792,1.33551706337518,1152.998,1417.847,3122.303,3196.339,-0.1087869,0.02991146,0.05919988,-0.647235512733459,-0.204922989010811,0.319214850664139,-0.560011455688534,-0.240957284473894,0.346673768116318,7
1.18000030517578,-0.590739965438843,2.82881855964661,1.31530356407166,-0.322555076427271,2.82702994219644,1.34253404791935,1154.077,1420.925,3124.736,3200.802,-0.110698,0.02838481,0.06139982,-0.652796506881714,-0.215116009116173,0.323939919471741,-0.573468357077025,-0.246747413199059,0.355004231116904,7
1.20000076293945,-0.603915333747864,2.82431244850159,1.32187843322754,-0.334158899272964,2.82203714139922,1.34971736702757,1154.059,1422.735,3128.024,3207.227,-0.1124237,0.02689657,0.06371218,-0.658771395683289,-0.225310027599335,0.32874384522438,-0.586879077262985,-0.252517671442929,0.363306105753208,7
1.22000122070313,-0.617218554019928,2.81960320472717,1.32855093479156,-0.346030421585499,2.81692915700008,1.35706640485806,1155.111,1423.558,3131.458,3213.802,-0.1139513,0.02545849,0.06611168,-0.665159642696381,-0.235463961958885,0.333626538515091,-0.600236516861372,-0.258265004538453,0.371574997167698,7
1.2400016784668,-0.630657613277435,2.81469249725342,1.33532297611237,-0.358168507636529,2.81170647767119,1.36458045834087,1157.687,1423.801,3134.778,3219.986,-0.1152744,0.02408229,0.06856865,-0.6719571352005,-0.245537340641022,0.338600009679794,-0.613533684877226,-0.263986404455806,0.379806577601466,7
1.26000213623047,-0.644240736961365,2.80958271026611,1.34219658374786,-0.370571882958536,2.80636965178032,1.3722587385199,1161.536,1423.594,3138.12,3225.766,-0.116394,0.02277884,0.07105473,-0.679154932498932,-0.255491644144058,0.343680858612061,-0.626763698705669,-0.269678909802388,0.38799658639423,7
1.27999877929688,-0.657975494861603,2.80427694320679,1.34917438030243,-0.383236695417198,2.80092033679326,1.3800988607405,1166.396,1422.95,3141.858,3230.963,-0.1173165,0.02155709,0.0735447,-0.686739563941956,-0.265291750431061,0.348888427019119,-0.639917282339435,-0.275338529371412,0.396139281255613,8
1.29999923706055,-0.671869337558746,2.79877877235413,1.35625922679901,-0.396166231882091,2.79535711846185,1.3881028597315,1171.454,1421.737,3146.594,3235.785,-0.1180483,0.02042378,0.0760207,-0.694693744182587,-0.274906873703003,0.354242831468582,-0.652992789539212,-0.280964554832093,0.404233643085061,8
1.31999969482422,-0.685929119586945,2.79309272766113,1.3634535074234,-0.409356423791328,2.7896817473746,1.39626821685929,1178.97,1420.264,3150.562,3239.37,-0.1185986,0.01938651,0.07846224,-0.702993631362915,-0.28430449962616,0.359716862440109,-0.665981146317813,-0.286553081901244,0.412274054652251,8
1.34000015258789,-0.700161576271057,2.78722357749939,1.37076056003571,-0.422805463423808,2.78389500134342,1.4045938130584,1187.048,1418.29,3155.514,3242.177,-0.1189879,0.01844686,0.08086165,-0.711620211601257,-0.293460249900818,0.365350365638733,-0.678875903610019,-0.292101335726266,0.4202565236786,8
1.36000061035156,-0.714572489261627,2.78117656707764,1.37818336486816,-0.436511415158101,2.77799771321212,1.41307845008695,1193.832,1415.603,3161.309,3246.103,-0.1192318,0.01760311,0.08321822,-0.720549941062927,-0.302352488040924,0.371141523122787,-0.691670720740693,-0.297606588091785,0.42817712498415,8
1.38000106811523,-0.729167759418488,2.77495741844177,1.38572490215302,-0.450472217640295,2.7719907699237,1.42172085186868,1201.269,1412.353,3167.207,3249.677,-0.1193331,0.0168576,0.08552025,-0.729759693145752,-0.310960799455643,0.377075552940369,-0.704359365424783,-0.303066157419654,0.436032000487571,8
1.40000152587891,-0.743952214717865,2.76857209205627,1.39338779449463,-0.464685685951852,2.76587511158757,1.43051966583492,1209.401,1408.802,3172.796,3253.037,-0.1192984,0.01621173,0.08775567,-0.739226043224335,-0.31926617026329,0.383145898580551,-0.716935713767318,-0.308477408768949,0.443817359206152,8
1.42000198364258,-0.758930802345276,2.76202702522278,1.40117490291595,-0.479149513777454,2.75965173054678,1.43947346426664,1217.856,1405.024,3178.255,3256.285,-0.1191408,0.01566531,0.08991234,-0.748925447463989,-0.32725265622139,0.389355897903442,-0.729393750263411,-0.31383775383597,0.45152947725581,8
1.43999862670898,-0.774107456207275,2.7553288936615,1.40908908843994,-0.4938584461112,2.75332288788357,1.44857899406484,1226.063,1401.048,3183.847,3259.61,-0.1188723,0.01521778,0.0919788,-0.758833229541779,-0.334908127784729,0.395709484815598,-0.741725227577294,-0.31914364402254,0.459163249142831,8
1.45999908447266,-0.78948587179184,2.74848437309265,1.41713333129883,-0.508815552717244,2.74688726276417,1.45783815555978,1233.563,1396.79,3190.116,3262.881,-0.1184984,0.01486762,0.09394526,-0.76892364025116,-0.342224657535553,0.402212232351303,-0.753929052770513,-0.324394609067776,0.466717998286247,8
1.47999954223633,-0.805069208145142,2.74150061607361,1.42530977725983,-0.524015393706918,2.74034719582071,1.46724758120123,1242.939,1392.809,3194.965,3265.044,-0.1180276,0.01461664,0.09579577,-0.779164612293243,-0.349191814661026,0.40882134437561,-0.76599717101811,-0.329587183205524,0.474188738365705,8
1.5,-0.820859849452972,2.73438453674316,1.4336211681366,-0.539455198877605,2.73370387899399,1.4768055561018,1252.381,1388.777,3200.446,3266.319,-0.11748,0.01446054,0.09752651,-0.789531469345093,-0.355807244777679,0.415569305419922,-0.777924000354858,-0.334718964672088,0.481572013878822,8
1.52000045776367,-0.836859703063965,2.72714304924011,1.44207012653351,-0.555132087468752,2.72695855179478,1.48651029693349,1260.135,1384.476,3206.556,3268.404,-0.1168702,0.01439304,0.09914231,-0.79999452829361,-0.362071096897125,0.42244616150856,-0.789704067205609,-0.339787598340998,0.488864436421842,8
1.54000091552734,-0.853070259094238,2.71978330612183,1.45065867900848,-0.571043070329722,2.72011250037111,1.49635995326965,1268.065,1380.052,3212.469,3270.029,-0.1162006,0.01441066,0.1006399,-0.810524880886078,-0.367984294891357,0.429425299167633,-0.801332006385301,-0.344790775723006,0.496062684689629,8
1.56000137329102,-0.86949211359024,2.71231245994568,1.45938849449158,-0.587185052087651,2.71316705657544,1.50635260892703,1276.413,1375.699,3217.755,3271.26,-0.1154789,0.01450999,0.1020163,-0.821094751358032,-0.373548060655594,0.436488777399063,-0.812802561098952,-0.349726234966089,0.503163504475676,8
1.58000183105469,-0.88612574338913,2.70473718643188,1.46826112270355,-0.60355483331529,2.70612359703193,1.51648628330776,1284.599,1371.419,3222.647,3272.463,-0.1147189,0.0146852,0.1032698,-0.831678628921509,-0.378765851259232,0.443631380796432,-0.824110582941666,-0.354591760855452,0.510163708672098,8
1.60000228881836,-0.902970731258392,2.69706439971924,1.47727823257446,-0.620149112698862,2.69898354220367,1.52675893274134,1291.975,1367.163,3227.635,3273.775,-0.1139311,0.01493096,0.1043998,-0.842252254486084,-0.383644908666611,0.450852960348129,-0.835251031898628,-0.359385184813519,0.517060177269636,8
1.61999893188477,-0.92002660036087,2.68930053710938,1.4864410161972,-0.636961261140657,2.69174974440622,1.53716645350051,1298.664,1362.995,3232.587,3275.049,-0.113122,0.01524192,0.1054044,-0.852790415287018,-0.388194352388382,0.458140075206757,-0.846216901179681,-0.364103492014234,0.523848572731403,8
1.63999938964844,-0.937291920185089,2.68145203590393,1.49575066566467,-0.653994195024907,2.68442094880091,1.54771065096602,1304.544,1358.816,3237.869,3276.103,-0.1122911,0.01561363,0.106284,-0.863268911838531,-0.392425268888474,0.465485006570816,-0.857007552155828,-0.368746407673381,0.530528499715628,8
1.65999984741211,-0.954765141010284,2.67352509498596,1.50520730018616,-0.671241134177535,2.67700007270724,1.55838732788714,1312.141,1355.273,3241.057,3276.26,-0.1114458,0.01604388,0.1070318,-0.87365847826004,-0.396343976259232,0.472832947969437,-0.867616161431205,-0.373310995874343,0.537095734215228,8
1.68000030517578,-0.97244393825531,2.66552591323853,1.51481175422668,-0.688698391434734,2.66948870260877,1.56919420173384,1319.302,1351.861,3244.814,3275.704,-0.1106037,0.01652504,0.1076523,-0.883941531181335,-0.399964243173599,0.480221480131149,-0.878038122530658,-0.377795274579551,0.543547424602645,8
1.70000076293945,-0.99032586812973,2.65745997428894,1.52456450462341,-0.706362188585011,2.66188846416437,1.5801289336132,1323.906,1348.342,3249.166,3276.466,-0.1097766,0.01704778,0.1081577,-0.894095420837402,-0.403302162885666,0.487637251615524,-0.888268937369113,-0.38219730838866,0.549880786348944,8
1.72000122070313,-1.00840783119202,2.64933252334595,1.53446543216705,-0.724228658537036,2.6542010212754,1.5911891296115,1328.422,1344.934,3253.228,3276.687,-0.1089579,0.01760823,0.1085487,-0.904098749160767,-0.406373172998428,0.495049446821213,-0.898304216251578,-0.386515208538549,0.556093102023817,8
1.7400016784668,-1.02668654918671,2.64114880561829,1.54451406002045,-0.742293847487497,2.64642807515297,1.60237234213612,1333.398,1341.85,3256.436,3276.305,-0.1081472,0.01820238,0.1088268,-0.913931429386139,-0.409190714359283,0.502434074878693,-0.908139677873146,-0.390747132903322,0.562181721295579,8
1.76000213623047,-1.04515790939331,2.63291335105896,1.55470967292786,-0.76055371708895,2.63857136338517,1.61367607125764,1338.178,1339.046,3258.971,3275.924,-0.1073536,0.01882455,0.1089961,-0.92357611656189,-0.411768198013306,0.5097815990448,-0.917771149318994,-0.394891285994308,0.568144060931169,8
1.77999877929688,-1.06381821632385,2.62463092803955,1.56505155563354,-0.779000609654483,2.63063418086074,1.62509557650306,1342.16,1336.442,3261.427,3275.614,-0.106585,0.01946808,0.1090611,-0.933018147945404,-0.41412141919136,0.517093062400818,-0.927192788821983,-0.398945154262308,0.57397650459845,8
1.79999923706055,-1.08266317844391,2.6163055896759,1.57553887367249,-0.79763736303951,2.62261530652977,1.63663261464007,1344.245,1333.809,3264.478,3275.907,-0.1058404,0.02012706,0.1090286,-0.942243754863739,-0.41626849770546,0.524367332458496,-0.936404235539493,-0.402908582446823,0.579678828918647,7
1.81999969482422,-1.10168790817261,2.60794115066528,1.58616983890533,-0.816456197270346,2.61451808789761,1.64828236949435,1347.777,1331.858,3265.594,3275.324,-0.1051187,0.02080123,0.1088932,-0.951234042644501,-0.418222397565842,0.531548678874969,-0.945399824400851,-0.406779133026206,0.585247526943151,7
1.84000015258789,-1.12088751792908,2.59954118728638,1.5969432592392,-0.835452757515797,2.60634439872645,1.66004214521794,1351.16,1330.156,3267.189,3273.721,-0.1044284,0.02148446,0.1086604,-0.959980964660645,-0.420000493526459,0.538670241832733,-0.954175816030892,-0.41055519705179,0.590680283820602,7
1.8599967956543,-1.14025676250458,2.59110879898071,1.60785758495331,-0.854618942724365,2.59809772467243,1.67190692687406,1352.289,1328.458,3269.132,3273.347,-0.1037749,0.02216898,0.1083453,-0.96847128868103,-0.421620577573776,0.545716106891632,-0.962726969681477,-0.41423451957606,0.595973855278252,7
1.88000106811523,-1.15979075431824,2.58264660835266,1.61891090869904,-0.873961270367154,2.58977526144981,1.68388074908779,1352.731,1326.733,3271.22,3272.813,-0.1031464,0.02285166,0.1079535,-0.976694881916046,-0.42309957742691,0.55266809463501,-0.97105459204677,-0.41781766283301,0.601129050222035,7
1.89999771118164,-1.17948341369629,2.57415795326233,1.63010013103485,-0.893460418296025,2.58138532283915,1.69595165052899,1355.915,1325.93,3270.253,3271.172,-0.1025466,0.02353332,0.10748,-0.984637022018433,-0.424446284770966,0.559461236000061,-0.979148917665041,-0.421300425017273,0.606139823365946,7
1.92000198364258,-1.19932961463928,2.56564426422119,1.64142394065857,-0.913126627859543,2.57292350227426,1.70812597108029,1356.085,1324.709,3272.004,3269.896,-0.1019836,0.02420383,0.1069413,-0.992302298545837,-0.425680220127106,0.566189527511597,-0.987012816387451,-0.424684040945629,0.611007951284563,7
1.93999862670898,-1.21932303905487,2.55710792541504,1.65287899971008,-0.932940197657643,2.56439827671719,1.72039151463653,1356.021,1324.064,3271.404,3269.884,-0.1014579,0.02486194,0.1063403,-0.999673902988434,-0.426812380552292,0.572753965854645,-0.99463709319481,-0.4279645542582,0.615727741822989,7
1.96000289916992,-1.23945820331573,2.54855060577393,1.66446352005005,-0.952911481031154,2.55580519141464,1.73275469040889,1355.162,1323.157,3272.954,3268.337,-0.1009562,0.02550475,0.1056809,-1.00675761699677,-0.42786106467247,0.57922488451004,-1.00202447609459,-0.431143138740389,0.620300883747801,7
1.97999954223633,-1.25972878932953,2.53997397422791,1.67617344856262,-0.973020420343666,2.54715287660719,1.74520308176496,1355.272,1323.078,3271.208,3267.691,-0.1004805,0.02613234,0.1049647,-1.01353645324707,-0.428832411766052,0.585495412349701,-1.00916635026771,-0.434216087676217,0.62472204407561,7
2.00000381469727,-1.28012919425964,2.53137922286987,1.68800663948059,-0.993277475063647,2.53843683187778,1.75774316361396,1354.622,1322.725,3271.755,3265.536,-0.1000273,0.02674078,0.1041976,-1.02001976966858,-0.429742038249969,0.591658711433411,-1.01606529245116,-0.437184509763622,0.628992817929355,6
2.02000045776367,-1.30065321922302,2.52276730537415,1.69995903968811,-1.01366225471101,2.52966583068033,1.7703623132774,1353.798,1323.017,3269.637,3265.021,-0.09960435,0.02732842,0.1033856,-1.02619349956512,-0.430595815181732,0.597619652748108,-1.022713277122,-0.440044951844294,0.633108237128032,6
2.03999710083008,-1.32129454612732,2.51413917541504,1.71202838420868,-1.03417746715556,2.52083870789413,1.78306220705567,1351.848,1322.905,3270.208,3263.046,-0.09920115,0.02789211,0.1025347,-1.03206849098206,-0.431409448385239,0.603468000888824,-1.02911032850577,-0.442797424341804,0.637068316668402,6
2.06000137329102,-1.34204709529877,2.50549530982971,1.72421061992645,-1.05482596731032,2.51195423512985,1.79584461227593,1348.751,1323.083,3269.028,3263.027,-0.09881127,0.02843099,0.1016535,-1.03763329982758,-0.432188481092453,0.609113931655884,-1.03525619623725,-0.445441819530995,0.640872901562472,6
2.07999801635742,-1.36290502548218,2.49683666229248,1.73650145530701,-1.07558691007788,2.50302138145056,1.8086966248299,1350.436,1324.079,3265.426,3259.706,-0.09843576,0.02895053,0.1007269,-1.04288852214813,-0.43293559551239,0.614543557167053,-1.04114375428791,-0.447975071280863,0.644517580459114,6
2.10000228881836,-1.38386178016663,2.48816347122192,1.74889886379242,-1.09647099225719,2.49403554432252,1.82162486654569,1346.876,1324.434,3265.646,3258.28,-0.09808795,0.02943955,0.09978296,-1.0478458404541,-0.433665007352829,0.619867861270905,-1.04677516433438,-0.450398109700476,0.648003691539142,5
2.11999893188477,-1.4049117565155,2.47947597503662,1.76139807701111,-1.11745709586255,2.485005810225,1.83461626438416,1343.472,1325.115,3263.265,3258.269,-0.09775772,0.02990047,0.09882189,-1.05249381065369,-0.434379816055298,0.624960243701935,-1.0521439094894,-0.452708130755304,0.651327200538896,5
2.1400032043457,-1.42604851722717,2.47077417373657,1.77399611473083,-1.1385560006034,2.47592754095017,1.84767749149896,1340.631,1325.52,3262.849,3255.798,-0.09742375,0.03033533,0.09784252,-1.05684614181519,-0.435089141130447,0.629899501800537,-1.05725197237562,-0.454905987512489,0.654489334796247,4
2.15999984741211,-1.44726634025574,2.46205830574036,1.78668773174286,-1.15974634010981,2.46680992985011,1.86079532108929,1338.912,1326.616,3259.037,3254.562,-0.09709086,0.03074544,0.09684752,-1.06089270114899,-0.435788929462433,0.63458389043808,-1.06209345202774,-0.456989140951513,0.657486441332569,4
2.17999649047852,-1.46855938434601,2.45332860946655,1.79947018623352,-1.18103083166728,2.45765180775279,1.8739714352843,1336.264,1327.281,3257.768,3252.113,-0.09675691,0.03112876,0.09584183,-1.06464922428131,-0.436485975980759,0.639120519161224,-1.06666845113384,-0.45895763525619,0.660318583716675,3
2.20000076293945,-1.48992156982422,2.44458508491516,1.81233894824982,-1.20241229940639,2.4484519595137,1.88720758235537,1331.708,1328.045,3255.237,3252.247,-0.09641868,0.03148469,0.09483323,-1.06811022758484,-0.437179446220398,0.643436908721924,-1.07097677406178,-0.460811386251471,0.662985640842948,1
2.21999740600586,-1.51134717464447,2.43582773208618,1.82528936862946,-1.22386905090202,2.43921971877738,1.90049033365798,1331.791,1329.422,3250.782,3248.999,-0.0960746,0.03182118,0.09380227,-1.07128000259399,-0.43786683678627,0.647522747516632,-1.07501345493598,-0.46254825725983,0.665484538597853,0
2.2400016784668,-1.53283059597015,2.42705678939819,1.83831906318665,-1.24541204069667,2.4299503721102,1.91382647057578,1327.077,1330.202,3250.201,3247.185,-0.09573105,0.0321299,0.09277381,-1.07417106628418,-0.438556343317032,0.65148651599884,-1.07878000199166,-0.46416889723275,0.667816210650843,0
2.2599983215332,-1.55436611175537,2.41827178001404,1.85142290592194,-1.26701939030951,2.42065333321126,1.92720244928693,1323.081,1331.185,3246.735,3246.761,-0.09537739,0.0324158,0.09174643,-1.07677328586578,-0.439243167638779,0.655192255973816,-1.08227207933222,-0.465671440555045,0.66997797287536,0
2.28000259399414,-1.5759482383728,2.40947294235229,1.86459755897522,-1.28870211065395,2.41132386439212,1.94062508607135,1320.338,1331.829,3245.272,3243.4,-0.09499443,0.03268174,0.0907174,-1.07910180091858,-0.439929366111755,0.65873122215271,-1.08549099645889,-0.467056450668518,0.671970635915057,0
2.29999923706055,-1.59757113456726,2.4006609916687,1.87783765792847,-1.31043816248474,2.40197144852433,1.95408073758635,1318.194,1332.961,3240.552,3241.989,-0.09459229,0.03292863,0.08969136,-1.08114862442017,-0.440604627132416,0.662005305290222,-1.08843305191934,-0.468322334941636,0.673791908394614,0
2.32000350952148,-1.61922979354858,2.39183568954468,1.89114022254944,-1.33223860505173,2.39259132712161,1.96757625003441,1315.187,1333.553,3238.491,3239.375,-0.09416884,0.03315609,0.08866988,-1.08293068408966,-0.441270500421524,0.665126502513885,-1.09109935234628,-0.469469569527536,0.67544247537239,0
2.34000015258789,-1.64091861248016,2.38299703598022,1.90450036525726,-1.35408126380187,2.38319304127467,1.98109789631088,1311.882,1334.454,3234.287,3238.565,-0.09372942,0.03336572,0.08765356,-1.08444249629974,-0.441919803619385,0.668008804321289,-1.09348683453544,-0.470496836415,0.676920440579027,0
2.3599967956543,-1.66263258457184,2.37414622306824,1.91791522502899,-1.37596887940059,2.37377541175173,1.99464737301821,1307.952,1334.837,3232.915,3235.983,-0.09325751,0.03355964,0.08664194,-1.08569848537445,-0.442554652690887,0.670744121074677,-1.09559564748259,-0.471404199712748,0.678225896250009,0
2.38000106811523,-1.68436634540558,2.36528301239014,1.93137991428375,-1.39790424378549,2.36433723726004,2.00822640849877,1303.541,1335.332,3229.455,3235.456,-0.09274405,0.03374052,0.08563713,-1.08669102191925,-0.443165600299835,0.673235774040222,-1.09742562325992,-0.472191587166127,0.67935873843001,0
2.39999771118164,-1.70611488819122,2.35640811920166,1.94488966464996,-1.41986502747765,2.35488812555058,2.02182117974142,1305.096,1336.316,3223.968,3230.696,-0.09219118,0.03391785,0.08461724,-1.08742499351501,-0.443742632865906,0.675489842891693,-1.09897466165884,-0.47285809511406,0.680317666989874,0
2.42000198364258,-1.72787308692932,2.34752225875854,1.95844221115112,-1.44186237448181,2.34542328166942,2.03543858541595,1300.927,1336.687,3222.439,3228.4,-0.09161966,0.03408075,0.08361167,-1.08791196346283,-0.444287657737732,0.677627861499786,-1.10024334841354,-0.4734039755816,0.681103044526962,0
2.43999862670898,-1.74963593482971,2.33862638473511,1.97203266620636,-1.46387388420027,2.33595234396796,2.0490647584853,1296.922,1336.931,3218.598,3227.844,-0.09101992,0.03423408,0.08261705,-1.08814370632172,-0.444792121648788,0.679521679878235,-1.10123022817855,-0.473828602374257,0.681713970113108,0
2.46000289916992,-1.77139854431152,2.32972121238708,1.98565781116486,-1.48591071982996,2.32647050923442,2.06270660950013,1294.183,1336.779,3216.743,3224.414,-0.09036957,0.03438246,0.08162566,-1.08813393115997,-0.445254474878311,0.681255996227264,-1.10193567455836,-0.474132136243598,0.68215067502728,0
2.47999954223633,-1.79315614700317,2.32080793380737,1.99931252002716,-1.50795043548148,2.31698743530794,2.07635024338568,1292.671,1337.049,3211.74,3222.32,-0.08967609,0.03452846,0.08063687,-1.08787441253662,-0.445661246776581,0.682735502719879,-1.10235887855907,-0.474314229102152,0.682412658463722,0
2.50000381469727,-1.81490385532379,2.31188774108887,2.01299405097961,-1.53000420503319,2.30749831438084,2.09000257730492,1290.529,1336.8,3209.333,3218.91,-0.08893893,0.03467197,0.07965153,-1.08737874031067,-0.446010082960129,0.684071779251099,-1.10250000049778,-0.474374949929889,0.682500019666355,0
2.52000045776367,-1.83663666248322,2.30296182632446,2.02669763565063,-1.55204956317742,2.29801281264738,2.10364970416224,1288.306,1336.763,3204.588,3217.449,-0.08816661,0.0348147,0.07866887,-1.08663976192474,-0.446290135383606,0.685175061225891,-1.10235887855907,-0.474314229102152,0.682412658463722,0
2.53999710083008,-1.85834991931915,2.29403185844421,2.04042053222656,-1.57408927882895,2.2885297387209,2.11729333804778,1285.637,1336.207,3202.693,3214.108,-0.08734849,0.03495837,0.07768606,-1.08566987514496,-0.446501284837723,0.686146259307861,-1.10193567455836,-0.474132136243598,0.68215067502728,0
2.56000137329102,-1.8800390958786,2.28509926795959,2.05415844917297,-1.59612611445863,2.27904790398737,2.13093518906262,1282.05,1335.666,3199.198,3212.904,-0.08647923,0.03510452,0.07670591,-1.08446109294891,-0.446633815765381,0.68689900636673,-1.10123022817855,-0.473828602374257,0.681713970113108,0
2.57999801635742,-1.90169942378998,2.27616572380066,2.06790709495544,-1.6181376241771,2.2695769662859,2.14456136213196,1284.167,1335.428,3193.763,3207.787,-0.08555938,0.03526199,0.07570612,-1.08301544189453,-0.446677178144455,0.68742847442627,-1.10024334841354,-0.473403975581601,0.681103044526962,0
2.60000228881836,-1.92332625389099,2.26723289489746,2.08166408538818,-1.64013497118126,2.26011212240475,2.15817876780649,1281.253,1334.729,3191.936,3204.662,-0.08460969,0.03542138,0.07471186,-1.08134126663208,-0.44663205742836,0.687853038311005,-1.09897466165884,-0.47285809511406,0.680317666989874,0
2.61999893188477,-1.94491481781006,2.25830340385437,2.09542512893677,-1.66209575487342,2.25066301069528,2.17177353904914,1278.505,1333.829,3187.929,3203.269,-0.08362326,0.03558644,0.07371964,-1.07942986488342,-0.446489870548248,0.68805068731308,-1.09742562325992,-0.472191587166126,0.67935873843001,0
2.6400032043457,-1.96646070480347,2.2493782043457,2.10918712615967,-1.68403111925831,2.24122483620359,2.18535257452971,1276.884,1332.554,3185.766,3199.28,-0.08258303,0.0357604,0.07272115,-1.07729136943817,-0.446249097585678,0.688103199005127,-1.0955956474826,-0.471404199712748,0.678225896250009,0
2.65999984741211,-1.98795890808105,2.24046015739441,2.12294554710388,-1.70591873485703,2.23180720668066,2.19890205123703,1276.462,1331.62,3180.927,3196.275,-0.08149699,0.0359454,0.07171499,-1.07491779327393,-0.445898562669754,0.687926948070526,-1.09348683453544,-0.470496836414999,0.676920440579028,0
2.67999649047852,-2.00940537452698,2.2315514087677,2.13669800758362,-1.72776139360717,2.22240892083372,2.2124236975135,1275.212,1330.24,3178.372,3192.354,-0.08036621,0.03614036,0.07070267,-1.07231819629669,-0.445436596870422,0.687618911266327,-1.09109935234628,-0.469469569527535,0.67544247537239,0
2.70000076293945,-2.03079509735107,2.22265458106995,2.15044021606445,-1.74956183617416,2.213028799431,2.22591920996157,1272.559,1328.78,3174.678,3190.734,-0.07919229,0.03634543,0.06968592,-1.06948637962341,-0.444856107234955,0.687114238739014,-1.08843305191934,-0.468322334941636,0.673791908394614,0
2.71999740600586,-2.05212354660034,2.21377158164978,2.16416835784912,-1.77129788800495,2.2036763835632,2.23937486147656,1274.758,1327.567,3169.453,3185.623,-0.07797523,0.03656799,0.06864198,-1.06642353534698,-0.444150269031525,0.686408162117004,-1.08549099645889,-0.467056450668518,0.671970635915057,0
2.7400016784668,-2.07338619232178,2.20490503311157,2.17788052558899,-1.79298060834939,2.19434691474406,2.25279749826098,1272.242,1326.051,3167.8,3181.994,-0.07673047,0.0367996,0.0675927,-1.06313562393188,-0.443322062492371,0.685611367225647,-1.08227207933222,-0.465671440555045,0.66997797287536,0
2.7599983215332,-2.0945782661438,2.19605779647827,2.19157242774963,-1.81458795796224,2.18504987584512,2.26617347697213,1270.238,1324.359,3163.733,3179.948,-0.07545002,0.03704388,0.06653425,-1.0596125125885,-0.442365199327469,0.684592187404633,-1.07878000199166,-0.464168897232749,0.667816210650842,0
2.78000259399414,-2.11569571495056,2.18723225593567,2.20524120330811,-1.83613094775688,2.17578052917795,2.27950961388994,1269.97,1322.386,3161.335,3174.832,-0.07412004,0.03730391,0.06545845,-1.05586230754852,-0.441279411315918,0.683434963226318,-1.07501345493597,-0.46254825725983,0.665484538597853,0
2.79999923706055,-2.13673305511475,2.17843103408813,2.2188823223114,-1.85758769925251,2.16654828844162,2.29279236519255,1270.255,1320.728,3156.236,3171.419,-0.07275437,0.0375791,0.06436763,-1.0518764257431,-0.440056174993515,0.68205738067627,-1.07097677406178,-0.460811386251471,0.662985640842947,0
2.82000350952148,-2.15768623352051,2.16965699195862,2.23249363899231,-1.87896916699162,2.15734844020254,2.30602851226362,1269.748,1318.654,3153.711,3166.727,-0.07135567,0.03786726,0.06326299,-1.0476633310318,-0.438697218894958,0.680565297603607,-1.06666845113384,-0.45895763525619,0.660318583716675,0
2.84000015258789,-2.17855072021484,2.16091299057007,2.24607110023499,-1.90025365854909,2.14819031810522,2.31920462645863,1268.782,1316.713,3149.081,3164.164,-0.06993301,0.03816865,0.06214463,-1.04321551322937,-0.437197715044022,0.678868174552917,-1.06209345202774,-0.456989140951513,0.657486441332568,0
2.8599967956543,-2.19932126998901,2.15220212936401,2.25961232185364,-1.9214439980555,2.13907270700516,2.33232245604895,1267.684,1314.43,3146.873,3159.633,-0.06847573,0.03848393,0.0610078,-1.03854084014893,-0.435560971498489,0.677055835723877,-1.05725197237562,-0.454905987512489,0.654489334796247,0
2.88000106811523,-2.21999382972717,2.14352631568909,2.27311325073242,-1.94254290279636,2.12999443773033,2.34538368316376,1265.852,1312.245,3143.039,3157.027,-0.06698276,0.03881349,0.05985428,-1.03363180160522,-0.433783203363419,0.67504745721817,-1.0521439094894,-0.452708130755304,0.651327200538896,0
2.89999771118164,-2.24056386947632,2.1348888874054,2.28657031059265,-1.96352900640172,2.1209647036328,2.35837508100222,1269.254,1310.266,3137.846,3150.481,-0.06545518,0.03916282,0.05866509,-1.02848899364471,-0.431861072778702,0.672847747802734,-1.04677516433438,-0.450398109700476,0.648003691539142,0
2.92000198364258,-2.26102590560913,2.12629318237305,2.29998135566711,-1.98441308858102,2.11197886650476,2.37130332271801,1267.436,1308.151,3135.568,3146.431,-0.06391693,0.03952156,0.05746627,-1.02311551570892,-0.429798722267151,0.670553922653198,-1.04114375428791,-0.447975071280863,0.644517580459114,0
2.93999862670898,-2.28137612342834,2.11774134635925,2.31334233283997,-2.00517403134858,2.10304601282548,2.38415533527198,1266.195,1305.78,3131.152,3143.741,-0.06236218,0.03989229,0.05625181,-1.01750528812408,-0.427594900131226,0.668049931526184,-1.03525619623725,-0.445441819530995,0.640872901562472,0
2.96000289916992,-2.3016095161438,2.10923624038696,2.32665085792542,-2.02582253150335,2.09416154006119,2.39693774049225,1265.819,1303.253,3128.905,3138.206,-0.06077866,0.04027597,0.05501625,-1.01166641712189,-0.425254225730896,0.665430188179016,-1.02911032850577,-0.442797424341803,0.637068316668402,0
2.97999954223633,-2.32172131538391,2.10078072547913,2.33990287780762,-2.04633774394789,2.08533441727499,2.40963763427052,1265.671,1301.004,3123.967,3134.625,-0.05917437,0.04067215,0.05376257,-1.00559115409851,-0.422773152589798,0.662595808506012,-1.022713277122,-0.440044951844293,0.633108237128031,0
2.99999618530273,-2.3417067527771,2.09237766265869,2.3530957698822,-2.06672252359526,2.07656341607755,2.42225678393395,1265.762,1298.5,3121.052,3129.138,-0.05754771,0.0410797,0.05248865,-0.999286651611328,-0.42015540599823,0.65964138507843,-1.01606529245116,-0.437184509763622,0.628992817929355,0
3.02000045776367,-2.36156177520752,2.08402967453003,2.36622595787048,-2.08697957831524,2.06784737134813,2.43479686578296,1264.086,1296.07,3116.957,3126.249,-0.05590561,0.04149659,0.05120067,-0.992748498916626,-0.417400538921356,0.656505167484283,-1.00916635026771,-0.434216087676216,0.62472204407561,0
3.03999710083008,-2.38128185272217,2.07573938369751,2.3792896270752,-2.10708851762775,2.05919505654068,2.44724525713902,1266.583,1293.74,3111.816,3120.196,-0.05424752,0.04192743,0.04988002,-0.985978782176971,-0.414509236812592,0.65318751335144,-1.00202447609459,-0.431143138740389,0.620300883747801,0
3.06000137329102,-2.40086102485657,2.06750988960266,2.39228534698486,-2.12705980100126,2.05060197123813,2.45960843291139,1264.533,1291.467,3109.497,3115.827,-0.05258891,0.04236356,0.04854757,-0.978981375694275,-0.411488175392151,0.649780929088593,-0.994637093194808,-0.4279645542582,0.615727741822988,0
3.07999801635742,-2.42029595375061,2.05934286117554,2.40520858764648,-2.14687337079936,2.04207674568107,2.47187397646763,1263.23,1288.996,3104.965,3112.685,-0.05092284,0.04280759,0.04719827,-0.971751630306244,-0.408338636159897,0.646165251731873,-0.987012816387451,-0.424684040945629,0.611007951284564,0
3.10000228881836,-2.43958187103271,2.05124163627625,2.41805720329285,-2.16653958036288,2.03361492511617,2.48404829701893,1263.318,1286.474,3102.313,3106.42,-0.04923652,0.04326063,0.0458276,-0.964296936988831,-0.405065923929214,0.642431199550629,-0.979148917665042,-0.421300425017273,0.606139823365945,0
3.11999893188477,-2.45871448516846,2.04320812225342,2.43082690238953,-2.18603872829175,2.02522498650551,2.49611919846012,1263.234,1284.2,3096.976,3102.599,-0.04754382,0.0437207,0.0444415,-0.956611812114716,-0.401668667793274,0.638484716415405,-0.971054592046769,-0.41781766283301,0.601129050222034,0
3.1400032043457,-2.47768831253052,2.03524541854858,2.44351553916931,-2.20538105593454,2.0169025232829,2.50809302067385,1263.261,1281.714,3093.915,3096.743,-0.04584365,0.04418626,0.04303848,-0.948704302310944,-0.398152440786362,0.634428918361664,-0.962726969681476,-0.41423451957606,0.595973855278252,0
3.15999984741211,-2.49649953842163,2.02735495567322,2.45611906051636,-2.2245472411431,2.00865584922888,2.51995780232997,1262.435,1279.432,3088.814,3093.344,-0.04414775,0.04465549,0.04162259,-0.940571308135986,-0.394518613815308,0.63017874956131,-0.954175816030892,-0.41055519705179,0.590680283820602,0
3.17999649047852,-2.51514410972595,2.01953911781311,2.46863555908203,-2.2435401949712,2.00048371179835,2.53171534550942,1261.57,1276.985,3086.145,3087.759,-0.04244759,0.04512805,0.04019137,-0.932220935821533,-0.390774250030518,0.625826120376587,-0.9454015193052,-0.406779862296197,0.585248576169681,0
3.20000076293945,-2.53361678123474,2.01180124282837,2.48106145858765,-2.26236263561939,1.99238494142555,2.54336733290784,1259.061,1274.634,3082.074,3084.815,-0.0407421,0.04560242,0.0387517,-0.923650979995728,-0.386921554803848,0.621290981769562,-0.936404235539492,-0.402908582446823,0.579678828918646,0
3.21999740600586,-2.55191397666931,2.00414180755615,2.49339270591736,-2.28099585204123,1.98436758895103,2.55490218149615,1262.033,1272.345,3076.373,3078.1,-0.0390265,0.04608442,0.03728219,-0.914864718914032,-0.38296177983284,0.616562902927399,-0.927194566064376,-0.398945918960059,0.573977604796153,0
3.2400016784668,-2.57003164291382,1.99656391143799,2.50562787055969,-2.29944978258558,1.97642737818094,2.56632604358572,1260.788,1270.392,3073.542,3072.596,-0.03732473,0.04656481,0.035807,-0.905866622924805,-0.378901332616806,0.61175799369812,-0.91776933201357,-0.394890504058554,0.568142935932542,0
3.2599983215332,-2.5879647731781,1.98906898498535,2.5177628993988,-2.31770615117141,1.96857217280235,2.57762760541179,1258.203,1268.085,3068.878,3070.202,-0.03563576,0.0470432,0.03432927,-0.896656095981598,-0.37474399805069,0.606757283210754,-0.908139677873146,-0.390747132903322,0.562181721295578,0
3.28000259399414,-2.60570955276489,1.98165893554688,2.52979564666748,-2.33577476687689,1.96079775224297,2.58881293926101,1257.987,1265.701,3065.892,3063.927,-0.03393932,0.04752236,0.03283729,-0.887242317199707,-0.370496153831482,0.601641118526459,-0.898302321135454,-0.386514393123025,0.55609192885666,0
3.29999923706055,-2.62326192855835,1.97433590888977,2.54172229766846,-2.35363781007389,1.95311178379095,2.59987101393471,1257.478,1263.677,3060.636,3059.765,-0.03224662,0.0480008,0.03133819,-0.877623856067657,-0.366158723831177,0.59633207321167,-0.888268937369113,-0.38219730838866,0.549880786348944,0
3.32000350952148,-2.64061784744263,1.96710109710693,2.55354046821594,-2.37130495667004,1.94551010417357,2.61080781928063,1257.042,1261.515,3057.083,3054.125,-0.03055817,0.04847716,0.02983171,-0.867808043956757,-0.361736744642258,0.590910792350769,-0.878036152828798,-0.377794427071868,0.543546205263365,0
3.34000015258789,-2.65777373313904,1.95995664596558,2.56524682044983,-2.38875886448137,1.93800017524809,2.62161261966077,1256.157,1259.496,3052.046,3050.159,-0.02888145,0.04894994,0.02832132,-0.857796251773834,-0.357232987880707,0.585315406322479,-0.867616161431205,-0.373310995874343,0.537095734215228,0
3.3599967956543,-2.6747260093689,1.95290338993073,2.57683920860291,-2.40600253440574,1.930580705812,2.63228727277387,1254.726,1257.424,3048.765,3045.115,-0.02721271,0.04941852,0.02680704,-0.847595989704132,-0.352653324604034,0.579615592956543,-0.85700959304645,-0.368747285811601,0.530529763124145,0
3.38000106811523,-2.69146966934204,1.94594311714172,2.58831429481506,-2.42303873751824,1.9232505035491,2.64283349404741,1252.372,1255.41,3044.567,3041.667,-0.02554824,0.04988237,0.02529227,-0.837209641933441,-0.348001211881638,0.573755204677582,-0.846216901179679,-0.364103492014234,0.523848572731403,0
3.39999771118164,-2.70800256729126,1.9390777349472,2.5996687412262,-2.43985088596004,1.91601670575165,2.65324101480657,1254.439,1253.44,3039.218,3035.072,-0.02388429,0.0503457,0.02376253,-0.826642036437988,-0.343278974294662,0.56772643327713,-0.835251031898626,-0.359385184813519,0.517060177269636,0
3.42000198364258,-2.72432041168213,1.93230795860291,2.61090087890625,-2.45644830907191,1.90887529826493,2.66351561035773,1252.665,1251.826,3035.704,3030.328,-0.02224219,0.05080111,0.02223859,-0.815897583961487,-0.338491171598434,0.561611354351044,-0.824108441976121,-0.354590839657789,0.510162383312438,0
3.43999862670898,-2.7404203414917,1.92563509941101,2.6220076084137,-2.47281494657125,1.90183319137989,2.67364733862088,1250.703,1249.864,3031.103,3026.975,-0.02061766,0.05124954,0.02071963,-0.804980874061584,-0.333642452955246,0.555331826210022,-0.812802561098952,-0.34972623496609,0.503163504475677,0
3.46000289916992,-2.75629806518555,1.91906034946442,2.63298654556274,-2.48895998516399,1.89488643231359,2.68364188660463,1249.386,1247.953,3027.915,3021.626,-0.01899899,0.05169132,0.01920209,-0.79390013217926,-0.32873797416687,0.548951327800751,-0.801329803423434,-0.344789827850059,0.496061320951293,0
3.47999954223633,-2.77195143699646,1.91258478164673,2.64383459091187,-2.50486791119015,1.88804169616054,2.69348965061443,1248.671,1246.189,3022.75,3017.461,-0.01738938,0.05212712,0.01768764,-0.782658398151398,-0.323779612779617,0.542397558689117,-0.789704067205609,-0.339787598340998,0.488864436421841,0
3.49999618530273,-2.78737640380859,1.90620946884155,2.65454959869385,-2.52054183223243,1.88129764581471,2.703192554392,1248.065,1244.453,3019.104,3011.884,-0.01578935,0.05255561,0.01617732,-0.771262764930725,-0.318771034479141,0.535749733448029,-0.777926261338517,-0.334719937510192,0.481573413535413,0
3.52000045776367,-2.80257105827332,1.89993500709534,2.66512870788574,-2.53598460495198,1.87465305213461,2.71275236634669,1245.83,1242.764,3014.577,3008.689,-0.01420477,0.05297511,0.0146783,-0.759717464447021,-0.313715010881424,0.528959572315216,-0.765997171018108,-0.329587183205523,0.474188738365705,0
3.53999710083008,-2.81753158569336,1.89376258850098,2.67556953430176,-2.55118156992615,1.86811422266028,2.72216001159753,1246.829,1240.989,3009.731,3002.845,-0.01263031,0.05338895,0.01317759,-0.748029768466949,-0.308614641427994,0.522036731243134,-0.753931367647136,-0.324395605094516,0.466719431305148,0
3.56000137329102,-2.83225536346436,1.88769340515137,2.68587040901184,-2.5661415525477,1.86167736007175,2.73142095348307,1244.471,1239.626,3006.34,2998.637,-0.01108035,0.05379168,0.011692,-0.736204624176025,-0.303473949432373,0.515039443969727,-0.741725227577293,-0.319143644022539,0.45916324914283,0
3.57999801635742,-2.84674048423767,1.88172721862793,2.69602823257446,-2.58085048488145,1.85534851740854,2.74052648328127,1242.663,1237.904,3001.652,2995.389,-0.009547965,0.05418577,0.01021736,-0.724248826503754,-0.298296749591827,0.507890403270721,-0.72939375026341,-0.313837753835969,0.451529477255809,0
3.60000228881836,-2.86098384857178,1.87586557865143,2.70604157447815,-2.5953170475952,1.84912395962179,2.74948197473904,1241.898,1236.345,2998.45,2989.69,-0.008023039,0.05457175,0.008750919,-0.712170004844666,-0.2930868268013,0.500664412975311,-0.716933326165322,-0.308476381450513,0.443815881166779,0
3.61999893188477,-2.87498331069946,1.87010860443115,2.71590733528137,-2.6095277810186,1.84300947803163,2.75827909567923,1240.643,1234.865,2993.377,2986.269,-0.00651569,0.05494851,0.007298778,-0.69997251033783,-0.287845730781555,0.493288278579712,-0.704359365424783,-0.303066157419654,0.436032000487571,0
3.6400032043457,-2.88873624801636,1.86445713043213,2.72562408447266,-2.62349122201057,1.83700139946616,2.7669231308242,1240.337,1233.338,2989.868,2980.665,-0.005021124,0.05531648,0.005858029,-0.687663972377777,-0.282576709985733,0.485840380191803,-0.69166829030569,-0.297605542343502,0.428175620429107,0
3.65999984741211,-2.90224123001099,1.85891175270081,2.73518943786621,-2.6371945352351,1.83110524661191,2.77540613448951,1238.844,1231.934,2985.087,2977.406,-0.003550526,0.05567398,0.004436022,-0.675249814987183,-0.277281939983368,0.478266268968582,-0.678875903610016,-0.292101335726265,0.420256523678599,0
3.67999649047852,-2.91549587249756,1.85347247123718,2.74460196495056,-2.65064103434641,1.825319593696,2.783730157985,1237.526,1230.452,2981.774,2972.774,-0.002098571,0.05602134,0.003029945,-0.662738263607025,-0.271965116262436,0.470626324415207,-0.665983614869008,-0.28655414404986,0.412275582803033,0
3.70000076293945,-2.9284987449646,1.84813976287842,2.7538595199585,-2.66383376677681,1.81964312949348,2.79189708781642,1235.236,1229.065,2977.749,2969.71,-0.0006636597,0.05635836,0.001643931,-0.65013575553894,-0.266628950834274,0.462879180908203,-0.65299278953921,-0.280964554832092,0.40423364308506,0
3.71999740600586,-2.9412477016449,1.84291422367096,2.7629599571228,-2.67676086214623,1.81408096149726,2.79989957565303,1236.14,1227.564,2973.214,2964.31,0.00075937,0.05668813,0.0002671318,-0.637449562549591,-0.261275589466095,0.45502558350563,-0.639919784131907,-0.275339605822821,0.396140829984331,0
3.7400016784668,-2.95374131202698,1.8377959728241,2.77190232276917,-2.68943050660933,1.80862956743367,2.80774268911456,1234.668,1226.479,2969.73,2960.079,0.00215555,0.05700663,-0.001086037,-0.624684572219849,-0.255907118320465,0.447120487689972,-0.626761182173781,-0.26967782700902,0.387995028541112,0
3.7599983215332,-2.96597814559937,1.8327853679657,2.78068447113037,-2.70183149102237,1.80329377028414,2.81541948920704,1233.045,1225.054,2965.506,2957.059,0.003525703,0.05731406,-0.00241602,-0.611848950386047,-0.250526875257492,0.43911138176918,-0.613533684877225,-0.263986404455806,0.379806577601466,0
3.78000259399414,-2.97795724868774,1.82788276672363,2.7893054485321,-2.71397186678915,1.79807010575452,2.82293496013297,1232.074,1223.719,2962.342,2952.466,0.004877011,0.05761182,-0.00372523,-0.598950564861298,-0.245137795805931,0.431050539016724,-0.600233974716474,-0.258263910724523,0.371573423458907,0
3.79999923706055,-2.98967742919922,1.8230881690979,2.79776334762573,-2.72584109938593,1.7929631065561,2.83028258052034,1230.864,1222.439,2958.008,2949.302,0.006204991,0.05789945,-0.005011537,-0.585996270179749,-0.239742204546928,0.422891497612,-0.586879077262983,-0.252517671442928,0.363306105753209,0
3.81999588012695,-3.00113725662231,1.81840109825134,2.80605721473694,-2.73744273461857,1.78797124702766,2.83746454539187,1230.23,1221.184,2954.793,2944.692,0.007512905,0.05817729,-0.006276005,-0.572993099689484,-0.234342366456985,0.414689391851425,-0.573470919541002,-0.246748515755721,0.355005817404173,0
3.84000015258789,-3.01233625411987,1.8138222694397,2.81418538093567,-2.74878005078916,1.78309311660741,2.84448288417273,1228.497,1220.004,2951.029,2941.727,0.008796129,0.05844443,-0.007512778,-0.559947907924652,-0.228940472006798,0.406413465738297,-0.560011455688534,-0.240957284473894,0.346673768116317,0
3.8599967956543,-3.02327346801758,1.80935168266296,2.82214665412903,-2.75984354851568,1.77833280261403,2.85133171629293,1229.184,1218.635,2946.899,2937.146,0.01005753,0.05870295,-0.008729842,-0.546868562698364,-0.223538786172867,0.398064494132996,-0.546518158200277,-0.23515149552379,0.33832077419619,0
3.88000106811523,-3.03394913673401,1.80498850345612,2.82994055747986,-2.77064096329669,1.77368697667861,2.85801583039457,1227.869,1217.667,2943.78,2933.427,0.01128462,0.05894969,-0.009917079,-0.533760607242584,-0.218139469623566,0.389694452285767,-0.532988048794546,-0.229329867434001,0.329944991945551,0
3.89999771118164,-3.04436135292053,1.80073404312134,2.83756589889526,-2.78116350015273,1.7691594230351,2.8645297819664,1226.012,1216.435,2940.285,2930.906,0.01247965,0.05918496,-0.01107289,-0.520633280277252,-0.212746068835258,0.381262272596359,-0.519438870577852,-0.223500034567577,0.321557405192552,0
3.92000198364258,-3.05451154708862,1.79658651351929,2.84502172470093,-2.79141877885682,1.76474686310805,2.8708782880109,1225.349,1215.195,2937.138,2927.067,0.01365081,0.05941066,-0.01220314,-0.507494568824768,-0.207361429929733,0.372791737318039,-0.505867819463029,-0.217660790404144,0.31315627807366,0
