t,x_s1,x_s2,x_s3,x_s_d1,x_s_d2,x_s_d3,propellers_rpms1,propellers_rpms2,propellers_rpms3,propellers_rpms4,rollRad,pitchRad,yawRad,v_s1,v_s2,v_s3,v_s_d1,v_s_d2,v_s_d3,insideCount
0,-0.0599999986588955,2.94000005722046,1.17999994754791,-0.0599999986588955,2.94000005722046,1.17999994754791,0,0,0,0,0,45.0048027038574,0,0,0,0,-1.06581410364015E-15,4.44089209850063E-16,-7.105427357601E-16,0
0.0199966430664063,-0.0599999986588955,2.94000005722046,1.1790189743042,-0.0600018680476204,2.93999925287472,1.18000108952831,0,0,0,0,0.00112506025470793,44.8630180358887,0.909283995628357,-3.60929135467813E-08,2.95208444356376E-08,-0.0490499772131443,-0.000279892991557604,-0.000120430134961378,0.000170982260897168,5
0.0400009155273438,-0.0599999986588955,2.94000005722046,1.17411398887634,-0.0600148724204753,2.93999365745638,1.18000903369676,0,0,0,0,0.00304076820611954,44.7212371826172,1.81856417655945,-3.62307304158094E-08,2.93641413406931E-08,-0.245249927043915,-0.00111101934050116,-0.00047804058392963,0.000678704377995865,6
0.05999755859375,-0.0600350871682167,2.94003486633301,1.16684293746948,-0.0600498857373401,2.93997859220429,1.18003042278566,2307.148,2000.279,2127.575,3382.318,-0.00213763583451509,44.8046226501465,1.28312039375305,-0.00175437412690371,0.00174319697543979,-0.363555550575256,-0.00247936261166862,-0.00106680046642749,0.00151460392977639,6
0.0800018310546875,-0.0601342283189297,2.9401330947876,1.15967178344727,-0.0601175574246769,2.93994947496775,1.18007176236346,2848.177,2759.941,2606.671,2299.107,359.914184570313,44.8777198791504,0.619981110095978,-0.00495709478855133,0.00491349957883358,-0.358559250831604,-0.00437268608126799,-0.00188144466206175,0.00267120569262453,6
0.0999984741210938,-0.0602752976119518,2.94026303291321,1.1533819437027,-0.0602281887669101,2.93990187339187,1.18013934532406,2872.034,2897.54,2627.946,2213.423,359.724548339844,44.9188041687012,0.190279811620712,-0.00705345207825303,0.00649296818301082,-0.314492255449295,-0.00677637982016689,-0.00291568692648091,0.00413958468881675,5
0.1199951171875,-0.0604444816708565,2.94038772583008,1.14806056022644,-0.0603918861403606,2.93983143898525,1.18023934549506,2725.631,2926.51,2634.907,2219.42,359.427551269531,44.9351234436035,0.0503330491483212,-0.00845922157168388,0.00623383326455951,-0.266066491603851,-0.00967801353495435,-0.00416417885169243,0.00591214744607921,5
0.139999389648438,-0.0606514103710651,2.94048070907593,1.1437304019928,-0.0606185767455666,2.93973390035084,1.18037782724834,2551.728,2769.969,2667.61,2379.457,359.090576171875,44.9478797912598,0.144069001078606,-0.0103464676067233,0.00464797206223011,-0.216506823897362,-0.0130660253322238,-0.00562194567796536,0.00798183098414958,5
0.159996032714844,-0.0609213151037693,2.94052791595459,1.14032292366028,-0.0609176604100223,2.93960521300545,1.18056053279185,2443.538,2553.683,2686.981,2529.26,358.804595947266,44.9653015136719,0.340518623590469,-0.0134953092783689,0.00235601630993187,-0.170374870300293,-0.0169249902365933,-0.00728235046931681,0.0103392124262691,5
0.180000305175781,-0.0612809881567955,2.94052505493164,1.13772797584534,-0.0612986871007165,2.9394412678651,1.18079329605139,2417.322,2395.014,2654.719,2596.484,358.625732421875,44.98388671875,0.518650650978088,-0.0179836787283421,-0.000145607860758901,-0.129748463630676,-0.0212451141043368,-0.00914117907931815,0.0129783086828701,5
0.199996948242188,-0.0617487989366055,2.94047331809998,1.13583755493164,-0.0617704296168641,2.93923829023936,1.1810814761931,2450.933,2337.968,2561.633,2580.137,358.551422119141,44.9966087341309,0.617853283882141,-0.0233905836939812,-0.00259114592336118,-0.0945224165916443,-0.0260104776919234,-0.0111915819022102,0.0158893949364944,5
0.220001220703125,-0.0623325519263744,2.94037485122681,1.13456833362579,-0.0623420644491781,2.93899233174064,1.18143067899198,2496.87,2359.919,2442.941,2516.267,358.525939941406,44.9992446899414,0.641155004501343,-0.0291876252740622,-0.00492167612537742,-0.0634626597166061,-0.03121219533433,-0.0134297356845702,0.0190670430730375,5
0.239997863769531,-0.0630335286259651,2.94023036956787,1.13386464118958,-0.0630217183703222,2.93869989564571,1.18184586896662,2511.913,2408.261,2348.247,2446.409,358.476837158203,44.9927215576172,0.627752006053925,-0.0350490063428879,-0.0072294264100492,-0.0351856425404549,-0.0368338920540454,-0.0158485947310391,0.0225012498742643,5
0.260002136230469,-0.0638527199625969,2.94003653526306,1.13368928432465,-0.0638182299684225,2.938357178957,1.18233244547258,2475.157,2437.065,2311.925,2397.122,358.355743408203,44.9817771911621,0.619235396385193,-0.0409597307443619,-0.0096905417740345,-0.00876937992870808,-0.0428675524613532,-0.0184447102433459,0.0261871188636747,4
0.279998779296875,-0.0647954195737839,2.93978667259216,1.13401019573212,-0.0647390625194898,2.93796097043536,1.18289496770872,2398.733,2429.089,2331.16,2372.457,358.162780761719,44.9715194702148,0.638311445713043,-0.0471348203718662,-0.0124888624995947,0.0160465352237225,-0.0492963837173861,-0.0212108567320638,0.0301143915580518,4
0.299995422363281,-0.0658721327781677,2.93947196006775,1.1347930431366,-0.0657923226682404,2.93750778201804,1.18353838789779,2313.548,2391.193,2375.702,2364.04,357.940032958984,44.965015411377,0.685064613819122,-0.0538357719779015,-0.0157377906143665,0.0391445830464363,-0.0561105313314725,-0.0241427940851591,0.0342770480028206,4
0.319999694824219,-0.0670961290597916,2.93908333778381,1.13599872589111,-0.0669860785243584,2.93699414222283,1.1842676347221,2254.632,2343.418,2404.55,2358.782,357.744598388672,44.9626922607422,0.745518326759338,-0.0611999854445457,-0.0194312501698732,0.0602821372449398,-0.0633008373176985,-0.0272365818771378,0.0386694937272938,4
0.339996337890625,-0.0684796273708344,2.93861436843872,1.1375857591629,-0.068326768706371,2.93641728069206,1.18508664143323,2239.81,2303.543,2392.231,2348.246,357.615112304688,44.9632148742676,0.803801834583282,-0.0691748410463333,-0.0234493426978588,0.0793543010950089,-0.0708499516420146,-0.0304847548730522,0.0432811298664125,4
0.360000610351563,-0.0700310617685318,2.93806195259094,1.1395149230957,-0.0698225328270578,2.93577369517774,1.18600038039362,2261.884,2279.263,2340.96,2330.819,357.552703857422,44.9647521972656,0.850394308567047,-0.0775719285011292,-0.0276186317205429,0.0964599698781967,-0.0787518717320621,-0.0338847303337087,0.0481082895423912,4
0.379997253417969,-0.0717547610402107,2.93742609024048,1.14175117015839,-0.0714791088463715,2.935060916796,1.18701235683346,2297.464,2269.534,2273.257,2308.598,357.525115966797,44.9657592773438,0.884479165077209,-0.0861851051449776,-0.0317948386073112,0.111810922622681,-0.0869889214763108,-0.0374289027221294,0.0531401746945263,4
0.400001525878906,-0.0736527368426323,2.93670749664307,1.14426505565643,-0.0733044112230977,2.93427554017634,1.18812740557212,2316.646,2266.028,2221.478,2286.959,357.486907958984,44.9656410217285,0.911170959472656,-0.0948988199234009,-0.0359251648187637,0.125694155693054,-0.0955558400788823,-0.0411150084648172,0.0583735715847086,4
0.419998168945313,-0.0757272839546204,2.93590617179871,1.14703118801117,-0.0753034649285836,2.93341540321397,1.18934859628618,2304.895,2262.159,2203.478,2268.277,357.406799316406,44.9645843505859,0.936944007873535,-0.103727489709854,-0.0400604605674744,0.138308823108673,-0.104434660908044,-0.0449353170220673,0.0637975046779765,4
0.439994812011719,-0.0779829099774361,2.93501996994019,1.15002751350403,-0.0774831213880516,2.93247755793201,1.1906801144044,2263.947,2253.073,2219.802,2254.504,357.282043457031,44.9632873535156,0.965999722480774,-0.112781368196011,-0.0443136915564537,0.149818271398544,-0.11361726969793,-0.0488863370519643,0.0694070170959338,4
0.459999084472656,-0.0804265663027763,2.93404412269592,1.15323328971863,-0.0798502821969742,2.93145903476675,1.19212617600376,2214.276,2239.908,2250.04,2243.964,357.137847900391,44.9624824523926,0.998927235603333,-0.122182860970497,-0.0487904250621796,0.160286694765091,-0.123096124252221,-0.0529648233581361,0.075197501428542,4
0.479995727539063,-0.0830663740634918,2.93297362327576,1.15662884712219,-0.0824088828700873,2.93035814037613,1.19368918522879,2178.244,2225.681,2270.24,2235.18,357.009399414063,44.9625778198242,1.03383338451385,-0.131990477442741,-0.0535292625427246,0.169775575399399,-0.132852887402757,-0.0571628859694044,0.0811577557859174,4
0.5,-0.0859097614884377,2.93180394172668,1.16019630432129,-0.085166398670376,2.92917165836334,1.195373708601,2167.927,2212.888,2266.371,2227.516,356.921417236328,44.9636688232422,1.06790602207184,-0.142169490456581,-0.0584845766425133,0.178370729088783,-0.142884000065179,-0.0614789935111996,0.0872856059789651,5
0.519996643066406,-0.0889620706439018,2.93053293228149,1.16391909122467,-0.0881260274065667,2.92789821280061,1.19718169961184,2183.294,2204.535,2237.031,2219.302,356.876770019531,44.9653739929199,1.09920716285706,-0.152615562081337,-0.0635557621717453,0.186137408018112,-0.153170920546857,-0.0659051680111775,0.0935697251769938,5
0.540000915527344,-0.0922264158725739,2.92916011810303,1.16778326034546,-0.0912951145137283,2.92653464315245,1.19911764547298,2207.558,2199.241,2198.994,2211.845,356.855773925781,44.9672622680664,1.12737679481506,-0.16321724653244,-0.0686430260539055,0.193208292126656,-0.163710711144578,-0.0704401454577151,0.100008318782952,5
0.55999755859375,-0.0957046300172806,2.92768621444702,1.17177653312683,-0.094676112580471,2.92507989413848,1.20118304443252,2224.968,2196.671,2168.777,2204.368,356.831024169922,44.968864440918,1.15337121486664,-0.173910275101662,-0.0736966505646706,0.199662581086159,-0.17448465888317,-0.0750758741803766,0.106589955332319,5
0.580001831054688,-0.099398709833622,2.92611145973206,1.17588901519775,-0.0982762614093182,2.92353085067394,1.20338231917284,2222.093,2193.677,2161.101,2198.497,356.781524658203,44.9700469970703,1.1786093711853,-0.184704288840294,-0.0787345990538597,0.20562145113945,-0.185490414529404,-0.0798113433697334,0.113313199715174,5
0.599998474121094,-0.103311941027641,2.92443513870239,1.18011164665222,-0.102097262171133,2.92188678079254,1.2057165089127,2202.358,2190.471,2173.02,2193.156,356.705169677734,44.9708862304688,1.20408844947815,-0.195661291480064,-0.0838218256831169,0.211134374141693,-0.196709126405959,-0.0846384416756885,0.120166535736014,5
0.6199951171875,-0.107448995113373,2.92265462875366,1.18443751335144,-0.106144683970236,2.92014528826426,1.208189015731,2174.476,2185.664,2195.792,2189.579,356.615936279297,44.9717330932617,1.22994947433472,-0.206853106617928,-0.0890267714858055,0.21629436314106,-0.208134604141382,-0.0895545055543457,0.127146181793521,5
0.639999389648438,-0.111815273761749,2.92076706886292,1.18886017799377,-0.110424235525481,2.91830391678686,1.21080332699501,2154.515,2181.364,2212.305,2186.343,356.536041259766,44.9728546142578,1.25550580024719,-0.218313783407211,-0.0943809971213341,0.221131712198257,-0.219761081350814,-0.0945570538913933,0.134248615293163,5
0.659996032714844,-0.116415709257126,2.91876983642578,1.19337439537048,-0.114936482147704,2.9163624231229,1.21355978804431,2151.185,2178.357,2212.74,2183.725,356.481597900391,44.9743919372559,1.28002941608429,-0.230022206902504,-0.099863164126873,0.225711986422539,-0.231569557951997,-0.0996379114822372,0.141462229381183,5
0.680000305175781,-0.121254041790962,2.91666150093079,1.19797658920288,-0.119688496929273,2.91431776391831,1.21646271972064,2161.944,2176.273,2199.215,2182.219,356.454254150391,44.9762992858887,1.30288195610046,-0.241916328668594,-0.105414278805256,0.230108350515366,-0.243559016194652,-0.104796640417365,0.148786402329814,5
0.699996948242188,-0.126332551240921,2.91444206237793,1.20266354084015,-0.124680083855354,2.91217002351282,1.2195120022816,2180.775,2176.504,2177.518,2180.446,356.443298339844,44.9782752990723,1.32394790649414,-0.253925830125809,-0.110971838235855,0.234344705939293,-0.255710395848158,-0.11002503961202,0.1562094905416,5
0.720001220703125,-0.131652757525444,2.91211199760437,1.20743358135223,-0.129918284978346,2.90991617190799,1.22271193760712,2193.687,2176.765,2162.424,2179.799,356.430938720703,44.9800682067871,1.34361720085144,-0.266010135412216,-0.116501726210117,0.238501578569412,-0.268023157655716,-0.11532287703907,0.163731164592979,5
0.739997863769531,-0.137216150760651,2.90967178344727,1.21228528022766,-0.135402141159277,2.90755662179454,1.22606193977416,2196.454,2177.902,2158.528,2178.781,356.404815673828,44.9814987182617,1.36244773864746,-0.278169810771942,-0.122011177241802,0.242586582899094,-0.280478211503383,-0.120681938755799,0.171339762631236,5
0.759994506835938,-0.14302496612072,2.90712094306946,1.21721863746643,-0.14113644597991,2.90508931062815,1.22956493710703,2186.244,2177.672,2169.289,2178.917,356.361968994141,44.9826545715332,1.38086247444153,-0.29044097661972,-0.127538353204727,0.246667638421059,-0.293070637251543,-0.126100107763583,0.179032279019858,5
0.779998779296875,-0.149082243442535,2.90445852279663,1.22223353385925,-0.147126184485884,2.90251209348295,1.2332239748923,2172.175,2177.546,2185.167,2178.849,356.311706542969,44.9836692810059,1.39878284931183,-0.302863985300064,-0.133125647902489,0.250743508338928,-0.305795832832518,-0.131575403921268,0.186805902427515,5
0.799995422363281,-0.155391424894333,2.90168261528015,1.22733056545258,-0.153369252164744,2.89982587587186,1.23703776751617,2162.689,2177.665,2197.109,2179.065,356.267120361328,44.9847602844238,1.41604971885681,-0.315458357334137,-0.138793841004372,0.254850268363953,-0.318634718604462,-0.13709961779199,0.194648977398734,5
0.819999694824219,-0.161955624818802,2.89879202842712,1.23251116275787,-0.159872691993147,2.89702762739878,1.24101061742316,2161.085,2177.434,2201.456,2180.237,356.237701416016,44.9860992431641,1.43220269680023,-0.328211218118668,-0.144531607627869,0.259031534194946,-0.331587821991737,-0.142672976311719,0.202561826128828,5
0.839996337890625,-0.168777272105217,2.89578604698181,1.23777675628662,-0.166633637018892,2.89411858163313,1.24514077323692,2170.572,2178.961,2194.216,2180.886,356.22607421875,44.9875907897949,1.44687104225159,-0.341081589460373,-0.150303855538368,0.263277322053909,-0.344636106234817,-0.148287288494656,0.210532819358465,5
0.860000610351563,-0.175857752561569,2.89266467094421,1.24312961101532,-0.173659158941841,2.89109569582005,1.24943255494854,2182.558,2180.295,2184.368,2182.531,356.224822998047,44.9891204833984,1.46001172065735,-0.354025274515152,-0.156071722507477,0.267643690109253,-0.357780475378537,-0.153942943326036,0.218562509354528,5
0.879997253417969,-0.183197975158691,2.88942837715149,1.24857175350189,-0.180945630646592,2.88796053060595,1.25388374680983,2193.794,2183.047,2175.101,2183.409,356.224395751953,44.9904632568359,1.471834897995,-0.36701112985611,-0.16181255877018,0.272108614444733,-0.371001963495383,-0.159631780297098,0.226639310127856,5
0.900001525878906,-0.190798729658127,2.88607788085938,1.25410616397858,-0.188500167066783,2.88471002463366,1.25849869522271,2196.095,2184.644,2175.43,2185.257,356.215728759766,44.9915504455566,1.48273086547852,-0.38003733754158,-0.167529046535492,0.276723295450211,-0.384301823631742,-0.165354338558695,0.234763987144933,5
0.919998168945313,-0.198661118745804,2.88261294364929,1.25973534584045,-0.196318384305134,2.8813460641717,1.26327472213274,2193.087,2186.807,2181.531,2186.342,356.197998046875,44.9923553466797,1.49291944503784,-0.393120050430298,-0.173243090510368,0.28145706653595,-0.397661187980262,-0.171102499820431,0.242925014356675,5
0.939994812011719,-0.206786781549454,2.87903332710266,1.26546239852905,-0.204404317663683,2.87786691294234,1.26821429264298,2184.848,2187.505,2193.689,2188.332,356.175140380859,44.9930610656738,1.50246369838715,-0.406283050775528,-0.178980365395546,0.286352336406708,-0.4110765036434,-0.176874735369747,0.251120221353413,5
0.959999084472656,-0.21517750620842,2.87533831596375,1.27129006385803,-0.212762239776093,2.87427073255068,1.27332001683864,2179.761,2188.681,2202.774,2189.8,356.156219482422,44.9937934875488,1.51102638244629,-0.4195356965065,-0.18475441634655,0.291381269693375,-0.424544411524882,-0.18266959988136,0.259347556115652,5
0.979995727539063,-0.223834842443466,2.87152719497681,1.27722120285034,-0.22138664033507,2.87055989392801,1.27858852855901,2181.08,2190.434,2205.144,2191.157,356.147399902344,44.9945983886719,1.51852631568909,-0.432866662740707,-0.190558388829231,0.296555072069168,-0.438046240701377,-0.188479059778567,0.267595612867683,5
1,-0.232759833335876,2.86759972572327,1.28325927257538,-0.230284798736574,2.86673126495361,1.28402427467346,2186.116,2191.487,2203.593,2193.371,356.149169921875,44.995532989502,1.52476274967194,-0.446249961853027,-0.196370407938957,0.301901996135712,-0.451584000205995,-0.194303979492187,0.275865618896484,5
1.01999664306641,-0.241952896118164,2.86355638504028,1.28940689563751,-0.239450461003889,2.86278753653895,1.28962343472523,2195.725,2194.046,2196.795,2194.613,356.158630371094,44.9964332580566,1.5296665430069,-0.459653317928314,-0.202166065573692,0.307381629943848,-0.465139182559269,-0.200136395770846,0.284146268271649,5
1.04000091552734,-0.251414030790329,2.85939788818359,1.29566764831543,-0.24889099213045,2.8587255397331,1.29539050787386,2201.738,2195.524,2193.623,2196.818,356.168579101563,44.9972305297852,1.53339350223541,-0.47305691242218,-0.207930624485016,0.313037127256393,-0.478714054341683,-0.205977283860805,0.292438945611829,5
1.05999755859375,-0.261143058538437,2.85512471199036,1.30204403400421,-0.258599401509697,2.85454828239877,1.3013212236669,2205.538,2198.055,2192.443,2197.936,356.174957275391,44.997802734375,1.53610491752625,-0.486453384160995,-0.213664442300797,0.318819552659988,-0.492290296490434,-0.211818761581115,0.30073246008742,5
1.08000183105469,-0.271140098571777,2.85073709487915,1.30853939056396,-0.268583149539609,2.85025255453512,1.30742013954506,2202.678,2199.024,2198.4,2199.964,356.175598144531,44.998218536377,1.538010597229,-0.499851733446121,-0.219380080699921,0.324768215417862,-0.50587040849135,-0.217661904390701,0.309028338595312,5
1.09999847412109,-0.281405299901962,2.84623527526855,1.31515598297119,-0.278834517009062,2.84584167750307,1.31368253996271,2199.789,2200.873,2204.265,2200.9,356.17431640625,44.9985198974609,1.5391229391098,-0.513260900974274,-0.225092545151711,0.33083176612854,-0.519436284009554,-0.223498921639497,0.317315520258069,5
1.1199951171875,-0.29193902015686,2.84161901473999,1.32189702987671,-0.289357002179081,2.84131414609862,1.32011056195293,2195.73,2201.217,2211.533,2202.854,356.175048828125,44.9988441467285,1.53938710689545,-0.526686370372772,-0.230809733271599,0.337050765752792,-0.532985466132485,-0.229328756186667,0.32559250418615,5
1.13999938964844,-0.302741378545761,2.83688855171204,1.32876455783844,-0.300154365346813,2.83666834237095,1.32670650262257,2196.252,2202.4,2213.767,2203.956,356.182708740234,44.9992218017578,1.53847765922546,-0.540117919445038,-0.236527428030968,0.343376904726028,-0.546515580872639,-0.235150386571708,0.333857840147634,5
1.15999603271484,-0.313812077045441,2.83204388618469,1.33576083183289,-0.311217811600473,2.8319080505249,1.33346498929726,2201.149,2204.127,2211.032,2204.881,356.198089599609,44.9996147155762,1.53650736808777,-0.553535401821136,-0.242231279611588,0.349816709756851,-0.560008885098767,-0.240956178420931,0.342100689140515,6
1.18000030517578,-0.325150460004807,2.8270857334137,1.34288859367371,-0.322555076427271,2.82702994219644,1.34039074746542,2205.326,2204.739,2208.897,2206.62,356.217803955078,45.0000419616699,1.53347039222717,-0.566918134689331,-0.247905194759369,0.356389701366425,-0.573468357077025,-0.246747413199059,0.350322870541114,6
1.19999694824219,-0.33675542473793,2.82201504707336,1.35014939308167,-0.334156660511822,2.8220381046756,1.34747797414352,2210.768,2206.642,2204.919,2207.19,356.239105224609,45.0003433227539,1.52939414978027,-0.580248773097992,-0.25353929400444,0.363041639328003,-0.58687652428584,-0.252516572968185,0.358513710658656,6
1.22000122070313,-0.348625898361206,2.81683230400085,1.35754561424255,-0.346030421585499,2.81692915700008,1.35473146949704,2211.084,2207.003,2206.253,2208.761,356.257843017578,45.0005645751953,1.52441871166229,-0.593523263931274,-0.259133368730545,0.369812399148941,-0.600236516861372,-0.258265004538453,0.366675121644476,6
1.23999786376953,-0.360760688781738,2.81153845787048,1.36507844924927,-0.358166167196084,2.81170748469733,1.36214500711597,2210.97,2208.542,2207.702,2208.983,356.274444580078,45.0006408691406,1.51860725879669,-0.606741786003113,-0.264694362878799,0.37663933634758,-0.613531154887641,-0.263985315871967,0.374796608555988,6
1.25999450683594,-0.373158931732178,2.80613374710083,1.37274980545044,-0.3705671011502,2.80637170925886,1.36972054415578,2207.066,2208.35,2213.194,2210.333,356.289611816406,45.0006828308105,1.51203227043152,-0.619910418987274,-0.270231008529663,0.383567780256271,-0.626758665639206,-0.269676744214496,0.382877088462885,6
1.27999877929688,-0.385819435119629,2.80061888694763,1.38056063652039,-0.383236695417198,2.80092033679326,1.37746020158837,2205.22,2208.917,2216.302,2210.678,356.307495117188,45.0007133483887,1.50446403026581,-0.633027076721191,-0.275747239589691,0.390540331602097,-0.639917282339435,-0.275338529371412,0.39091548206889,6
1.29999542236328,-0.398741126060486,2.79499411582947,1.38851189613342,-0.396163740917024,2.79535819025452,1.38535713196165,2206.438,2209.885,2215.892,2210.802,356.330230712891,45.0007400512695,1.4960902929306,-0.646082937717438,-0.281238973140717,0.397562652826309,-0.652990303744023,-0.280963485263868,0.398901586844477,6
1.31999969482422,-0.41192239522934,2.78926014900208,1.39660501480103,-0.409356423791328,2.7896817473746,1.39341633606181,2207.075,2209.445,2216.044,2211.885,356.357147216797,45.000846862793,1.48685777187347,-0.659064888954163,-0.286696493625641,0.404656618833542,-0.665981146317813,-0.286553081901244,0.406837489854705,6
1.33999633789063,-0.425361543893814,2.78341794013977,1.40484023094177,-0.422802873722428,2.78389611561957,1.401630562497,2211.059,2210.498,2212.208,2211.621,356.388000488281,45.0009117126465,1.47669804096222,-0.671956300735474,-0.292109727859497,0.411759436130524,-0.678873453515705,-0.29210028151913,0.41471319914141,6
1.36000061035156,-0.439056485891342,2.77746844291687,1.41321861743927,-0.436511415158101,2.77799771321212,1.41000489654248,2211.704,2209.979,2211.771,2212.52,356.419372558594,45.0009689331055,1.46567583084106,-0.684747815132141,-0.297472327947617,0.418918430805206,-0.691670720740693,-0.297606588091785,0.422530849991739,6
1.37999725341797,-0.453005105257034,2.77141284942627,1.42173993587494,-0.450469530727146,2.77199192602736,1.41853169153152,2213.381,2210.901,2209.822,2211.963,356.450775146484,45.0009231567383,1.45381224155426,-0.697431683540344,-0.302783459424973,0.426065474748611,-0.704356955827446,-0.303065120637236,0.430280673041441,6
1.40000152587891,-0.467205286026001,2.76525187492371,1.43040490150452,-0.464685685951852,2.76587511158757,1.42721611891956,2210.722,2210.084,2212.419,2212.615,356.480590820313,45.000846862793,1.4412180185318,-0.710008800029755,-0.308046489953995,0.433250486850739,-0.716935713767318,-0.308477408768949,0.437964839979263,6
1.41999816894531,-0.481654822826385,2.7589864730835,1.43921303749084,-0.47914673136562,2.75965292774086,1.43605014590267,2209.969,2210.672,2212.69,2211.801,356.511169433594,45.0006904602051,1.42789602279663,-0.72247701883316,-0.313265383243561,0.440404206514359,-0.729391385793766,-0.313836736470737,0.445573815653291,6
1.43999481201172,-0.496351540088654,2.75261759757996,1.4481645822525,-0.493855616658466,2.75332410531803,1.44503557440044,2206.806,2209.527,2215.525,2212.263,356.54296875,45.0005874633789,1.41389095783234,-0.734835863113403,-0.318441420793533,0.447578817605972,-0.7417228873516,-0.319142637088802,0.453106937525684,6
1.45999908447266,-0.511293053627014,2.7461462020874,1.45725882053375,-0.508815552717244,2.74688726276417,1.45417436589355,2206.447,2209.296,2215.144,2211.691,356.578582763672,45.0004844665527,1.398961186409,-0.747076869010925,-0.323571771383286,0.454714477062225,-0.753929052770513,-0.324394609067776,0.460563493506643,6
1.47999572753906,-0.526476800441742,2.73957324028015,1.46649515628815,-0.524012471663969,2.74034845309416,1.46345792653486,2208.384,2209.57,2212.054,2210.829,356.618011474609,45.0003700256348,1.3833771944046,-0.759188532829285,-0.328649342060089,0.461816936731339,-0.765994882555672,-0.329586198544069,0.467934320638836,6
1.5,-0.541900038719177,2.7328999042511,1.4758734703064,-0.539455198877605,2.73370387899399,1.47289164761066,2207.929,2208.244,2211.448,2211.088,356.659088134766,45.0003051757813,1.36714267730713,-0.771161258220673,-0.333666831254959,0.468914777040482,-0.777924000354858,-0.334718964672088,0.475221632552146,6
1.51999664306641,-0.557559728622437,2.72612738609314,1.48539221286774,-0.555129074991064,2.72695984797977,1.48246657394236,2209.723,2208.444,2208.12,2209.874,356.701690673828,45.000171661377,1.35021591186523,-0.782985389232635,-0.338620185852051,0.475939720869064,-0.789701834723693,-0.339786637766398,0.482416527778586,6
1.54000091552734,-0.573452889919281,2.71925711631775,1.49505114555359,-0.571043070329722,2.72011250037111,1.49218818536175,2207.498,2206.945,2208.992,2209.935,356.743591308594,45.0000534057617,1.3326518535614,-0.794658541679382,-0.343508571386337,0.482945621013641,-0.801332006385301,-0.344790775723006,0.489521218161413,6
1.55999755859375,-0.589576423168182,2.7122905254364,1.50484836101532,-0.587181951496087,2.71316839067337,1.50204717602401,2207.289,2206.972,2207.427,2208.492,356.786163330078,44.9998550415039,1.31443166732788,-0.806176841259003,-0.348333686590195,0.489862650632858,-0.812800388649436,-0.349725300221754,0.496527073925997,6
1.57999420166016,-0.605927228927612,2.70522856712341,1.51478326320648,-0.603548545866849,2.70612630234534,1.51204527312944,2203.76,2205.231,2209.377,2208.409,356.828796386719,44.999698638916,1.29559576511383,-0.817540407180786,-0.353096961975098,0.496747642755508,-0.824106301004481,-0.354589918457504,0.503433679358411,6
1.59999847412109,-0.622502148151398,2.69807267189026,1.52485394477844,-0.620145926473056,2.69898491314762,1.52218435394475,2202.332,2204.536,2208.919,2207.136,356.873901367188,44.9995307922363,1.27594697475433,-0.828744113445282,-0.357798397541046,0.503536999225616,-0.835248923368005,-0.359384277571697,0.510240533483095,5
1.6199951171875,-0.639297664165497,2.69082403182983,1.53505885601044,-0.636958033083316,2.69175113334911,1.53245460752521,2202.859,2204.294,2206.165,2205.665,356.921875,44.9993324279785,1.25581729412079,-0.839780509471893,-0.362434089183807,0.510243535041809,-0.846214826007804,-0.364102599125749,0.516939432286212,5
1.63999938964844,-0.656310558319092,2.68348407745361,1.54539680480957,-0.653994195024907,2.68442094880091,1.54286173301126,2200.986,2202.369,2205.969,2205.416,356.971343994141,44.9991989135742,1.23520588874817,-0.850642919540405,-0.366998761892319,0.516898334026337,-0.857007552155828,-0.368746407673381,0.523532540272869,5
1.65999603271484,-0.673537015914917,2.67605423927307,1.55586540699005,-0.671237824488362,2.67700149677403,1.55339559716896,2202.112,2202.02,2202.375,2203.652,357.022979736328,44.9990348815918,1.21404790878296,-0.86132287979126,-0.371488451957703,0.523431539535522,-0.867614155697522,-0.373310132863173,0.530011948863706,5
1.68000030517578,-0.690973341464996,2.66853618621826,1.56646347045898,-0.688698391434734,2.66948870260877,1.56406198504972,2199.692,2199.958,2202.497,2203.282,357.074768066406,44.9989051818848,1.19234991073608,-0.871816873550415,-0.375900387763977,0.529902637004852,-0.878038122530658,-0.377795274579551,0.536379787539275,5
1.69999694824219,-0.708615720272064,2.66093158721924,1.57718825340271,-0.706358800111611,2.66188992212981,1.57485045312518,2199.87,2199.577,2199.636,2201.3,357.127746582031,44.9987258911133,1.17008209228516,-0.882119715213776,-0.380234122276306,0.536238849163055,-0.888267004546665,-0.382196476749158,0.542628451944297,5
1.72000122070313,-0.72646027803421,2.65324187278748,1.58803832530975,-0.724228658537036,2.6542010212754,1.58576687078363,2196.442,2197.404,2200.559,2200.82,357.1806640625,44.9985771179199,1.14728248119354,-0.892230272293091,-0.384489566087723,0.542504727840424,-0.898304216251578,-0.386515208538549,0.548760027947228,5
1.73999786376953,-0.744503200054169,2.64546847343445,1.59901082515717,-0.742290383213093,2.64642956573347,1.59680049654058,2196.139,2196.98,2198.006,2198.639,357.2353515625,44.9983711242676,1.12395834922791,-0.902143955230713,-0.38866662979126,0.548623561859131,-0.908137821269591,-0.39074633405868,0.554767223802352,5
1.75999450683594,-0.762740314006805,2.63761329650879,1.61010408401489,-0.760546715064628,2.63857437616062,1.60795300478424,2192.79,2194.715,2198.652,2198.064,357.290893554688,44.998233795166,1.10016918182373,-0.91185849905014,-0.392763674259186,0.554664850234985,-0.917767514700581,-0.394889722119545,0.560649853250941,4
1.77999877929688,-0.78116774559021,2.62967777252197,1.62131536006927,-0.779000609654483,2.63063418086074,1.61922620102184,2191.863,2193.527,2196.634,2196.292,357.348999023438,44.9980812072754,1.07570779323578,-0.921367764472961,-0.396778494119644,0.560562014579773,-0.927192788821983,-0.398945154262308,0.566407606133204,4
1.79999542236328,-0.799781024456024,2.62166357040405,1.63264191150665,-0.797633790944145,2.62261684350262,1.63060892070663,2192.445,2192.862,2192.862,2194.269,357.409210205078,44.9979019165039,1.05093109607697,-0.930664479732513,-0.400706768035889,0.566328644752502,-0.936402499096495,-0.402907835303912,0.572033674425208,4
1.81999969482422,-0.818575918674469,2.61357259750366,1.64408195018768,-0.816456197270346,2.61451808789761,1.64210723501345,2189.757,2190.438,2192.544,2193.629,357.469604492188,44.9977722167969,1.02582478523254,-0.939744710922241,-0.404544919729233,0.572003245353699,-0.945399824400851,-0.406779133026206,0.577530000053147,3
1.83999633789063,-0.837547957897186,2.60540676116943,1.65563213825226,-0.835449117627072,2.60634596486888,1.6537097136807,2189.896,2189.676,2189.15,2191.331,357.53125,44.9976043701172,1.0003387928009,-0.948604047298431,-0.40829199552536,0.577511131763458,-0.954174163352093,-0.410554485950274,0.582890106797601,3
1.86000061035156,-0.856692850589752,2.59716773033142,1.66729056835175,-0.854622615239374,2.59809614449182,1.66542250417552,2186.24,2187.107,2189.714,2190.645,357.592529296875,44.9974899291992,0.974437594413757,-0.957241892814636,-0.411947339773178,0.582921802997589,-0.962728579444532,-0.414235212212131,0.588115866099442,0
1.87999725341797,-0.876005947589874,2.58885741233826,1.67905366420746,-0.873957566090845,2.58977685529642,1.67723392393473,2185.763,2186.364,2186.836,2188.155,357.655364990234,44.9973258972168,0.948091745376587,-0.965654969215393,-0.415511339902878,0.588155627250671,-0.971053025860989,-0.417816988947023,0.593201140514831,0
1.90000152587891,-0.89548271894455,2.58047771453857,1.69091939926147,-0.893464153455626,2.58138371570432,1.68915019376158,2182.033,2183.825,2187.321,2187.355,357.718658447266,44.9972152709961,0.92132169008255,-0.973841726779938,-0.418982833623886,0.593287408351898,-0.979150439632688,-0.421301079877433,0.598147724230311,0
1.91999816894531,-0.915118634700775,2.57203054428101,1.70288407802582,-0.913122862707269,2.57292512231409,1.7011593924753,2182.091,2183.094,2183.765,2184.77,357.784271240234,44.9970512390137,0.894150197505951,-0.98179703950882,-0.422360479831696,0.598237037658691,-0.987011339258123,-0.424683405378145,0.60294982514457,0
1.93999481201172,-0.934908986091614,2.56351780891418,1.71494567394257,-0.932936403420974,2.56439990927123,1.7132631753131,2178.954,2180.498,2183.513,2183.958,357.850646972656,44.9969673156738,0.86660760641098,-0.989517569541931,-0.425640851259232,0.603081226348877,-0.994635661494588,-0.427963938237592,0.607607404623624,0
1.95999908447266,-0.954849004745483,2.55494141578674,1.72710061073303,-0.952907658613767,2.55580683609405,1.72546330346508,2178.036,2179.05,2180.919,2181.825,357.919006347656,44.9968566894531,0.838499069213867,-0.996998131275177,-0.428822040557861,0.607748866081238,-1.00202309041976,-0.431142542523221,0.612120269675456,0
1.97999572753906,-0.974933743476868,2.54630351066589,1.73934578895569,-0.973016570682103,2.54715453300902,1.73774752405424,2178.333,2178.161,2176.916,2179.452,357.988647460938,44.9967079162598,0.810220241546631,-1.00423336029053,-0.431900888681412,0.612257957458496,-1.00916501115878,-0.434215511495054,0.616483157607448,0
2,-0.995158195495605,2.53760600090027,1.75167882442474,-0.993273599084619,2.53843849960327,1.75012222660065,2174.871,2175.409,2176.837,2178.665,358.057647705078,44.9966125488281,0.781725525856018,-1.01122176647186,-0.434875458478928,0.616653203964233,-1.01606400046349,-0.437183953857422,0.620697642517089,0
2.01999664306641,-1.01551735401154,2.52885103225708,1.76409590244293,-1.01365835337184,2.52966750931758,1.76257495489689,2174.397,2174.442,2173.668,2175.999,358.127532958984,44.996467590332,0.752980172634125,-1.01796174049377,-0.437746942043304,0.620851933956146,-1.02271203275434,-0.440044416427654,0.624758821703072,0
2.04000091552734,-1.03600645065308,2.52004075050354,1.77659463882446,-1.0341813929022,2.52083701875502,1.77511215949027,2170.159,2171.648,2174.348,2175.14,358.197082519531,44.996395111084,0.723935127258301,-1.02445375919342,-0.440514981746674,0.624934256076813,-1.02911152474823,-0.442797939051516,0.628668171500036,0
2.05999755859375,-1.05662035942078,2.51117706298828,1.78917098045349,-1.05482201812353,2.5119559343546,1.78772119534738,2169.683,2170.666,2171.127,2172.418,358.268493652344,44.9962730407715,0.694562971591949,-1.0306955575943,-0.443180292844772,0.628816783428192,-1.03525504859546,-0.445441325732794,0.632421154350513,0
2.07999420166016,-1.07735419273376,2.50226235389709,1.80182254314423,-1.07558293843174,2.50302309033894,1.80040371759589,2165.999,2167.954,2171.155,2171.459,358.340545654297,44.9962120056152,0.664850115776062,-1.03668463230133,-0.445740073919296,0.632578313350677,-1.0411426556922,-0.447974598585819,0.636017801651613,0
2.09999847412109,-1.09820234775543,2.49329853057861,1.8145455121994,-1.09646699912883,2.4940372624541,1.8131614643864,2164.95,2166.365,2168.472,2169.207,358.414855957031,44.9961395263672,0.634603500366211,-1.04241681098938,-0.448193073272705,0.636150062084198,-1.04677411523768,-0.450397658303471,0.63945797241075,0
2.1199951171875,-1.11916017532349,2.48428773880005,1.82733643054962,-1.11745308225396,2.48500753716864,1.82598153508617,2165.492,2165.484,2164.036,2166.577,358.490692138672,44.9960136413574,0.604267835617065,-1.04788625240326,-0.450535327196121,0.639547228813171,-1.0521429102862,-0.45270770082608,0.642737685527497,0
2.13999938964844,-1.14022183418274,2.47523236274719,1.84019291400909,-1.138551967509,2.47592927627801,1.83887051484687,2162.151,2162.61,2163.585,2165.785,358.56591796875,44.9959564208984,0.573801517486572,-1.05309069156647,-0.45276403427124,0.642824470996857,-1.05725102347782,-0.454905579228273,0.645858152165725,0
2.15999603271484,-1.16138243675232,2.46613478660583,1.8531106710434,-1.15974228854654,2.4668116731246,1.85181535130026,2161.967,2161.578,2159.989,2162.956,358.641784667969,44.9958457946777,0.543188273906708,-1.05802953243256,-0.454880267381668,0.645890772342682,-1.06209255378819,-0.456988754464129,0.648815767481742,0
2.18000030517578,-1.18263649940491,2.45699715614319,1.86608731746674,-1.18103490068612,2.45765005696766,1.86482267579167,2157.611,2158.624,2160.584,2162.15,358.716766357422,44.9958114624023,0.5123291015625,-1.06270360946655,-0.456883996725082,0.648835182189941,-1.06666929835407,-0.458957999791384,0.651611629318345,0
2.19999694824219,-1.20397901535034,2.44782161712646,1.87911856174469,-1.20240821395574,2.44845371736898,1.8778792993441,2156.948,2157.62,2157.47,2159.234,358.793029785156,44.9957237243652,0.481210470199585,-1.06711256504059,-0.458777129650116,0.651564717292786,-1.07097597819164,-0.460811043810786,0.654242512826705,0
2.22000122070313,-1.22540402412415,2.43861055374146,1.89220190048218,-1.22387315175433,2.43921795429519,1.89099189489151,2152.851,2154.813,2157.747,2158.303,358.869567871094,44.9956893920898,0.449799329042435,-1.07125508785248,-0.460558265447617,0.65416944026947,-1.07501419914593,-0.462548577472581,0.656709398992482,0
2.23999786376953,-1.24690663814545,2.42936611175537,1.90533304214478,-1.24540792547886,2.42995214277345,1.90414715211632,2153.061,2153.937,2153.703,2155.291,358.9482421875,44.99560546875,0.418185263872147,-1.07512855529785,-0.462226897478104,0.656558394432068,-1.07877930973132,-0.464168599372462,0.659009446295705,0
2.25999450683594,-1.26848113536835,2.42009043693542,1.9185094833374,-1.26701526177039,2.4206551096063,1.91734673668097,2149.752,2151.139,2153.123,2154.4,359.027191162109,44.9955787658691,0.386372894048691,-1.07872939109802,-0.463779151439667,0.658824324607849,-1.08227143928024,-0.465671165158559,0.661142733743536,0
2.27999877929688,-1.29012227058411,2.41078615188599,1.93172717094421,-1.28869796983554,2.41132564607061,1.93059236468599,2148.802,2149.559,2150.263,2151.965,359.107635498047,44.9955215454102,0.354208290576935,-1.08205533027649,-0.465214371681213,0.660885691642761,-1.08549040888332,-0.467056197851165,0.663109152043028,0
2.29999542236328,-1.31182432174683,2.40145564079285,1.94498252868652,-1.31043401044317,2.40197323503182,1.94387057270897,2149.036,2148.426,2146.096,2149.441,359.188720703125,44.9954376220703,0.322094708681107,-1.08510291576385,-0.466530323028564,0.662769973278046,-1.08843251702753,-0.468322104792631,0.664906439997631,0
2.31999969482422,-1.33358180522919,2.39210104942322,1.95827293395996,-1.33223444283894,2.39259311800549,1.9571881166705,2145.216,2145.523,2146.03,2148.593,359.268524169922,44.9954109191895,0.289908796548843,-1.08787190914154,-0.467725664377213,0.664522767066956,-1.09109887036509,-0.469469362144493,0.666535273643923,0
2.33999633789063,-1.35538911819458,2.38272500038147,1.9715940952301,-1.35407709248145,2.38319483607731,1.97053145048929,2144.561,2144.404,2142.931,2145.699,359.348663330078,44.9953422546387,0.257648795843124,-1.09036445617676,-0.468803495168686,0.66605681180954,-1.09348640563071,-0.470496651869278,0.667993781680938,0
2.36000061035156,-1.37724089622498,2.37332963943481,1.98494338989258,-1.37597305876702,2.37377361348711,1.98390735461333,2140.054,2141.522,2143.572,2144.842,359.428100585938,44.9953460693359,0.225200623273849,-1.09258127212524,-0.469763845205307,0.667462766170502,-1.09559602313537,-0.471404361345641,0.669282514094601,0
2.37999725341797,-1.39913129806519,2.36391735076904,1.99831628799438,-1.39790005743958,2.36433903852774,1.99730221593832,2139.587,2140.496,2140.289,2141.865,359.509094238281,44.9953002929688,0.192606240510941,-1.09452307224274,-0.470608651638031,0.668648064136505,-1.09742530100382,-0.472191448508328,0.67039999139912,0
2.39999389648438,-1.42105507850647,2.35449075698853,2.01171040534973,-1.41986083522252,2.35488992936084,2.01071771239474,2135.908,2137.781,2140.059,2140.913,359.590393066406,44.9952964782715,0.159832403063774,-1.09618699550629,-0.471335023641586,0.66970431804657,-1.09897439291323,-0.472857979480329,0.671346307473475,0
2.41999816894531,-1.44300639629364,2.34505200386047,2.02512145042419,-1.44185817738692,2.34542508756209,2.02415554546122,2134.983,2136.136,2137.207,2138.55,359.673492431641,44.9952735900879,0.126730233430862,-1.097571849823,-0.471942573785782,0.670556008815765,-1.10024313330221,-0.473403883025206,0.672121361178802,0
2.43999481201172,-1.46498000621796,2.33560347557068,2.03854584693909,-1.46386968334064,2.3359541514805,2.03760203096557,2135.596,2135.119,2132.735,2135.882,359.757598876953,44.9952049255371,0.0937364548444748,-1.09867298603058,-0.472428023815155,0.67122346162796,-1.10123006676374,-0.473828532921971,0.672724263429655,0
2.45999908447266,-1.48696982860565,2.32614755630493,2.05198097229004,-1.48590651627916,2.32647231790489,2.05106398832971,2132.171,2132.264,2132.246,2135.109,359.840454101563,44.9951934814453,0.0607461147010326,-1.09948909282684,-0.472789078950882,0.671762406826019,-1.10193556692257,-0.474132089930926,0.673155242467576,0
2.47999572753906,-1.50897026062012,2.31668710708618,2.06542253494263,-1.50794623031618,2.31698924467309,2.06452770571198,2131.909,2131.186,2128.852,2132.168,359.923309326172,44.9951438903809,0.0277965869754553,-1.10002338886261,-0.473028749227524,0.672078728675842,-1.10235882472314,-0.474314205938057,0.673413804053135,0
2.5,-1.53097581863403,2.30722427368164,2.07886791229248,-1.52999999932945,2.30750012397766,2.0780000090599,2127.485,2128.316,2129.414,2131.42,0.00485582649707794,44.9951667785645,-0.00525399902835488,-1.10027658939362,-0.473147243261337,0.672269463539124,-1.10250000050292,-0.474374949932098,0.673500046133994,0
2.51999664306641,-1.55298089981079,2.29776096343994,2.0923125743866,-1.55204535801192,2.29801462201262,2.09146717466799,2126.829,2127.285,2126.448,2128.448,0.0872375071048737,44.9951324462891,359.961639404297,-1.10025215148926,-0.473148226737976,0.672236800193787,-1.10235893238473,-0.47431425226183,0.67341386982192,0
2.54000091552734,-1.57497990131378,2.28830051422119,2.10575413703918,-1.57409348237975,2.28852793005043,2.10493602979009,2122.723,2124.663,2126.68,2127.527,0.169452473521233,44.9951553344727,359.928436279297,-1.09994828701019,-0.473030000925064,0.67207545042038,-1.10193556692257,-0.474132089930926,0.673155242467576,0
2.55999755859375,-1.5969672203064,2.27884459495544,2.11918807029724,-1.59612191359838,2.27904971150017,2.11839285467467,2123.102,2123.606,2122.682,2124.663,0.253410071134567,44.9951210021973,359.895233154297,-1.09936583042145,-0.472793370485306,0.671697676181793,-1.10123038958312,-0.473828671822132,0.672724460634977,0
2.57999420166016,-1.61893725395203,2.26939582824707,2.1326117515564,-1.61813342708139,2.26957877217893,2.13183934477855,2119.941,2121,2121.997,2123.756,0.337184488773346,44.9951438903809,359.861938476563,-1.09850072860718,-0.472434341907501,0.671190023422241,-1.10024356351463,-0.47340406813359,0.672121623988854,0
2.59999847412109,-1.64088439941406,2.25995683670044,2.14602136611938,-1.64013077892511,2.26011392621545,2.14527718375796,2119.138,2119.431,2119.196,2121.396,0.421864151954651,44.9951400756836,359.828491210938,-1.09735417366028,-0.471953868865967,0.670477688312531,-1.09897493039424,-0.472858210743393,0.671346635812239,0
2.6199951171875,-1.66280269622803,2.25052976608276,2.15941309928894,-1.66209156852628,2.2506648119635,2.15869268743396,2119.446,2118.333,2115.226,2118.884,0.50657069683075,44.9950981140137,359.795288085938,-1.09592390060425,-0.471350282430649,0.669586002826691,-1.09742594550583,-0.472191725819537,0.67040038511534,0
2.63999938964844,-1.68468677997589,2.24111723899841,2.17278432846069,-1.68402693989188,2.24122663446822,2.17209266350648,2115.663,2115.667,2115.208,2118.096,0.589421212673187,44.9951171875,359.762176513672,-1.09421062469482,-0.470623046159744,0.668563783168793,-1.09559602313537,-0.471404361345641,0.669282514094601,0
2.65999603271484,-1.70653128623962,2.2317214012146,2.18613076210022,-1.70591456353497,2.23180900148401,2.18546347124042,2115.045,2114.527,2112.385,2115.323,0.672071993350983,44.9950942993164,359.729217529297,-1.09222018718719,-0.469776958227158,0.667325556278229,-1.09348726343002,-0.470497020956359,0.667994305697154,0
2.68000030517578,-1.72833037376404,2.22234535217285,2.19945001602173,-1.72776555581996,2.22240712994983,2.19881190144931,2110.559,2111.856,2113.124,2114.593,0.75355327129364,44.9951477050781,359.696228027344,-1.08995306491852,-0.468811899423599,0.665961384773254,-1.09109887036509,-0.469469362144494,0.666535273643922,0
2.69999694824219,-1.75007855892181,2.21299076080322,2.21273756027222,-1.74955768413056,2.21303058593937,2.21212437257479,2110.346,2110.816,2109.949,2111.762,0.836163640022278,44.9951400756836,359.663269042969,-1.08741343021393,-0.467731386423111,0.664380073547363,-1.08843358680109,-0.468322565086308,0.664907093505606,0
2.72000122070313,-1.77177047729492,2.2036600112915,2.22599101066589,-1.77130202882336,2.20367460188472,2.22540765343382,2106.866,2108.377,2109.694,2110.9,0.918600380420685,44.9951782226563,359.630279541016,-1.08459794521332,-0.466532379388809,0.662672400474548,-1.08549040888332,-0.467056197851165,0.663109152043028,0
2.73999786376953,-1.79340076446533,2.19435572624207,2.23920607566833,-1.79297647980783,2.19434869114016,2.23864823731709,2107.513,2107.482,2105.696,2108.012,1.00228297710419,44.9951553344727,359.597442626953,-1.0815087556839,-0.465216040611267,0.660750925540924,-1.08227271937422,-0.465671715947234,0.661143515732969,0
2.75999450683594,-1.81496357917786,2.18508005142212,2.25238037109375,-1.81458384274179,2.18505164650952,2.2518478381572,2104.576,2104.932,2104.941,2107.34,1.08516669273376,44.9951934814453,359.564666748047,-1.0781421661377,-0.463778585195541,0.658710658550262,-1.07878069424208,-0.464169195088763,0.659010292071722,0
2.77999877929688,-1.83645343780518,2.17583560943604,2.26550960540771,-1.83612684690458,2.17578229366013,2.2650081232283,2103.687,2103.488,2102.502,2105.012,1.16821229457855,44.9952087402344,359.531829833984,-1.07450211048126,-0.462222754955292,0.656467020511627,-1.07501419914593,-0.462548577472581,0.656709398992482,0
2.79999542236328,-1.85786533355713,2.16662454605103,2.2785906791687,-1.85758361379882,2.16655004629821,2.27811572729775,2103.751,2102.464,2099.065,2102.611,1.25073730945587,44.9951858520508,359.499389648438,-1.07058811187744,-0.46054807305336,0.654051721096039,-1.07097756992209,-0.460811728687929,0.654243485189995,0
2.81999969482422,-1.87919306755066,2.15744948387146,2.29162096977234,-1.87896509797278,2.15735019098767,2.29117734232814,2099.825,2099.873,2099.377,2102.053,1.33120083808899,44.9952354431152,359.467132568359,-1.066401720047,-0.45875471830368,0.651515543460846,-1.06666929835407,-0.458957999791384,0.651611629318345,0
2.83999633789063,-1.90043234825134,2.14831256866455,2.3045961856842,-1.90024960698239,2.14819206138118,2.30417971674389,2099.355,2098.889,2096.735,2099.287,1.41146719455719,44.9952392578125,359.435119628906,-1.06195056438446,-0.456848233938217,0.648765683174133,-1.06209435025759,-0.456989527434725,0.648816864916866,0
2.86000061035156,-1.92157685756683,2.13921594619751,2.31751418113708,-1.9214480311499,2.13907097167731,2.31712950327294,2095.227,2096.361,2097.309,2098.766,1.49058210849762,44.9953193664551,359.403167724609,-1.05723392963409,-0.454827666282654,0.645901918411255,-1.05725102347782,-0.454905579228273,0.645858152165725,0
2.87999725341797,-1.94262182712555,2.13016200065613,2.33037066459656,-1.94253888918396,2.12999616467562,2.3300135793296,2095.307,2095.578,2094.176,2095.881,1.57061314582825,44.9953269958496,359.371398925781,-1.05225765705109,-0.452696859836578,0.642823696136475,-1.05214490868305,-0.452708560680416,0.642738906316949,0
2.89999389648438,-1.96356225013733,2.12115287780762,2.34316325187683,-1.96352501326936,2.1209664217661,2.34283367505136,2092.247,2093.239,2093.725,2095.287,1.6501476764679,44.9953765869141,359.339752197266,-1.04701769351959,-0.450452238321304,0.639635145664215,-1.04677621342161,-0.450398561093403,0.639459254158576,0
2.91999816894531,-1.98439276218414,2.11219072341919,2.35588836669922,-1.98440911693069,2.11198057539494,2.35559144808806,2091.638,2091.855,2091.244,2093.144,1.73033499717712,44.9954032897949,359.308166503906,-1.04151821136475,-0.448095828294754,0.636253714561462,-1.04114485287423,-0.447975543971863,0.636019143875825,0
2.93999481201172,-2.00510787963867,2.10327839851379,2.36854243278503,-2.00517008215741,2.10304771205211,2.36827399777659,2092.268,2090.947,2087.528,2090.817,1.81034874916077,44.9953765869141,359.277008056641,-1.0357574224472,-0.445625871419907,0.632706463336945,-1.03525734386973,-0.445442313325187,0.632422556497743,0
2.95999908447266,-2.02570271492004,2.09441757202148,2.38112330436707,-2.02581860575671,2.0941632292003,2.38088785862954,2089.306,2088.564,2087.12,2090.317,1.88827860355377,44.9954414367676,359.246124267578,-1.02973556518555,-0.443041145801544,0.629046142101288,-1.02911152474823,-0.442797939051516,0.628668171500036,0
2.97999572753906,-2.04617190361023,2.08561038970947,2.39362692832947,-2.04633384260397,2.08533609591429,2.39342029668558,2089.019,2087.627,2084.583,2087.739,1.96524715423584,44.9954528808594,359.215576171875,-1.02346134185791,-0.44034743309021,0.625184178352356,-1.02271452148052,-0.440045487257004,0.624760342027062,0
3,-2.06651043891907,2.07685995101929,2.40605115890503,-2.06672639957428,2.07656174835205,2.40587779151916,2085.049,2085.443,2085.248,2087.154,2.0402660369873,44.9955368041992,359.185241699219,-1.01693534851074,-0.437545001506805,0.621212065219879,-1.01606400046349,-0.437183953857422,0.620697642517089,0
3.01999664306641,-2.08671379089355,2.06816697120667,2.41839218139648,-2.08697572864857,2.06784902775215,2.41824779066609,2084.771,2084.496,2082.756,2084.714,2.11537384986877,44.9955673217773,359.155212402344,-1.01016581058502,-0.434639394283295,0.617047190666199,-1.00916768936771,-0.434216663853534,0.616484793683489,0
3.04000091552734,-2.10677671432495,2.05953431129456,2.43064761161804,-2.10709234004513,2.05919341186127,2.43053671465473,2081.324,2082.493,2082.951,2084.052,2.18959784507751,44.9956398010254,359.125366210938,-1.00315082073212,-0.431628555059433,0.612770795822144,-1.00202309041976,-0.43114254252322,0.612120269675456,0
3.05999755859375,-2.12669467926025,2.05096411705017,2.44281363487244,-2.12705600675913,2.05060360379452,2.44273220712343,2081.955,2081.694,2079.645,2081.556,2.26453900337219,44.9956398010254,359.095947265625,-0.99589616060257,-0.428515613079071,0.608305215835571,-0.994638524886308,-0.427965170275055,0.607609153824944,0
3.07999420166016,-2.1464626789093,2.04245829582214,2.45488834381104,-2.14686960564145,2.04207836572333,2.45483602549553,2079.516,2079.573,2078.948,2081.09,2.33846354484558,44.9956970214844,359.066741943359,-0.988398015499115,-0.425296604633331,0.603737652301788,-0.987014293508169,-0.424684676509408,0.602951629849824,0
3.09999847412109,-2.16607618331909,2.03401851654053,2.46686816215515,-2.16653584520328,2.033616532251,2.46684982435823,2079.082,2078.367,2076.722,2079.102,2.41213822364807,44.9957389831543,359.037780761719,-0.980662763118744,-0.421974807977676,0.598991870880127,-0.979150439632689,-0.421301079877433,0.598147724230312,0
3.1199951171875,-2.1855297088623,2.02564764022827,2.47874999046326,-2.18603502400946,2.02522658035469,2.47876156841225,2079.362,2077.572,2073.771,2077.021,2.48477458953857,44.9957313537598,359.009368896484,-0.972690641880035,-0.418549925088882,0.594097375869751,-0.971056158224178,-0.417818336715394,0.593203054026623,0
3.13999938964844,-2.20481944084167,2.01734709739685,2.49053192138672,-2.20537738341953,2.01690410346351,2.49057751394429,2076.391,2075.508,2073.748,2076.615,2.55495381355286,44.9958000183105,358.981353759766,-0.964483797550201,-0.415022373199463,0.589101731777191,-0.962728579444533,-0.414235212212131,0.588115866099442,0
3.15999603271484,-2.22394061088562,2.00911903381348,2.50221037864685,-2.22454360124808,2.00865741537402,2.50228585733282,2075.885,2074.646,2071.831,2074.379,2.62396883964539,44.9958419799805,358.953826904297,-0.956052660942078,-0.411398589611053,0.583926260471344,-0.95417746870157,-0.410555908149813,0.582892125984019,0
3.18000030517578,-2.24288845062256,2.0009651184082,2.51378345489502,-2.24354380138856,2.00048216005771,2.51389278310636,2072.351,2072.701,2072.457,2073.972,2.69120216369629,44.9959411621094,358.926605224609,-0.947397768497467,-0.407678782939911,0.578653752803802,-0.94539982440085,-0.406779133026206,0.577530000053146,0
3.19999694824219,-2.26165866851807,1.9928879737854,2.52524757385254,-2.2623590635174,1.99238647840124,2.5253867331345,2072.31,2072.082,2070.171,2071.604,2.75848269462585,44.9959754943848,358.899810791016,-0.938528060913086,-0.403868138790131,0.573202967643738,-0.936405971974636,-0.402909329586355,0.572035795952272,0
3.21999359130859,-2.28024768829346,1.98488867282867,2.53660082817078,-2.28099231507127,1.9843691108104,2.5367694957426,2069.848,2070.197,2069.81,2071.279,2.82482481002808,44.9960556030273,358.873382568359,-0.929440498352051,-0.399963825941086,0.567664623260498,-0.927196343299057,-0.398946683654493,0.566409777507781,0
3.23999786376953,-2.29865026473999,1.97696900367737,2.5478401184082,-2.29944628156995,1.97642888457015,2.54804273590817,2069.426,2069.134,2067.898,2069.526,2.89115214347839,44.9961090087891,358.847259521484,-0.920141875743866,-0.395968824625015,0.561965107917786,-0.917771149318993,-0.394891285994308,0.560652073582612,0
3.25999450683594,-2.31686305999756,1.96913146972656,2.55896258354187,-2.31770268688992,1.96857366338589,2.55919528903255,2070.281,2068.562,2064.766,2067.532,2.95680570602417,44.9960975646973,358.82177734375,-0.910632073879242,-0.39188215136528,0.556128859519958,-0.90814153446928,-0.390747931744771,0.554769492138098,0
3.27999877929688,-2.334881067276,1.96137738227844,2.5699667930603,-2.33577134012187,1.96079922667992,2.57023314733618,2067.976,2066.601,2064.426,2067.411,3.02003574371338,44.9961738586426,358.796813964844,-0.900911688804626,-0.38770267367363,0.550211369991302,-0.898304216251578,-0.386515208538549,0.548760027947228,0
3.29999542236328,-2.35270118713379,1.95370864868164,2.58084917068481,-2.35363442159312,1.95311324175956,2.58114542505908,2068.048,2065.985,2062.368,2065.214,3.08170366287231,44.9962196350098,358.772430419922,-0.890992343425751,-0.383436977863312,0.544124722480774,-0.888270870184445,-0.382198140025101,0.542630813402095,0
3.31999969482422,-2.37031841278076,1.94612693786621,2.59160828590393,-2.37130160722417,1.94551154534655,2.59193803307009,2064.803,2064.214,2063.059,2065.05,3.14087438583374,44.9963226318359,358.748474121094,-0.880874454975128,-0.379085451364517,0.537961840629578,-0.878038122530657,-0.377795274579551,0.536379787539275,0
3.33999633789063,-2.38773012161255,1.93863368034363,2.60224103927612,-2.38875555478454,1.93800159931817,2.60260037727124,2064.618,2063.745,2061.321,2062.887,3.19927668571472,44.9963722229004,358.725036621094,-0.87056964635849,-0.37465500831604,0.53163731098175,-0.867618167158097,-0.373311858882592,0.530014399402376,0
3.36000061035156,-2.40493154525757,1.93123078346252,2.61274576187134,-2.406005803634,1.93057929915441,2.61313828510855,2061.845,2062.146,2061.614,2062.709,3.2562301158905,44.9964637756348,358.702056884766,-0.860076427459717,-0.370144158601761,0.525241255760193,-0.857007552155826,-0.36874640767338,0.523532540272868,0
3.37999725341797,-2.42191934585571,1.92392003536224,2.62311959266663,-2.42303550945299,1.9232518924954,2.62354146665005,2062.546,2061.671,2059.12,2060.664,3.31308317184448,44.9964904785156,358.679718017578,-0.849403858184814,-0.365557253360748,0.518692016601563,-0.846218976345105,-0.364104384899943,0.516941967662506,0
3.39999389648438,-2.43869066238403,1.91670203208923,2.63336110115051,-2.43984769972619,1.91601807669906,2.63381177133889,2060.851,2060.143,2058.534,2060.448,3.36843013763428,44.9965591430664,358.657897949219,-0.838549196720123,-0.360891163349152,0.512073159217834,-0.835253140422974,-0.35938609205264,0.510243109616171,0
3.41999816894531,-2.45524072647095,1.90957915782928,2.64346742630005,-2.45644516534361,1.90887665092339,2.64395090408624,2060.537,2059.31,2057.032,2058.998,3.42275714874268,44.9966125488281,358.636566162109,-0.827521026134491,-0.356149792671204,0.505321025848389,-0.824110582941664,-0.354591760855451,0.503436295127018,0
3.43999481201172,-2.47156715393066,1.90255260467529,2.6534366607666,-2.4728118459714,1.90183452548138,2.65394905388473,2061.217,2058.799,2054.631,2057.428,3.4755425453186,44.9966278076172,358.616027832031,-0.816321611404419,-0.351333975791931,0.49845963716507,-0.812804733542555,-0.349727169707881,0.496529728153404,0
3.45999908447266,-2.48766613006592,1.89562368392944,2.6632673740387,-2.48895692832918,1.89488774758421,2.66381183275806,2058.855,2057.295,2054.876,2057.366,3.52542901039124,44.9967155456543,358.596099853516,-0.804954051971436,-0.34644427895546,0.491533249616623,-0.801332006385299,-0.344790775723006,0.489521218161412,0
3.47999572753906,-2.50353479385376,1.88879370689392,2.67295670509338,-2.50486489870395,1.88804299234919,2.67352976362102,2058.675,2056.818,2053.56,2055.642,3.57356667518616,44.9967842102051,358.576873779297,-0.793430864810944,-0.341488003730774,0.484472334384918,-0.789706299681989,-0.339788558913217,0.482419255351936,0
3.5,-2.51916980743408,1.88206446170807,2.68250370025635,-2.5205447997813,1.88129636896134,2.68310837050915,2056.017,2055.531,2054.225,2055.51,3.61945343017578,44.9968910217285,358.558227539063,-0.781753420829773,-0.336465656757355,0.477351576089859,-0.777924000354857,-0.334718964672089,0.475221632552147,0
3.51999664306641,-2.53456854820251,1.87543678283691,2.69190573692322,-2.53598168290031,1.87465430941181,2.69253852151874,2056.2,2055.105,2052.646,2053.912,3.66455149650574,44.9969482421875,358.540252685547,-0.769932389259338,-0.331382900476456,0.470107644796371,-0.765999459475408,-0.329588167864767,0.467937116607681,0
3.54000091552734,-2.54972791671753,1.86891198158264,2.70116186141968,-2.55118444594166,1.86811298519115,2.70182565222626,2054.412,2053.959,2052.594,2053.747,3.70808887481689,44.9970359802246,358.522857666016,-0.757967174053192,-0.326238334178925,0.462807029485703,-0.753929052770513,-0.324394609067776,0.460563493506644,0
3.55999755859375,-2.56464552879333,1.86249113082886,2.71026968955994,-2.56613872308604,1.86167857751006,2.71096098677687,2055.285,2053.643,2050.475,2052.168,3.75082540512085,44.9970779418945,358.506225585938,-0.745866596698761,-0.321035861968994,0.455390781164169,-0.741727567798258,-0.319144650954242,0.45310979673751,0
3.57999420166016,-2.57931804656982,1.85617566108704,2.71922826766968,-2.58084770246059,1.8553497146065,2.71994647274769,2053.939,2052.524,2050.153,2052.081,3.79144787788391,44.9971542358398,358.490264892578,-0.733630180358887,-0.315773814916611,0.447926074266434,-0.729396114728537,-0.313838771199258,0.445576704485749,0
3.59999847412109,-2.59374308586121,1.84996652603149,2.72803544998169,-2.59531431270705,1.84912513636775,2.72878389920025,2053.923,2051.969,2048.967,2050.941,3.83040261268616,44.9972305297852,358.474975585938,-0.721267819404602,-0.310456991195679,0.440360873937607,-0.716935713767317,-0.308477408768949,0.437964839979262,0
3.6199951171875,-2.60791873931885,1.84386491775513,2.7366898059845,-2.60952509409627,1.84301063413925,2.73746504379605,2054.232,2051.641,2047.477,2049.838,3.86717581748962,44.9972724914551,358.460601806641,-0.708783507347107,-0.305087059736252,0.432720065116882,-0.704361775018033,-0.303067194200314,0.43028361700977,0
3.63999938964844,-2.62184238433838,1.83787155151367,2.74519062042236,-2.6234885835008,1.83700253474321,2.74599512157732,2052.259,2050.532,2047.977,2049.937,3.9009792804718,44.9973754882813,358.446960449219,-0.696182310581207,-0.29966613650322,0.425037443637848,-0.691670720740692,-0.297606588091786,0.422530849991739,0
3.65999603271484,-2.63551211357117,1.83198738098145,2.75353574752808,-2.63719194552437,1.83110636089208,2.75436629160077,2052.14,2050.303,2047.163,2048.642,3.93289852142334,44.9974594116211,358.434112548828,-0.683476746082306,-0.294201016426086,0.417256951332092,-0.678878353700696,-0.292102389931838,0.414716192587956,0
3.68000030517578,-2.64892554283142,1.82621347904205,2.7617244720459,-2.65064357486757,1.82531850058072,2.762583682058,2050.256,2049.43,2047.716,2048.673,3.96262860298157,44.9975662231445,358.421966552734,-0.67066878080368,-0.288692504167557,0.409442156553268,-0.665981146317811,-0.286553081901244,0.406837489854705,0
3.69999694824219,-2.66208100318909,1.82055056095123,2.76975536346436,-2.66383127580226,1.81964420129024,2.77063984276899,2050.76,2049.29,2046.418,2047.468,3.99124193191528,44.9976387023926,358.41064453125,-0.657768845558167,-0.283145517110825,0.401541203260422,-0.65299527533123,-0.280965624398954,0.398904623909523,0
