t,x_s1,x_s2,x_s3,x_s_d1,x_s_d2,x_s_d3,propellers_rpms1,propellers_rpms2,propellers_rpms3,propellers_rpms4,rollRad,pitchRad,yawRad,v_s1,v_s2,v_s3,v_s_d1,v_s_d2,v_s_d3,insideCount
0,-0.0599999986588955,2.94000005722046,1.17999994754791,-0.0599999986588955,2.94000005722046,1.17999994754791,0,0,0,0,0,0,0,0,0,0,-1.06581410364015E-15,4.44089209850063E-16,4.44089209850063E-16,0
0.0199966430664063,-0.0599999986588955,2.94000005722046,1.17811644077301,-0.0600018680476204,2.93999925287472,1.18000110478858,0,0,0,0,-0.01635288,0.0001297794,-0.01587137,-1.10653664009419E-09,-7.76775763711157E-08,-0.0941759571433067,-0.000279892991557604,-0.000120430134961378,0.000173267094926113,9
0.0399932861328125,-0.0599999986588955,2.94000005722046,1.17242503166199,-0.060014863945674,2.93999366110285,1.18000914986856,0,0,0,0,-0.03270202,0.0005238493,-0.03175127,-1.08383135799528E-09,-7.60859677484405E-08,-0.284568399190903,-0.00111059898697896,-0.000477859717552347,0.000687513678106196,9
0.05999755859375,-0.0599058829247952,2.93990302085876,1.16596508026123,-0.0600498857373401,2.93997859220429,1.18003083002592,1868.129,3252.793,3183.9,1722.423,-0.04942188,0.0003294851,-0.01369504,0.00470570009201765,-0.00484923273324966,-0.322996109724045,-0.00247936261166862,-0.00106680046642749,0.00153484356504269,9
0.0799942016601563,-0.059820368885994,2.93960738182068,1.16000306606293,-0.0601175240668593,2.93994948932069,1.18007270137395,1925.584,2314.381,3252.026,2829.42,-0.07543244,-0.002136388,0.02094779,0.0042757336050272,-0.0147783774882555,-0.298099756240845,-0.00437186567523228,-0.00188109166426407,0.00270639311381153,9
0.0999984741210938,-0.0599374435842037,2.93904495239258,1.15498661994934,-0.0602281887669101,2.93990187339187,1.18014120809498,980.0878,1498.814,3915.075,3896.616,-0.1031959,-0.008062987,0.06330834,-0.00585381593555212,-0.0281168036162853,-0.250825017690659,-0.00677637982016689,-0.00291568692648091,0.00419490191241918,8
0.1199951171875,-0.0604638420045376,2.93818354606628,1.15081322193146,-0.0603918861403606,2.93983143898525,1.18024254456713,346.4523,980.4235,4172.787,4613.35,-0.1214332,-0.01542077,0.1040022,-0.0263198912143707,-0.0430685058236122,-0.208670496940613,-0.00967801353495435,-0.00416417885169243,0.00599115140585487,8
0.139999389648438,-0.0615636147558689,2.93704128265381,1.14728283882141,-0.0606185767455666,2.93973390035084,1.18038287685052,352.8081,747.0112,3975.515,4854.981,-0.1254019,-0.02116734,0.1351068,-0.0549887046217918,-0.0571142621338367,-0.176517397165298,-0.0130660253322238,-0.00562194567796536,0.00808849210174802,7
0.159996032714844,-0.0633408576250076,2.93568086624146,1.14427483081818,-0.0609176604100223,2.93960521300545,1.18056802388615,821.0225,815.019,3462.569,4692.408,-0.1184595,-0.02352423,0.1522705,-0.0888622030615807,-0.0680150091648102,-0.150398284196854,-0.0169249902365933,-0.00728235046931681,0.0104773752055438,7
0.17999267578125,-0.0658469125628471,2.9341721534729,1.14182531833649,-0.0612985250199726,2.93944133760391,1.18080379722281,1348.655,1083.303,3006.866,4255.221,-0.1079805,-0.02278015,0.1557788,-0.125302821397781,-0.0754310935735703,-0.122478455305099,-0.0212433804254414,-0.00914043312572283,0.0131506644458931,7
0.199996948242188,-0.069084994494915,2.93255376815796,1.14006149768829,-0.0617704296168641,2.93923829023936,1.18109592864822,1636.378,1381.117,2918.526,3666.372,-0.0998254,-0.02030128,0.150157,-0.161904096603394,-0.0809157118201256,-0.0881893336772919,-0.0260104776919234,-0.0111915819022102,0.0161017247421801,7
0.219993591308594,-0.0730103179812431,2.93082594871521,1.13903546333313,-0.0623418263269037,2.93899243419801,1.18144965043113,1641.594,1580.829,3147.879,3113.115,-0.09583758,-0.01735475,0.1421882,-0.196266397833824,-0.0863857865333557,-0.0513005740940571,-0.0312101301935526,-0.0134288471121871,0.0193205573344865,7
0.239997863769531,-0.0775500610470772,2.92897343635559,1.13863301277161,-0.0630217183703222,2.93869989564571,1.18187053599376,1524.062,1624.17,3417.919,2777.426,-0.09475527,-0.01467775,0.1377322,-0.226987197995186,-0.0926242023706436,-0.0201213005930185,-0.0368338920540454,-0.0158485947310391,0.02280193382306,7
0.259994506835938,-0.0826389640569687,2.92699217796326,1.1386353969574,-0.0638179029240226,2.93835731967507,1.18236341216003,1439.012,1500.921,3533.162,2744.177,-0.09438989,-0.01258823,0.1393004,-0.254444777965546,-0.0990572944283485,0.00011756457388401,-0.0428651747123285,-0.0184436871643672,0.0265355850983733,7
0.279998779296875,-0.088244840502739,2.9249005317688,1.1388521194458,-0.0647390625194898,2.93796097043536,1.18293365383054,1400.419,1275.911,3476.877,2977.597,-0.09321064,-0.01110538,0.1456829,-0.280294150114059,-0.104584284126759,0.0108351297676563,-0.0492963837173861,-0.0212108567320638,0.030516809833474,7
0.299995422363281,-0.0943705886602402,2.92273235321045,1.1392068862915,-0.0657923226682404,2.93750778201804,1.18358567203635,1350.708,1061.65,3344.943,3324.817,-0.09053309,-0.009934656,0.1533098,-0.306287407875061,-0.108406707644463,0.0177392680197954,-0.0561105313314725,-0.0241427940851591,0.0347350918094591,7
0.319999694824219,-0.101035892963409,2.92052555084229,1.13972496986389,-0.0669860785243584,2.93699414222283,1.18432466377777,1280.882,941.0651,3237.673,3590.503,-0.08597802,-0.008523713,0.1583601,-0.333265066146851,-0.110342346131802,0.0259051695466042,-0.0633008373176985,-0.0272365818771378,0.0391862337367069,7
0.339996337890625,-0.108251452445984,2.91831207275391,1.14046144485474,-0.068326768706371,2.93641728069206,1.18515461486636,1253.188,944.2266,3170.841,3649.904,-0.07944689,-0.006291984,0.1584774,-0.360778003931046,-0.110679559409618,0.0368259958922863,-0.0708499516420146,-0.0304847548730522,0.0438594951176439,7
0.359992980957031,-0.11600299179554,2.91611480712891,1.14145255088806,-0.0698219320097035,2.93577395369266,1.18608019217563,1319.578,1047.1,3120.901,3498.158,-0.07154902,-0.002963033,0.1534743,-0.387577414512634,-0.109858252108097,0.0495546460151672,-0.0787487928009798,-0.0338834055556794,0.0487492540690281,8
0.379997253417969,-0.124251365661621,2.91394972801208,1.14270758628845,-0.0714791088463715,2.935060916796,1.18710606357981,1455.112,1181.514,3091.034,3231.424,-0.06361173,0.001258637,0.14504,-0.412418365478516,-0.10825702548027,0.0627495646476746,-0.0869889214763108,-0.0374289027221294,0.0538502862508218,8
0.399993896484375,-0.132943123579025,2.91182637214661,1.14421701431274,-0.0733036822025899,2.9342758538535,1.18823556140379,1579.927,1273.849,3104.245,2981.705,-0.05701508,0.005827018,0.1357471,-0.434588581323624,-0.106164641678333,0.0754699409008026,-0.0955525119207663,-0.0411135764513579,0.0591515566763244,8
0.419998168945313,-0.142023503780365,2.90975046157837,1.14595758914948,-0.0753034649285836,2.93341540321397,1.18947352217404,1631.349,1288.589,3159.115,2844.642,-0.05243764,0.01017646,0.1278552,-0.454018443822861,-0.103800587356091,0.0870289951562881,-0.104434660908044,-0.0449353170220673,0.0646500300148815,8
0.439994812011719,-0.151445895433426,2.90772461891174,1.14789533615112,-0.0774831213880516,2.93247755793201,1.19082283335389,1606.875,1238.131,3219.263,2843.081,-0.04965837,0.01397578,0.1224596,-0.471119910478592,-0.101288713514805,0.0968900099396706,-0.11361726969793,-0.0488863370519643,0.070334502284139,8
0.459999084472656,-0.161176577210426,2.90575194358826,1.14999687671661,-0.0798502821969742,2.93145903476675,1.19228821865812,1541.277,1158.173,3253.162,2938.126,-0.04788737,0.01718627,0.119339,-0.486535221338272,-0.098637767136097,0.105074509978294,-0.123096124252221,-0.0529648233581361,0.0762023647937057,8
0.479995727539063,-0.171193391084671,2.90383648872375,1.15223896503448,-0.0824088828700873,2.93035814037613,1.19387211435783,1474.412,1086.24,3248.039,3067.017,-0.04628893,0.0199878,0.1173762,-0.500839948654175,-0.095777153968811,0.112101703882217,-0.132852887402757,-0.0571628859694044,0.0822422659629699,8
0.5,-0.181480795145035,2.90198373794556,1.15461564064026,-0.085166398670376,2.92917165836334,1.1955791479969,1431.778,1046.273,3216.606,3169.459,-0.04433471,0.02264444,0.1152227,-0.514370858669281,-0.0926387533545494,0.118836253881454,-0.142884000065179,-0.0614789935111996,0.0884520025491718,8
0.519996643066406,-0.192023947834969,2.90019917488098,1.15713453292847,-0.0881260274065667,2.92789821280061,1.19741129917127,1423.675,1045.069,3177.186,3210.517,-0.04192135,0.02537925,0.1118866,-0.527157783508301,-0.0892270058393478,0.125943243503571,-0.153170920546857,-0.0659051680111775,0.0948200963613094,9
0.539993286132813,-0.202804207801819,2.89848637580872,1.15980982780457,-0.091293865515634,2.92653518056143,1.19937234186584,1445.552,1073.327,3149.07,3184.47,-0.03929494,0.02828904,0.107051,-0.539013147354126,-0.0856387168169022,0.1337631046772,-0.163706645289342,-0.0704383960337938,0.101342211863077,9
0.55999755859375,-0.213797479867935,2.89684581756592,1.16265285015106,-0.094676112580471,2.92507989413848,1.20146611391775,1483.63,1113.709,3138.934,3114.584,-0.03688531,0.03132727,0.101062,-0.549663662910461,-0.0820319503545761,0.142152801156044,-0.17448465888317,-0.0750758741803766,0.108014315705644,9
0.579994201660156,-0.224975734949112,2.89527440071106,1.1656676530838,-0.0982748462459366,2.92353145957921,1.20369390148813,1521.7,1148.948,3145.144,3034.782,-0.0351239,0.03434622,0.09465502,-0.558912396430969,-0.0785758122801781,0.15074148774147,-0.185486174984119,-0.0798095192118365,0.114824778247021,9
0.599998474121094,-0.236310392618179,2.89376616477966,1.16885125637054,-0.102097262171133,2.92188678079254,1.20606015903275,1540.727,1167.051,3163.467,2978.909,-0.03428873,0.03716185,0.08861516,-0.566733002662659,-0.0754173621535301,0.159177869558334,-0.196709126405959,-0.0846384416756885,0.121772319800455,9
0.6199951171875,-0.24777564406395,2.89231300354004,1.17219424247742,-0.106144683970236,2.92014528826426,1.20856570593183,1534.767,1167.339,3181.952,2964.276,-0.03442136,0.03963273,0.08345545,-0.573264360427856,-0.0726633965969086,0.167149946093559,-0.208134604141382,-0.0895545055543457,0.128845234789665,9
0.639999389648438,-0.259350895881653,2.89090538024902,1.17568695545197,-0.110424235525481,2.91830391678686,1.21121495220784,1506.424,1156.373,3195.311,2986.78,-0.03534814,0.04169875,0.07929365,-0.578761696815491,-0.0703789219260216,0.174634590744972,-0.219761081350814,-0.0945570538913933,0.136042578028218,9
0.659996032714844,-0.271020621061325,2.88953351974487,1.17932033538818,-0.114936482147704,2.9163624231229,1.21400824781511,1466.877,1144.369,3197.427,3031.312,-0.03678305,0.04338586,0.0759031,-0.58348685503006,-0.0685955509543419,0.181670919060707,-0.231569557951997,-0.0996379114822372,0.143352587560098,9
0.67999267578125,-0.282773554325104,2.88818693161011,1.18308961391449,-0.119686638739014,2.91431856344567,1.21694882102647,1429.446,1139.642,3190.826,3074.783,-0.03844593,0.04477717,0.07288254,-0.587647378444672,-0.06732527166605,0.18846383690834,-0.243554411173546,-0.104794659005432,0.150771782621969,9
0.699996948242188,-0.294600516557693,2.88685536384583,1.1869922876358,-0.124680083855354,2.91217002351282,1.22004000142426,1403.69,1146.079,3177.562,3102.606,-0.04016686,0.04596674,0.06986065,-0.591347873210907,-0.0665754303336143,0.195135816931725,-0.255710395848158,-0.11002503961202,0.158296916205407,9
0.719993591308594,-0.306492745876312,2.88552808761597,1.19102823734283,-0.129916240141956,2.90991705174396,1.22328143159838,1394.516,1162.972,3162.687,3106.533,-0.04192774,0.04702178,0.06662892,-0.594611346721649,-0.0663596391677856,0.201798185706139,-0.268018433064612,-0.115320844179508,0.165916177555513,9
0.739997863769531,-0.318441152572632,2.88419389724731,1.19519901275635,-0.135402141159277,2.90755662179454,1.22667746565781,1392.392,1185.118,3153.806,3093.768,-0.04382977,0.04795288,0.0632182,-0.597419917583466,-0.0667083263397217,0.208541691303253,-0.280478211503383,-0.120681938755799,0.173629373950669,9
0.759994506835938,-0.330436229705811,2.88284063339233,1.19950413703918,-0.14113644597991,2.90508931062815,1.2302272735046,1392.138,1207.6,3149.501,3075.07,-0.04600398,0.04873403,0.0598109,-0.599753737449646,-0.0676601454615593,0.215254306793213,-0.293070637251543,-0.126100107763583,0.181424685349205,9
0.779998779296875,-0.342469066381454,2.88145542144775,1.20394206047058,-0.147126184485884,2.90251209348295,1.23393520697061,1387.184,1226.537,3151.362,3058.828,-0.04854304,0.04931805,0.05664887,-0.601640164852142,-0.0692548081278801,0.221897825598717,-0.305795832832518,-0.131575403921268,0.189302187598958,9
0.799995422363281,-0.35453200340271,2.88002514839172,1.20850837230682,-0.153369252164744,2.89982587587186,1.23779996326238,1374.073,1240.656,3153.791,3054.597,-0.05147624,0.04966067,0.05393364,-0.603147268295288,-0.0715194940567017,0.228314757347107,-0.318634718604462,-0.13709961779199,0.197250069492735,9
0.819999694824219,-0.366619765758514,2.87853574752808,1.21319842338562,-0.159872691993147,2.89702762739878,1.24182590231796,1352.886,1250.853,3156.614,3061.534,-0.05474713,0.04973958,0.05175829,-0.604389607906342,-0.0744686797261238,0.234504774212837,-0.331587821991737,-0.142672976311719,0.205268657531342,9
0.839996337890625,-0.378729522228241,2.87697386741638,1.21800649166107,-0.166633637018892,2.89411858163313,1.24601124935738,1326.947,1259.582,3155.272,3078.347,-0.05825558,0.04956007,0.05010208,-0.605486690998077,-0.0780977755784988,0.240401327610016,-0.344636106234817,-0.148287288494656,0.213346167053785,8
0.859992980957031,-0.390860557556152,2.87532591819763,1.22292840480804,-0.173656429312624,2.89109687030325,1.25035869232919,1300.192,1269.076,3152.152,3097.07,-0.06187801,0.04915087,0.04886434,-0.606553316116333,-0.082392506301403,0.246093615889549,-0.357775446040398,-0.153940779342338,0.221480044306994,8
0.879997253417969,-0.403013944625854,2.87357950210571,1.2279599905014,-0.180945630646592,2.88796053060595,1.25487105518773,1276.187,1280.812,3145.854,3114.323,-0.06551483,0.04855253,0.04792471,-0.607668161392212,-0.0873266309499741,0.251580744981766,-0.371001963495383,-0.159631780297098,0.229667888678032,8
0.899993896484375,-0.41519159078598,2.87172222137451,1.23309814929962,-0.18849723509595,2.8847112861788,1.25954585807468,1260.669,1295.236,3137.733,3123.289,-0.0691101,0.04780703,0.0471784,-0.608882427215576,-0.0928694382309914,0.256909966468811,-0.384296738353309,-0.165352150505452,0.237897987633041,8
0.919998168945313,-0.4273961186409,2.86974239349365,1.23834180831909,-0.196318384305134,2.8813460641717,1.26438752200817,1246.838,1311.003,3132.662,3127.413,-0.07266275,0.04693456,0.0466071,-0.610226035118103,-0.098995216190815,0.262185841798782,-0.397661187980262,-0.171102499820431,0.246171218589148,8
0.939994812011719,-0.439630389213562,2.86762881278992,1.24368858337402,-0.204404317663683,2.87786691294234,1.26939309994354,1236.253,1326.655,3127.907,3128.957,-0.07618239,0.04594911,0.04623048,-0.611713767051697,-0.105673164129257,0.267337888479233,-0.4110765036434,-0.176874735369747,0.254475938044738,8
0.959999084472656,-0.451897859573364,2.8653712272644,1.24913716316223,-0.212762239776093,2.87427073255068,1.27456705187416,1226.874,1340.983,3126.585,3128.204,-0.07967645,0.04485305,0.04609973,-0.613373577594757,-0.112877257168293,0.272428274154663,-0.424544411524882,-0.18266959988136,0.262813214588797,8
0.979995727539063,-0.464202523231506,2.86295986175537,1.25468456745148,-0.22138664033507,2.87055989392801,1.27990596665734,1216.8,1353.387,3124.766,3131.172,-0.08315401,0.04364472,0.04627135,-0.615233242511749,-0.120571076869965,0.277373135089874,-0.438046240701377,-0.188479059778567,0.271171490030365,8
0.999992370605469,-0.476549357175827,2.86038541793823,1.26032936573029,-0.230281353443786,2.86673274736685,1.28541221778558,1205.078,1363.608,3125.205,3136.414,-0.08659481,0.0423261,0.04677475,-0.617341816425323,-0.128722444176674,0.282241523265839,-0.451578832238886,-0.194301755860316,0.279548808838816,8
1.01999664306641,-0.488944202661514,2.85763955116272,1.26606905460358,-0.239450461003889,2.86278753653895,1.29108833215045,1191.2,1372.215,3124.686,3146.731,-0.08996211,0.0409063,0.04760894,-0.619742929935455,-0.137288227677345,0.286985337734222,-0.465139182559269,-0.200136395770846,0.2879433116562,8
1.03999328613281,-0.501393795013428,2.85471510887146,1.27190148830414,-0.248887339851819,2.85872711120656,1.2969302096982,1181.331,1380.128,3122.66,3155.974,-0.09320744,0.03940833,0.04872276,-0.622482240200043,-0.146221876144409,0.291619181632996,-0.478708875293167,-0.205975055460915,0.29634359787259,8
1.05999755859375,-0.513905763626099,2.85160541534424,1.2778263092041,-0.258599401509697,2.85454828239877,1.30294243851408,1169.662,1387.609,3122.385,3166.545,-0.09630097,0.03785005,0.05008117,-0.62559711933136,-0.155480816960335,0.296239882707596,-0.492290296490434,-0.211818761581115,0.30475114456651,8
1.07999420166016,-0.526487827301025,2.84830522537231,1.28384208679199,-0.268579290074434,2.85025421515517,1.30912046494367,1161.48,1394.846,3120.444,3176.187,-0.09920648,0.03625789,0.05162878,-0.629104733467102,-0.165012121200562,0.30079111456871,-0.50586523043438,-0.217659676417445,0.313154675341593,8
1.09999847412109,-0.539148211479187,2.84480977058411,1.28994941711426,-0.278834517009062,2.84584167750307,1.31546893894041,1156.513,1401.779,3120.406,3182.096,-0.1019027,0.03465422,0.05332641,-0.633021891117096,-0.174771189689636,0.305368930101395,-0.519436284009554,-0.223498921639497,0.321555803983559,7
1.1199951171875,-0.551895141601563,2.84111571311951,1.29614794254303,-0.289357002179081,2.84131414609862,1.32198285851614,1154.475,1408.316,3119.285,3187.435,-0.1043938,0.03305564,0.05515597,-0.637346088886261,-0.184704557061195,0.309927403926849,-0.532985466132485,-0.229328756186667,0.329943393154705,7
1.13999938964844,-0.564736843109131,2.83722019195557,1.30243909358978,-0.300154365346813,2.83666834237095,1.3286669406667,1153.277,1413.667,3121.025,3191.254,-0.1066873,0.03147198,0.05711363,-0.642084121704102,-0.19477105140686,0.314560025930405,-0.546515580872639,-0.235150386571708,0.338319178707607,7
1.15999603271484,-0.577681481838226,2.83312177658081,1.30882322788239,-0.311217811600473,2.8319080505249,1.33551574092274,1153.225,1417.953,3122.032,3196.331,-0.1087923,0.02991211,0.05919798,-0.647230625152588,-0.204921260476112,0.319209396839142,-0.560008885098767,-0.240956178420931,0.346672176798798,7
1.17999267578125,-0.590737283229828,2.82881951332092,1.31530237197876,-0.322550701230474,2.8270318247214,1.34253133946411,1153.005,1420.761,3125.599,3201.185,-0.1107071,0.02838291,0.0614046,-0.65279346704483,-0.215117186307907,0.323955476284027,-0.573463232144024,-0.246745208083563,0.355001058539242,7
1.19999694824219,-0.603912711143494,2.82431316375732,1.32187736034393,-0.334156660511822,2.8220381046756,1.34971598112778,1152.699,1422.482,3128.479,3208.225,-0.1124243,0.02689363,0.06372162,-0.658768236637115,-0.225312471389771,0.328747749328613,-0.58687652428584,-0.252516572968185,0.36330452533874,7
1.21999359130859,-0.617215812206268,2.81960391998291,1.32854926586151,-0.346025842163694,2.81693112739735,1.35706356997782,1156.976,1423.649,3130.276,3212.964,-0.1139401,0.02545936,0.06611204,-0.665155470371246,-0.235462754964828,0.333597034215927,-0.600231432569387,-0.258262816909651,0.371571849748761,7
1.23999786376953,-0.63065493106842,2.81469321250916,1.33532118797302,-0.358166167196084,2.81170748469733,1.36457900949675,1158.095,1423.921,3134.765,3219.613,-0.1152664,0.0240833,0.0685673,-0.671955525875092,-0.245535165071487,0.338597297668457,-0.613531154887641,-0.263985315871967,0.379805011417393,7
1.25999450683594,-0.644237995147705,2.80958342552185,1.34219467639923,-0.3705671011502,2.80637170925886,1.37225577835275,1161.192,1423.677,3137.791,3226.398,-0.116394,0.02277923,0.07105315,-0.679152190685272,-0.255487561225891,0.343673586845398,-0.626758665639206,-0.269676744214496,0.387993470686331,7
1.27999877929688,-0.657972753047943,2.80427765846252,1.34917283058167,-0.383236695417198,2.80092033679326,1.3800988607405,1165.683,1422.85,3142.764,3230.877,-0.117317,0.02155703,0.07354245,-0.686738848686218,-0.265290260314941,0.348906308412552,-0.639917282339435,-0.275338529371412,0.396139281255613,8
1.29999542236328,-0.671866536140442,2.79877948760986,1.35625743865967,-0.396163740917024,2.79535819025452,1.38810131770546,1172.334,1421.942,3145.786,3235.455,-0.1180489,0.02042582,0.07601492,-0.694689095020294,-0.274903506040573,0.354228317737579,-0.652990303744023,-0.280963485263868,0.404232104259424,8
1.31999969482422,-0.685926377773285,2.79309344291687,1.36345207691193,-0.409356423791328,2.7896817473746,1.39626821685929,1179.055,1420.228,3151.287,3238.681,-0.1186023,0.01938755,0.07845935,-0.702991127967834,-0.28430387377739,0.359730899333954,-0.665981146317813,-0.286553081901244,0.412274054652251,8
1.33999633789063,-0.700158655643463,2.78722429275513,1.37075901031494,-0.422802873722428,2.78389611561957,1.40459220990988,1186.546,1418.251,3155.298,3242.891,-0.1189959,0.01844595,0.08086552,-0.711615145206451,-0.293459475040436,0.365344524383545,-0.678873453515705,-0.29210028151913,0.420255006953505,8
1.35999298095703,-0.714569628238678,2.78117728233337,1.37818193435669,-0.436506138147829,2.77799998376221,1.41307518336622,1193.543,1415.384,3161.857,3246.045,-0.1192366,0.01760125,0.08322518,-0.720547616481781,-0.302353769540787,0.371147811412811,-0.691665859866827,-0.297604496593558,0.428174115871672,8
1.37999725341797,-0.729164779186249,2.77495813369751,1.38572347164154,-0.450469530727146,2.77199192602736,1.42171918854144,1200.152,1412.13,3167.466,3250.641,-0.1193293,0.01685484,0.08553091,-0.729757845401764,-0.310962229967117,0.37707445025444,-0.704356955827446,-0.303065120637236,0.436030508832034,8
1.39999389648438,-0.743949234485626,2.76857280731201,1.39338576793671,-0.464680216184654,2.76587746507559,1.43051627978847,1211.099,1409.016,3171.389,3252.504,-0.1192872,0.01621298,0.0877559,-0.739222884178162,-0.319262862205505,0.383114039897919,-0.716930938559026,-0.308475354130225,0.443814403124744,8
1.41999816894531,-0.758927702903748,2.76202774047852,1.40117299556732,-0.47914673136562,2.75965292774086,1.43947174182117,1218.028,1405.129,3178.501,3255.916,-0.1191338,0.01566681,0.08990844,-0.748926222324371,-0.327248871326447,0.389359503984451,-0.729391385793766,-0.313836736470737,0.451528013536465,8
1.43999481201172,-0.774104416370392,2.75532960891724,1.40908718109131,-0.493855616658466,2.75332410531803,1.44857724249882,1225.643,1401.179,3183.692,3260.069,-0.1188723,0.01521893,0.09197352,-0.758832037448883,-0.33490327000618,0.395708173513412,-0.7417228873516,-0.319142637088802,0.459161800431646,8
1.45999908447266,-0.789482891559601,2.74848508834839,1.41713166236877,-0.508815552717244,2.74688726276417,1.45783815555978,1233.74,1396.827,3190.563,3262.24,-0.1184995,0.01486938,0.09393754,-0.768922746181488,-0.342221587896347,0.40222305059433,-0.753929052770513,-0.324394609067776,0.466717998286247,8
1.47999572753906,-0.805066108703613,2.74150133132935,1.42530810832977,-0.524012471663969,2.74034845309416,1.46724577231745,1243.229,1392.927,3194.836,3264.764,-0.1180334,0.01461823,0.09579048,-0.779160857200623,-0.349189430475235,0.408821314573288,-0.765994882555672,-0.329586198544069,0.474187321698441,8
1.49999237060547,-0.820856630802155,2.7343852519989,1.43361973762512,-0.539449263805741,2.7337064326896,1.47680188200959,1251.691,1388.528,3201.332,3266.365,-0.1174859,0.01445985,0.09752934,-0.789528787136078,-0.355807900428772,0.415583938360214,-0.777919478371521,-0.334717018988988,0.481569214555725,8
1.51999664306641,-0.836856544017792,2.72714376449585,1.44206869602203,-0.555129074991064,2.72695984797977,1.48650843206629,1258.997,1384.125,3206.936,3269.364,-0.116867,0.01439064,0.09915305,-0.799990653991699,-0.3620725274086,0.422446370124817,-0.789701834723693,-0.339786637766398,0.488863054409188,8
1.53999328613281,-0.853066861629486,2.71978425979614,1.45065641403198,-0.571036956668503,2.72011513090874,1.49635616862212,1269.877,1380.259,3210.822,3269.619,-0.1161905,0.01441182,0.1006431,-0.810518741607666,-0.367980629205704,0.429388523101807,-0.801327600455846,-0.344788879974649,0.496059957209413,8
1.55999755859375,-0.869488656520844,2.71231341362,1.45938622951508,-0.587181951496087,2.71316839067337,1.50635068951315,1276.551,1375.74,3217.881,3271.121,-0.1154747,0.01451044,0.1020164,-0.821093857288361,-0.373543053865433,0.436488628387451,-0.812800388649436,-0.349725300221754,0.503162159625937,8
1.57999420166016,-0.886122286319733,2.7047381401062,1.46825885772705,-0.603548545866849,2.70612630234534,1.51648239107766,1283.9,1371.524,3222.556,3273.164,-0.1147221,0.01468507,0.103268,-0.831677496433258,-0.378760278224945,0.443631678819656,-0.824106301004481,-0.354589918457504,0.510161057949003,8
1.59999847412109,-0.90296733379364,2.69706535339355,1.47727632522583,-0.620145926473056,2.69898491314762,1.52675696031579,1291.191,1367.016,3228.778,3273.514,-0.1139306,0.01493104,0.1043959,-0.842253506183624,-0.383642822504044,0.450876027345657,-0.835248923368005,-0.359384277571697,0.517058871988737,8
1.6199951171875,-0.920023024082184,2.68930149078369,1.48643887042999,-0.636958033083316,2.69175113334911,1.53716445517924,1299.332,1363.198,3231.933,3274.73,-0.1131162,0.01524454,0.1053978,-0.852786123752594,-0.388191312551498,0.458128750324249,-0.846214826007804,-0.364102599125749,0.523847288101157,8
1.63999938964844,-0.937288224697113,2.68145298957825,1.49574840068817,-0.653994195024907,2.68442094880091,1.54771065096602,1305.93,1358.982,3237.512,3275.007,-0.1122874,0.01561734,0.1062761,-0.86326390504837,-0.392421096563339,0.465477794408798,-0.857007552155828,-0.368746407673381,0.530528499715628,8
1.65999603271484,-0.954761266708374,2.67352628707886,1.50520491600037,-0.671237824488362,2.67700149677403,1.55838527903188,1312.235,1355.362,3240.772,3276.48,-0.111456,0.01604474,0.1070302,-0.873652458190918,-0.396339178085327,0.472828328609467,-0.867614155697522,-0.373310132863173,0.537094492570531,8
1.67999267578125,-0.972440123558044,2.66552710533142,1.51480984687805,-0.688691692550512,2.66949158495151,1.56919005480539,1317.521,1351.429,3246.228,3276.499,-0.1106197,0.01652171,0.1076608,-0.883939743041992,-0.399963945150375,0.480246245861053,-0.878034183119987,-0.377793579561193,0.543544985919778,8
1.69999694824219,-0.99032199382782,2.65746092796326,1.52456283569336,-0.706358800111611,2.66188992212981,1.58012683598675,1322.151,1347.885,3249.99,3277.603,-0.1097776,0.01704313,0.108172,-0.894093751907349,-0.40330496430397,0.487646818161011,-0.888267004546665,-0.382196476749158,0.549879589839776,8
1.71999359130859,-1.00840377807617,2.64933347702026,1.53446304798126,-0.72422180503422,2.6542039701462,1.59118488696678,1330.75,1345.277,3251.302,3275.832,-0.108943,0.01760949,0.1085511,-0.904093444347382,-0.406371176242828,0.495008379220963,-0.898300426012065,-0.386513577704374,0.556090755685004,8
1.73999786376953,-1.02668237686157,2.6411497592926,1.54451155662537,-0.742290383213093,2.64642956573347,1.60237019758524,1334.308,1342.019,3256.197,3275.667,-0.1081366,0.01820438,0.108824,-0.913930594921112,-0.409185588359833,0.502426028251648,-0.908137821269591,-0.39074633405868,0.562180571969536,8
1.75999450683594,-1.04515385627747,2.63291454315186,1.55470705032349,-0.760546715064628,2.63857437616062,1.61367173667103,1337.627,1339.216,3258.684,3276.682,-0.1073558,0.01882493,0.1089923,-0.92357462644577,-0.41176101565361,0.509777545928955,-0.917767514700581,-0.394889722119545,0.568141810929231,8
1.77999877929688,-1.0638142824173,2.62463212013245,1.56504940986633,-0.779000609654483,2.63063418086074,1.62509557650306,1340.974,1336.238,3262.788,3275.63,-0.1065877,0.01946786,0.1090568,-0.933019876480103,-0.414117872714996,0.517120242118835,-0.927192788821983,-0.398945154262308,0.57397650459845,8
1.79999542236328,-1.08265912532806,2.6163067817688,1.57553648948669,-0.797633790944145,2.62261684350262,1.63663040334288,1345.28,1334.154,3263.492,3275.425,-0.105842,0.02012965,0.1090198,-0.942239224910736,-0.416264444589615,0.524352729320526,-0.936402499096495,-0.402907835303912,0.579677753977713,7
1.81999206542969,-1.10168361663818,2.60794234275818,1.58616781234741,-0.816448984455027,2.61452119137054,1.64827790441807,1348.182,1331.777,3266.416,3274.275,-0.1051219,0.02080276,0.1088879,-0.951232016086578,-0.418220996856689,0.531563937664032,-0.945396434568188,-0.406777674475912,0.585245428475252,7
1.83999633789063,-1.12088310718536,2.59954237937927,1.59694147109985,-0.835449117627072,2.60634596486888,1.66003989195343,1349.218,1329.721,3268.077,3275.097,-0.1044289,0.02148187,0.1086692,-0.959977269172668,-0.420001298189163,0.538680970668793,-0.954174163352093,-0.410554485950274,0.590679260733698,7
1.85999298095703,-1.14025235176086,2.59110999107361,1.60785508155823,-0.854615270215496,2.5980993048504,1.67190465341613,1353.844,1328.596,3267.569,3273.124,-0.1037679,0.02216937,0.1083496,-0.968463659286499,-0.421617656946182,0.545680999755859,-0.962725359910172,-0.414233826936439,0.595972858753131,7
1.87999725341797,-1.15978622436523,2.58264803886414,1.61890816688538,-0.873957566090845,2.58977685529642,1.6838784559643,1353.855,1326.911,3270.745,3272.171,-0.1031469,0.02285223,0.1079536,-0.976691484451294,-0.423094213008881,0.552657306194305,-0.971053025860989,-0.417816988947023,0.601128080678429,7
1.89999389648438,-1.17947912216187,2.57415914535522,1.63009762763977,-0.893456683142228,2.58138692997148,1.69594933829086,1354.25,1325.813,3270.967,3272.295,-0.1025589,0.0235305,0.1074844,-0.984636902809143,-0.424442321062088,0.559475243091583,-0.979147395688901,-0.421299770153459,0.606138881190213,7
1.91999816894531,-1.19932508468628,2.56564545631409,1.64142167568207,-0.913122862707269,2.57292512231409,1.70812364027167,1355.135,1324.572,3272.717,3270.144,-0.10199,0.0242015,0.1069441,-0.992303490638733,-0.425679594278336,0.566203653812408,-0.987011339258123,-0.424683405378145,0.611007036871143,7
1.93999481201172,-1.21931862831116,2.55710911750793,1.65287661552429,-0.932936403420974,2.56439990927123,1.72038916582329,1356.617,1324.151,3271.199,3269.302,-0.1014531,0.02486214,0.1063389,-0.999673306941986,-0.426812529563904,0.572748899459839,-0.994635661494588,-0.427963938237592,0.615726855532351,7
1.95999908447266,-1.23945367336273,2.5485520362854,1.66446077823639,-0.952907658613767,2.55580683609405,1.73275232415044,1356.258,1323.318,3272.363,3267.717,-0.1009487,0.02550668,0.1056775,-1.00675535202026,-0.427859514951706,0.579210519790649,-1.00202309041976,-0.431142542523221,0.620300025949072,7
1.97999572753906,-1.25972437858582,2.5399751663208,1.67617058753967,-0.973016570682103,2.54715453300902,1.74520069864106,1355.523,1323.134,3270.961,3267.743,-0.1004805,0.0261331,0.1049632,-1.01353418827057,-0.428829342126846,0.585488080978394,-1.00916501115878,-0.434215511495054,0.624721215103391,7
1.99999237060547,-1.28012478351593,2.53138065338135,1.68800389766693,-0.993265847141347,2.5384418350479,1.75773596537614,1353.979,1322.627,3272.183,3265.896,-0.1000331,0.02673968,0.1041993,-1.02001905441284,-0.429739773273468,0.591665983200073,-1.01606141646104,-0.437182842033357,0.628990418506833,6
2.01999664306641,-1.30064857006073,2.52276873588562,1.69995677471161,-1.01365835337184,2.52966750931758,1.77035989816261,1351.536,1322.529,3271.193,3266.068,-0.09960063,0.02732499,0.1033936,-1.02619516849518,-0.430597007274628,0.597644567489624,-1.02271203275434,-0.440044416427654,0.633107466805174,6
2.03999328613281,-1.32128977775574,2.51414060592651,1.71202516555786,-1.03417354141348,2.52084039703127,1.78305977683431,1354.213,1323.342,3267.858,3262.456,-0.09918624,0.0278949,0.1025301,-1.03206253051758,-0.431405335664749,0.603420972824097,-1.02910913225408,-0.442796909628122,0.637067576131623,6
2.05999755859375,-1.34204244613647,2.50549697875977,1.72420728206635,-1.05482201812353,2.5119559343546,1.79584216754118,1351.091,1323.477,3268.534,3261.098,-0.09880701,0.02843541,0.1016407,-1.03763103485107,-0.432181566953659,0.609106421470642,-1.03525504859546,-0.445441325732794,0.640872191117535,6
2.07999420166016,-1.36290013790131,2.49683833122253,1.73649871349335,-1.07558293843174,2.50302309033894,1.80869416619175,1347.91,1323.921,3266.656,3261.271,-0.09845227,0.02894882,0.1007267,-1.04288768768311,-0.432931184768677,0.614570260047913,-1.0411426556922,-0.447974598585819,0.644516900376035,6
2.09999847412109,-1.38385701179504,2.48816514015198,1.74889647960663,-1.09646699912883,2.4940372624541,1.82162239460902,1345.523,1324.135,3266.598,3258.797,-0.0981002,0.02943669,0.0997867,-1.04784464836121,-0.43366527557373,0.619886696338654,-1.04677411523768,-0.450397658303471,0.648003042098304,5
2.1199951171875,-1.40490686893463,2.4794774055481,1.76139557361603,-1.11745308225396,2.48500753716864,1.83461377976925,1344.169,1325.087,3263.044,3257.673,-0.09775612,0.02990021,0.09882405,-1.05249094963074,-0.434381514787674,0.62495356798172,-1.0521429102862,-0.45270770082608,0.651326581984514,5
2.13999938964844,-1.42604374885559,2.47077560424805,1.77399325370789,-1.138551967509,2.47592927627801,1.8476749948214,1341.841,1325.617,3262.138,3255.235,-0.09741737,0.03033601,0.09784441,-1.05684244632721,-0.435088992118835,0.629881322383881,-1.05725102347782,-0.454905579228273,0.654488747383304,4
2.15999603271484,-1.44726169109344,2.46205997467041,1.78668475151062,-1.15974228854654,2.4668116731246,1.86079281297862,1339.017,1326.632,3258.688,3254.899,-0.0970914,0.03074448,0.09685176,-1.06089019775391,-0.435786843299866,0.634573340415955,-1.06209255378819,-0.456988754464129,0.657485885279498,4
2.17999267578125,-1.46855473518372,2.45333027839661,1.79946720600128,-1.18102676265167,2.45765355853653,1.8739689163698,1335.487,1327.21,3257.979,3252.79,-0.0967633,0.03112618,0.09584674,-1.0646493434906,-0.436484038829803,0.639123380184174,-1.06666760390386,-0.458957270716794,0.660318059240953,3
2.19999694824219,-1.48991680145264,2.44458675384521,1.81233608722687,-1.20240821395574,2.44845371736898,1.88720505326679,1331.093,1328.01,3255.632,3252.452,-0.09642348,0.03148244,0.09483542,-1.06811225414276,-0.437179148197174,0.643445372581482,-1.07097597819164,-0.460811043810786,0.662985148161421,1
2.21999359130859,-1.51134240627289,2.43582916259766,1.82528650760651,-1.22386495005255,2.43922148325834,1.90048779503681,1331.928,1329.486,3250.819,3248.698,-0.096073,0.03182074,0.09380063,-1.07128167152405,-0.437867522239685,0.647523880004883,-1.07501271071614,-0.462547937042828,0.665484077890325,0
2.23999786376953,-1.53282570838928,2.42705821990967,1.83831608295441,-1.24540792547886,2.42995214277345,1.91382392305993,1327.764,1330.308,3249.995,3246.607,-0.09572573,0.03213086,0.09277007,-1.07417154312134,-0.438556730747223,0.651481688022614,-1.07877930973132,-0.464168599372462,0.667815782108711,0
2.25999450683594,-1.55436110496521,2.41827344894409,1.85141980648041,-1.26701526177039,2.4206551096063,1.92719989352455,1323.446,1331.243,3246.523,3246.611,-0.09537473,0.03241644,0.09174416,-1.07677257061005,-0.439242541790009,0.655186712741852,-1.08227143928024,-0.465671165158559,0.669977576652695,0
2.27999877929688,-1.57594335079193,2.40947484970093,1.86459445953369,-1.28869796983554,2.41132564607061,1.9406225227075,1320.202,1331.802,3245.272,3243.615,-0.09499709,0.03268112,0.09071773,-1.07910120487213,-0.439928412437439,0.658730208873749,-1.08549040888332,-0.467056197851165,0.67197027217779,0
2.29999542236328,-1.5975661277771,2.40066266059875,1.87783467769623,-1.31043401044317,2.40197323503182,1.95407816727483,1317.724,1332.888,3240.776,3242.31,-0.09459762,0.03292727,0.08969341,-1.08114886283875,-0.440604478120804,0.662009477615356,-1.08843251702753,-0.468322104792631,0.6737915772711,0
2.31999206542969,-1.619225025177,2.39183712005615,1.8911372423172,-1.33222611841886,2.3925966997709,1.96756852021384,1314.947,1333.497,3238.736,3239.387,-0.09417204,0.03315464,0.08867223,-1.08293175697327,-0.441271603107452,0.665131330490112,-1.09109790637238,-0.469468947365361,0.675441580245663,0
2.33999633789063,-1.64091372489929,2.38299870491028,1.90449774265289,-1.35407709248145,2.38319483607731,1.98109531406483,1310.274,1334.12,3235.477,3239.194,-0.09372037,0.03336339,0.08766081,-1.08444535732269,-0.441923022270203,0.668027758598328,-1.09348640563071,-0.470496651869278,0.67692017506657,0
2.35999298095703,-1.66262769699097,2.37414765357971,1.91791152954102,-1.37596470003558,2.37377721001573,1.99464478579218,1310.506,1335.19,3230.361,3235.545,-0.0932394,0.03356266,0.0866371,-1.08569443225861,-0.442551136016846,0.670690059661865,-1.09559527181965,-0.471404038075479,0.678225663696753,0
2.37999725341797,-1.68436145782471,2.36528444290161,1.93137621879578,-1.39790005743958,2.36433903852774,2.00822381695123,1305.842,1335.681,3229.194,3233.427,-0.09273979,0.0337448,0.0856243,-1.08669114112854,-0.443159610033035,0.67323362827301,-1.09742530100382,-0.472191448508328,0.679358538938131,0
2.39999389648438,-1.70611000061035,2.35640954971313,1.94488668441772,-1.41986083522252,2.35488992936084,2.02181858453579,1301.947,1336.211,3225.344,3232.663,-0.09220982,0.03391514,0.08461909,-1.08742594718933,-0.443739593029022,0.675523340702057,-1.09897439291323,-0.472857979480329,0.680317500623536,0
2.41999816894531,-1.72786831855774,2.34752368927002,1.95843958854675,-1.44185817738692,2.34542508756209,2.03543598721428,1299.538,1336.366,3223.373,3228.949,-0.09163138,0.03407781,0.08361617,-1.08791255950928,-0.444288998842239,0.677647233009338,-1.10024313330221,-0.473403883025206,0.681102911362803,0
2.43999481201172,-1.74963104724884,2.33862781524658,1.97202980518341,-1.46386968334064,2.3359541514805,2.04906215795307,1297.995,1336.921,3218.253,3226.979,-0.09101513,0.03423429,0.08261785,-1.08814287185669,-0.44479438662529,0.679512977600098,-1.10123006676374,-0.473828532921971,0.681713870189648,0
2.45999908447266,-1.77139353752136,2.32972240447998,1.98565459251404,-1.48590651627916,2.32647231790489,2.06270400730194,1295.56,1336.898,3215.948,3223.776,-0.09036159,0.03438367,0.08162586,-1.08813214302063,-0.445254415273666,0.681236803531647,-1.10193556692257,-0.474132089930926,0.682150608395601,0
2.47999572753906,-1.79315114021301,2.32080936431885,1.99930918216705,-1.50794623031618,2.31698924467309,2.07634764018804,1292.751,1337.065,3211.519,3222.576,-0.08967663,0.03452798,0.08064035,-1.08787381649017,-0.445659309625626,0.682729005813599,-1.10235882472314,-0.474314205938057,0.682412625136718,0
2.49999237060547,-1.81489872932434,2.31188917160034,2.01299071311951,-1.52999158792198,2.30750374317131,2.08999476671204,1289.507,1336.714,3209.593,3219.786,-0.08894692,0.03466961,0.07965733,-1.08738005161285,-0.446008414030075,0.684077084064484,-1.10250000048238,-0.474374949923262,0.68250001965682,0
2.51999664306641,-1.83663153648376,2.30296325683594,2.02669477462769,-1.55204535801192,2.29801462201262,2.10364710096447,1286.087,1336.431,3206.138,3218.305,-0.08816395,0.03481134,0.07867687,-1.08664453029633,-0.446291953325272,0.685204565525055,-1.10235893238473,-0.47431425226183,0.68241269178437,0
2.53999328613281,-1.85834491252899,2.29403328895569,2.0404167175293,-1.57408507527774,2.28853154739156,2.11729073584934,1287.927,1336.508,3200.612,3213.441,-0.08733144,0.03496125,0.07767978,-1.08566868305206,-0.446498453617096,0.686103105545044,-1.10193578218388,-0.474132182551855,0.682150741652607,0
2.55999755859375,-1.88003420829773,2.28510046005249,2.05415463447571,-1.59612191359838,2.27904971150017,2.13093258853001,1284.83,1336.06,3198.717,3210.52,-0.08647018,0.0351099,0.07669021,-1.08446168899536,-0.446628451347351,0.686892211437225,-1.10123038958312,-0.473828671822132,0.681714070030222,0
2.57999420166016,-1.9016946554184,2.27616715431213,2.06790375709534,-1.61813342708139,2.26957877217893,2.14455876392979,1281.797,1335.432,3194.787,3209.27,-0.08557323,0.0352613,0.07570493,-1.08301556110382,-0.446673452854156,0.68745481967926,-1.10024356351463,-0.47340406813359,0.681103177684783,0
2.59999847412109,-1.92332136631012,2.26723456382751,2.08166122436523,-1.64013077892511,2.26011392621545,2.15817617260023,1279.736,1334.403,3192.752,3205.532,-0.08462194,0.03541918,0.07471631,-1.08134078979492,-0.446631669998169,0.687869489192963,-1.09897493039424,-0.472858210743393,0.680317833349887,0
2.6199951171875,-1.9449098110199,2.25830483436584,2.09542202949524,-1.66209156852628,2.2506648119635,2.17177094750084,1279.169,1333.739,3187.786,3202.706,-0.08362326,0.03558622,0.07372179,-1.0794290304184,-0.446490913629532,0.688046395778656,-1.09742594550583,-0.472191725819537,0.679358937915576,0
2.63999176025391,-1.96645569801331,2.24937987327576,2.10918378829956,-1.68401858115471,2.2412302309993,2.1853448128463,1277.876,1332.611,3185.303,3198.717,-0.08257876,0.03576089,0.07272311,-1.07729053497314,-0.44624924659729,0.688091993331909,-1.09559677441039,-0.471404684598297,0.678226593871999,0
2.65999603271484,-1.98795413970947,2.24046182632446,2.12294244766235,-1.70591456353497,2.23180900148401,2.19889946898997,1274.866,1331.387,3181.686,3197.344,-0.0814906,0.03594353,0.07172406,-1.07491898536682,-0.445898830890656,0.68793785572052,-1.09348726343002,-0.470497020956359,0.676920706085208,0
2.67999267578125,-2.00940012931824,2.23155307769775,2.13669395446777,-1.72775723139253,2.2224107117184,2.21242112090437,1276.832,1330.386,3176.524,3192.385,-0.08035609,0.03614182,0.07070144,-1.07231605052948,-0.445431977510452,0.687578499317169,-1.09109983431736,-0.469469776906228,0.675442773735451,0
2.69999694824219,-2.03079009056091,2.22265601158142,2.15043640136719,-1.74955768413056,2.21303058593937,2.22591663964878,1274.182,1329.07,3174.732,3189.027,-0.07919229,0.03634796,0.06967616,-1.06948792934418,-0.44485068321228,0.687120497226715,-1.08843358680109,-0.468322565086308,0.673792239511893,0
2.71999359130859,-2.0521183013916,2.21377301216125,2.16416525840759,-1.77129374718429,2.20367816524265,2.23937229811132,1272.027,1327.587,3170.64,3187.171,-0.0779912,0.03656574,0.06864326,-1.06642532348633,-0.444147825241089,0.686440229415894,-1.08549158402443,-0.467056703481556,0.671970999646117,0
2.73999786376953,-2.07338094711304,2.20490646362305,2.17787766456604,-1.79297647980783,2.19434869114016,2.25279494249708,1271.486,1325.82,3168.377,3182.201,-0.07673739,0.0367981,0.06759492,-1.0631365776062,-0.443322956562042,0.685623407363892,-1.08227271937422,-0.465671715947234,0.669978369091845,0
2.75999450683594,-2.09457349777222,2.19605898857117,2.19156932830811,-1.81458384274179,2.18505164650952,2.26617092945464,1271.551,1324.362,3163.317,3178.967,-0.07544469,0.03704498,0.06653352,-1.05961239337921,-0.442366361618042,0.684581816196442,-1.07878069424208,-0.464169195088763,0.667816639186824,0
2.77999877929688,-2.1156907081604,2.18723392486572,2.205237865448,-1.83612684690458,2.17578229366013,2.27950707526701,1270.859,1322.446,3160.81,3174.493,-0.07411524,0.03730474,0.0654598,-1.05586171150208,-0.441278904676437,0.683421790599823,-1.07501419914593,-0.462548577472581,0.665484999299265,0
2.79999542236328,-2.13672804832458,2.17843246459961,2.21887898445129,-1.85758361379882,2.16655004629821,2.2927898361021,1270.03,1320.7,3155.982,3172.017,-0.07275809,0.03757793,0.06437223,-1.0518764257431,-0.440054267644882,0.682050704956055,-1.07097756992209,-0.460811728687929,0.662986133518392,0
2.81999206542969,-2.15768146514893,2.16965889930725,2.23249053955078,-1.87895695992541,2.1573536925621,2.30602095550813,1269.031,1318.584,3154.113,3167.134,-0.07136367,0.03786512,0.06326808,-1.04766571521759,-0.438696146011353,0.680574834346771,-1.06667099276523,-0.458958728849171,0.660320157107579,0
2.83999633789063,-2.17854595184326,2.1609148979187,2.24606847763062,-1.90024960698239,2.14819206138118,2.31920211834584,1266.422,1316.495,3150.298,3165.376,-0.06993195,0.03816573,0.06215245,-1.04322016239166,-0.437199175357819,0.678893089294434,-1.06209435025759,-0.456989527434725,0.657486997379635,0
2.85999298095703,-2.19931697845459,2.15220355987549,2.25960874557495,-1.92143996495749,2.13907444233456,2.33231995936916,1270.216,1314.603,3145.006,3158.658,-0.06845868,0.03848727,0.06099984,-1.03854167461395,-0.435558915138245,0.677015006542206,-1.0572529212638,-0.454906395792563,0.654489922203231,0
2.87999725341797,-2.21998953819275,2.14352798461914,2.27310967445374,-1.94253888918396,2.12999616467562,2.34538119854648,1268.425,1312.622,3142.779,3154.639,-0.06697264,0.03881842,0.05983871,-1.03363347053528,-0.433779090642929,0.67504620552063,-1.05214490868305,-0.452708560680416,0.651327819087361,0
2.89999389648438,-2.24055933952332,2.13489103317261,2.28656697273254,-1.96352501326936,2.1209664217661,2.35837260906308,1266.846,1310.333,3138.537,3152.245,-0.06546795,0.0391623,0.05866415,-1.02848875522614,-0.431857585906982,0.672868371009827,-1.04677621342161,-0.450398561093403,0.648004340974112,0
2.91999816894531,-2.26102137565613,2.12629508972168,2.29997825622559,-1.98440911693069,2.11198057539494,2.37130086407726,1266.388,1307.857,3136.224,3146.994,-0.06392918,0.03952014,0.05746847,-1.02311539649963,-0.429798036813736,0.670567452907562,-1.04114485287423,-0.447975543971863,0.644518260536375,0
2.93999481201172,-2.28137159347534,2.11774301528931,2.31333923339844,-2.00517008215741,2.10304771205211,2.38415289053452,1266.564,1305.701,3131.309,3143.194,-0.06236537,0.03989193,0.0562532,-1.01750564575195,-0.427596300840378,0.668053686618805,-1.03525734386973,-0.445442313325187,0.640873612001643,0
2.95999908447266,-2.3016049861908,2.10923838615417,2.32664775848389,-2.02581860575671,2.0941632292003,2.39693531026807,1266.363,1303.261,3128.562,3137.98,-0.06077653,0.04027594,0.05501914,-1.01166641712189,-0.425255447626114,0.665422022342682,-1.02911152474823,-0.442797939051516,0.637069057199471,0
2.97999572753906,-2.32171702384949,2.10078287124634,2.33989953994751,-2.04633384260397,2.08533609591429,2.40963521915279,1266.064,1300.995,3123.466,3134.794,-0.05917384,0.04067187,0.05376605,-1.00559139251709,-0.422773122787476,0.662583470344543,-1.02271452148052,-0.440045487257004,0.633109007445237,0
2.99999237060547,-2.34170269966125,2.09237957000732,2.35309243202209,-2.0667186476113,2.07656508380516,2.42225438451524,1265.562,1298.503,3121.112,3129.345,-0.05755198,0.04107879,0.05249179,-0.999288558959961,-0.420155107975006,0.659643590450287,-1.01606658442979,-0.437185065665935,0.628993617725676,0
3.01999664306641,-2.3615574836731,2.08403158187866,2.36622262001038,-2.08697572864857,2.06784902775215,2.4347944826559,1263.264,1296.073,3117.29,3126.719,-0.05591094,0.04149494,0.05120373,-0.992751657962799,-0.417401164770126,0.656515121459961,-1.00916768936771,-0.434216663853534,0.624722873042298,0
3.03999328613281,-2.38127732276917,2.07574105262756,2.37928652763367,-2.10708469520508,2.05919670122237,2.4472428908773,1266.572,1293.754,3111.866,3120.084,-0.05424752,0.04192684,0.0498797,-0.985982358455658,-0.414510637521744,0.653190612792969,-1.00202586176059,-0.431143734953757,0.620301741541063,0
3.05999755859375,-2.40085697174072,2.06751155853271,2.39228200912476,-2.12705600675913,2.05060360379452,2.45960608409476,1265.176,1291.545,3109.366,3115.238,-0.05258465,0.04236416,0.04854449,-0.978984534740448,-0.411489456892014,0.649779975414276,-0.994638524886308,-0.427965170275055,0.615728628108227,0
3.07999420166016,-2.42029190063477,2.05934453010559,2.40520524978638,-2.14686960564145,2.04207836572333,2.47187164565552,1263.456,1289.05,3104.801,3112.617,-0.05092071,0.04280825,0.0471963,-0.971753835678101,-0.408339291810989,0.646163105964661,-0.987014293508169,-0.424684676509408,0.611008865692653,0
3.09999847412109,-2.43957805633545,2.05124354362488,2.41805386543274,-2.16653584520328,2.033616532251,2.4840459847772,1263.311,1286.455,3102.33,3106.474,-0.04923759,0.04326061,0.04582718,-0.964298844337463,-0.405066251754761,0.642432749271393,-0.979150439632689,-0.421301079877433,0.606140765536421,0
3.1199951171875,-2.45871019363403,2.04321026802063,2.43082356452942,-2.18603502400946,2.02522658035469,2.49611690533293,1262.877,1284.169,3097.062,3102.912,-0.04754755,0.04372006,0.04444253,-0.956613779067993,-0.401669293642044,0.638488590717316,-0.971056158224178,-0.417818336715394,0.601130019760458,0
3.13999176025391,-2.47768402099609,2.03524732589722,2.4435122013092,-2.20537003837109,2.01690726383265,2.50808620027724,1263.208,1281.694,3093.982,3096.736,-0.04584685,0.04418571,0.04303888,-0.948706686496735,-0.39815366268158,0.634432792663574,-0.962731798945895,-0.414236597473625,0.595976844822977,0
3.15999603271484,-2.49649572372437,2.02735662460327,2.45611619949341,-2.22454360124808,2.00865741537402,2.51995554906156,1261.039,1279.338,3089.748,3093.833,-0.04414403,0.04465403,0.04162695,-0.940574765205383,-0.394521147012711,0.630200445652008,-0.95417746870157,-0.410555908149813,0.590681306902481,0
3.17999267578125,-2.51514005661011,2.01954102516174,2.46863198280334,-2.24353658854737,2.00048526354177,2.53171311296128,1263.224,1276.969,3084.66,3087.511,-0.04243481,0.04512987,0.0401879,-0.932222068309784,-0.39077439904213,0.625792026519775,-0.945403214201559,-0.406780591562751,0.585249625391267,0
3.19999694824219,-2.53361320495605,2.01180267333984,2.48105764389038,-2.2623590635174,1.99238647840124,2.54336512160655,1261.278,1274.847,3081.761,3082.942,-0.04073518,0.04560549,0.03874184,-0.923652291297913,-0.386919617652893,0.621287703514099,-0.936405971974636,-0.402909329586355,0.579679903854719,0
3.21999359130859,-2.55191040039063,2.00414371490479,2.49338936805725,-2.28099231507127,1.9843691108104,2.55489999194326,1259.755,1272.476,3077.114,3079.603,-0.03903981,0.04608258,0.03728467,-0.914865076541901,-0.382960319519043,0.616587817668915,-0.927196343299057,-0.398946683654493,0.573978704989081,0
3.23999786376953,-2.57002782821655,1.99656558036804,2.50562477111816,-2.29944628156995,1.97642888457015,2.56632387629027,1259.414,1270.139,3074.036,3073.58,-0.03733592,0.04656237,0.03581175,-0.905867636203766,-0.378902196884155,0.61177009344101,-0.917771149318993,-0.394891285994308,0.568144060931169,0
3.25999450683594,-2.58796119689941,1.98907041549683,2.51776003837585,-2.31770268688992,1.96857366338589,2.57762546085652,1259.074,1268.03,3068.916,3069.257,-0.03563469,0.0470431,0.03432876,-0.89665824174881,-0.374746412038803,0.606759667396545,-0.90814153446928,-0.390747931744771,0.562182870617026,0
3.27999877929688,-2.60570597648621,1.98166036605835,2.52979278564453,-2.33577134012187,1.96079922667992,2.58881081793642,1258.562,1265.79,3065.543,3063.624,-0.03393453,0.0475228,0.0328372,-0.887243926525116,-0.370498090982437,0.601635754108429,-0.898304216251578,-0.386515208538549,0.556093102023818,0
3.29999542236328,-2.62325811386108,1.97433733940125,2.54171919822693,-2.35363442159312,1.95311324175956,2.5998689163037,1257.847,1263.668,3060.332,3059.768,-0.03224396,0.04800094,0.03133921,-0.877625107765198,-0.366159588098526,0.596325874328613,-0.888270870184445,-0.382198140025101,0.549881982853707,0
3.31999206542969,-2.64061427116394,1.96710276603699,2.55353736877441,-2.37129490830989,1.94551442770222,2.61080159886703,1256.902,1261.512,3057.093,3054.316,-0.03056031,0.04847643,0.02983385,-0.867809653282166,-0.361737072467804,0.590913474559784,-0.878042061913513,-0.37779696958594,0.54354986326829,0
3.33999633789063,-2.65777015686035,1.95995795726776,2.56524419784546,-2.38875555478454,1.93800159931817,2.62161057080077,1254.238,1259.434,3052.904,3051.23,-0.02888251,0.04894776,0.02832741,-0.857798933982849,-0.357234060764313,0.585337519645691,-0.867618167158097,-0.373311858882592,0.53709697585572,0
3.35999298095703,-2.67472219467163,1.95290517807007,2.57683610916138,-2.40599926516969,1.93058211247293,2.63228524896102,1256.11,1257.352,3047.764,3044.688,-0.02720313,0.04941966,0.02680329,-0.847598135471344,-0.352653443813324,0.579593002796173,-0.857011633930453,-0.36874816394697,0.530531026528563,0
3.37999725341797,-2.69146656990051,1.94594502449036,2.58831119537354,-2.42303550945299,1.9232518924954,2.64283149572124,1254.361,1255.637,3044.287,3039.906,-0.02554131,0.04988539,0.02528169,-0.837211191654205,-0.347999960184097,0.573754012584686,-0.846218976345105,-0.364104384899943,0.523849857357654,0
3.39999389648438,-2.70799922943115,1.93907952308655,2.59966611862183,-2.43984769972619,1.91601807669906,2.65323904237604,1252.78,1253.606,3039.636,3036.23,-0.02389388,0.05034543,0.02376146,-0.826641857624054,-0.3432776927948,0.567744076251984,-0.835253140422974,-0.35938609205264,0.51706148254665,0
3.41999816894531,-2.7243173122406,1.93230962753296,2.61089873313904,-2.45644516534361,1.90887665092339,2.66351366424015,1251.755,1251.625,3036.251,3030.797,-0.02225124,0.0508001,0.02224017,-0.815897762775421,-0.33849173784256,0.561625123023987,-0.824110582941664,-0.354591760855451,0.510163708672097,0
3.43999481201172,-2.74041700363159,1.92563676834106,2.62200546264648,-2.4728118459714,1.90183452548138,2.67364541920187,1250.943,1249.785,3031.158,3026.67,-0.02061873,0.05124923,0.02072018,-0.804981708526611,-0.333644330501556,0.555334508419037,-0.812804733542555,-0.349727169707881,0.503164849321754,0
3.45999145507813,-2.75629472732544,1.91906201839447,2.63298439979553,-2.48895081463434,1.8948903781363,2.68363620960993,1250.11,1247.953,3027.582,3021.227,-0.0189958,0.05169183,0.0192021,-0.793900907039642,-0.328739762306213,0.548944771289825,-0.80133641229185,-0.344792671461508,0.496065412155666,0
3.47999572753906,-2.77194786071777,1.91258668899536,2.64383244514465,-2.50486489870395,1.88804299234919,2.69348778574196,1247.876,1246.177,3023.108,3017.924,-0.01738512,0.05212629,0.01769195,-0.782659232616425,-0.323780924081802,0.542406558990479,-0.789706299681989,-0.339788558913217,0.488865818431069,0
3.49999237060547,-2.78737306594849,1.90621101856232,2.65454697608948,-2.52053886467493,1.8812989226718,2.70319071733255,1249.11,1244.347,3018.024,3011.993,-0.01578349,0.05255644,0.01617616,-0.771263241767883,-0.318770885467529,0.535723626613617,-0.777928522316836,-0.334720910345999,0.481574813188698,0
3.51999664306641,-2.80256748199463,1.89993691444397,2.66512632369995,-2.53598168290031,1.87465430941181,2.7127505574575,1246.895,1242.932,3014.845,3007.355,-0.01420477,0.05297603,0.01467311,-0.759718060493469,-0.313714116811752,0.5289705991745,-0.765999459475408,-0.329588167864767,0.474190155029786,0
3.53999328613281,-2.81752824783325,1.89376449584961,2.67556738853455,-2.55117869390181,1.86811546013321,2.72215823120146,1244.64,1241.137,3010.065,3004.531,-0.01264362,0.05338682,0.01318094,-0.748029470443726,-0.308614373207092,0.522052526473999,-0.753933682518821,-0.324396601119134,0.466720864320997,0
3.55999755859375,-2.83225250244141,1.88769483566284,2.68586826324463,-2.56613872308604,1.86167857751006,2.73141920191151,1244.29,1239.438,3006.742,2998.489,-0.01108674,0.05379099,0.0116924,-0.736205816268921,-0.303475677967072,0.515048265457153,-0.741727567798258,-0.319144650954242,0.459164697851087,0
3.57999420166016,-2.84673714637756,1.88172888755798,2.69602608680725,-2.58084770246059,1.8553497146065,2.74052476083022,1243.134,1237.949,3001.658,2994.819,-0.009545835,0.05418596,0.01021609,-0.724250435829163,-0.298299431800842,0.507892608642578,-0.729396114728537,-0.313838771199258,0.451530940972359,0
3.59999847412109,-2.86098051071167,1.87586736679077,2.70603919029236,-2.59531431270705,1.84912513636775,2.74948028171299,1242.566,1236.35,2998.01,2989.469,-0.00801931,0.05457224,0.008749934,-0.712171077728271,-0.293089181184769,0.500654220581055,-0.716935713767317,-0.308477408768949,0.443817359206151,0
3.6199951171875,-2.87498044967651,1.87011027336121,2.71590495109558,-2.60952509409627,1.84301063413925,2.75827743234631,1241.096,1234.859,2993.216,2986.063,-0.00651569,0.0549484,0.007298865,-0.699973165988922,-0.287847518920898,0.493284821510315,-0.704361775018033,-0.303067194200314,0.436033492140578,0
3.63999176025391,-2.88873338699341,1.86445879936218,2.72562193870544,-2.62348330645344,1.83700480530926,2.76691823071727,1239.559,1233.356,2990.055,2981.272,-0.005026983,0.0553149,0.005861826,-0.687664747238159,-0.282578378915787,0.485847443342209,-0.691675581599108,-0.297608679583365,0.428180134087064,0
3.65999603271484,-2.90223836898804,1.8589129447937,2.73518753051758,-2.63719194552437,1.83110636089208,2.77540453133521,1237.331,1231.879,2985.708,2978.273,-0.003553722,0.0556717,0.004442022,-0.67525178194046,-0.277284324169159,0.478282302618027,-0.678878353700696,-0.292102389931838,0.420258040401444,0
3.67999267578125,-2.91549324989319,1.8534734249115,2.74459958076477,-2.65063849381582,1.82532068681534,2.78372858527554,1238.855,1230.336,2981.061,2972.181,-0.002090049,0.05602184,0.003027315,-0.662741184234619,-0.271967470645905,0.470607995986938,-0.665986083416798,-0.286555206197011,0.41227711095171,0
3.69999694824219,-2.92849564552307,1.84814095497131,2.75385713577271,-2.66383127580226,1.81964420129024,2.79189554578451,1236.825,1229.255,2977.586,2968.236,-0.0006556702,0.05635986,0.001637244,-0.650137603282928,-0.266630083322525,0.462878823280334,-0.65299527533123,-0.280965624398954,0.404235181908735,0
3.71999359130859,-2.94124460220337,1.84291541576385,2.76295781135559,-2.6767584210412,1.81408201183655,2.79989806449274,1235.062,1227.702,2973.214,2965.315,0.0007539195,0.0566873,0.0002681211,-0.637449741363525,-0.261275917291641,0.455031007528305,-0.639922285921447,-0.275340682272968,0.396142378711232,0
3.73999786376953,-2.95373845100403,1.83779716491699,2.77190041542053,-2.68942811570037,1.808630596175,2.80774120902801,1234.124,1226.328,2970.113,2960.363,0.002147867,0.05700509,-0.001083907,-0.624685347080231,-0.255908221006393,0.447129368782043,-0.626763698705669,-0.269678909802388,0.38799658639423,0
3.75999450683594,-2.965975522995,1.83278679847717,2.78068280220032,-2.70182915057228,1.80329477731443,2.81541804035694,1232.71,1225.032,2965.666,2957.196,0.003520925,0.05731299,-0.002413357,-0.611850738525391,-0.250528961420059,0.439117252826691,-0.613536214864365,-0.263987493038594,0.379808143784027,0
3.77999877929688,-2.97795462608337,1.82788372039795,2.78930377960205,-2.7139695770734,1.79807109095524,2.82293354268985,1232.294,1223.689,2962.213,2952.364,0.004877179,0.05761146,-0.003724697,-0.598953068256378,-0.245140492916107,0.431048154830933,-0.60023651686137,-0.258265004538452,0.371574997167698,0
3.79999542236328,-2.98967456817627,1.82308912277222,2.79776167869568,-2.72583886061506,1.79296406983666,2.83028119461452,1231.401,1222.468,2957.971,2948.793,0.006208096,0.05789945,-0.005012069,-0.585998773574829,-0.239744737744331,0.422891736030579,-0.586881630238189,-0.252518769916838,0.363307686166475,0
3.81999206542969,-3.00113439559937,1.81840229034424,2.80605530738831,-2.73744054699573,1.78797218830065,2.83746319114912,1230.198,1221.204,2954.609,2944.908,0.007513711,0.05817693,-0.006274407,-0.572995245456696,-0.234344393014908,0.414686530828476,-0.573473482003301,-0.246749618311662,0.355007403690404,0
3.83999633789063,-3.01233339309692,1.81382358074188,2.81418347358704,-2.74877791451009,1.78309403578861,2.84448156171422,1228.582,1219.964,2950.988,2941.751,0.008794898,0.05844378,-0.007511179,-0.559950113296509,-0.22894224524498,0.406413078308105,-0.560014026276881,-0.240958390526246,0.346675359432959,0
3.85999298095703,-3.02327060699463,1.8093523979187,2.8221447467804,-2.75984146370944,1.77833369964791,2.85133042569855,1228.903,1218.662,2946.994,2937.316,0.01005397,0.05870183,-0.008728244,-0.5468710064888,-0.223540589213371,0.398069441318512,-0.546520735526767,-0.235152604475377,0.338322369684062,0
3.87999725341797,-3.03394603729248,1.8049898147583,2.8299388885498,-2.77063893010371,1.77368785150474,2.85801457175126,1227.587,1217.685,2944.017,2933.431,0.01128208,0.05894847,-0.009914949,-0.533763527870178,-0.218141660094261,0.389702647924423,-0.532990631455729,-0.229330978680956,0.329946590735853,0
3.89999389648438,-3.04435873031616,1.80073475837708,2.83756399154663,-2.78116151864576,1.76916027562219,2.86452855531919,1226.041,1216.393,2940.056,2931.107,0.01247922,0.05918436,-0.01107183,-0.520636796951294,-0.212748557329178,0.381257683038712,-0.519441457145543,-0.223501147495394,0.321559006401168,0
