t,x_s1,x_s2,x_s3,x_s_d1,x_s_d2,x_s_d3,propellers_rpms1,propellers_rpms2,propellers_rpms3,propellers_rpms4,rollRad,pitchRad,yawRad,v_s1,v_s2,v_s3,v_s_d1,v_s_d2,v_s_d3,insideCount
0,-0.0599999986588955,2.94000005722046,1.17999994754791,-0.0599999986588955,2.94000005722046,1.17999994754791,0,0,0,0,0,0,0,0,0,0,-1.06581410364015E-15,4.44089209850063E-16,4.44089209850063E-16,0
0.0199966430664063,-0.0599999986588955,2.94000005722046,1.1771354675293,-0.0600018680476204,2.93999925287472,1.18000110478858,0,0,0,0,0.0163538,-0.002474609,-2.024222E-05,3.71994488546079E-08,3.50004931704007E-08,-0.143225952982903,-0.000279892991557604,-0.000120430134961378,0.000173267094926113,5
0.0400009155273438,-0.0599999986588955,2.94000005722046,1.17048275470734,-0.0600148724204753,2.93999365745638,1.18000915511487,0,0,0,0,0.03270752,-0.004950816,-5.430172E-05,3.62924410524101E-08,3.44428769949445E-08,-0.332637369632721,-0.00111101934050116,-0.00047804058392963,0.00068777389696065,6
0.05999755859375,-0.0600004345178604,2.94013261795044,1.16416561603546,-0.0600498857373401,2.93997859220429,1.18003083002592,3185.473,2835.817,1501.023,2767.634,0.03127922,-0.00494336,-0.01646952,-2.17786164284917E-05,0.00662230560556054,-0.315859228372574,-0.00247936261166862,-0.00106680046642749,0.00153484356504269,6
0.0800018310546875,-0.0599162243306637,2.94038772583008,1.15857720375061,-0.0601175574246769,2.93994947496775,1.18007272202403,3065.683,3067.238,2155.073,2024.076,0.01897327,-0.004310593,-0.04351445,0.00421056058257818,0.0127498283982277,-0.279422104358673,-0.00437268608126799,-0.00188144466206175,0.00270690098422899,6
0.0999984741210938,-0.0596375651657581,2.94068765640259,1.15374851226807,-0.0602281887669101,2.93990187339187,1.18014120809498,2640.358,3831.805,2620.274,1134.709,-0.005856291,-0.002888465,-0.07014393,0.013932996429503,0.0149971758946776,-0.241433456540108,-0.00677637982016689,-0.00291568692648091,0.00419490191241918,6
0.1199951171875,-0.0590849220752716,2.94089889526367,1.14957022666931,-0.0603918861403606,2.93983143898525,1.18024254456713,2091.985,4101.928,3169.514,756.0473,-0.04012159,-0.0004506069,-0.08993389,0.0276321992278099,0.0105603206902742,-0.208914533257484,-0.00967801353495435,-0.00416417885169243,0.00599115140585487,5
0.139999389648438,-0.0582315213978291,2.94085621833801,1.14596676826477,-0.0606185767455666,2.93973390035084,1.18038287685052,1510.247,4074.739,3735.879,702.039,-0.07649238,0.002388714,-0.09949623,0.0426700264215469,-0.00213205069303513,-0.18017490208149,-0.0130660253322238,-0.00562194567796536,0.00808849210174802,4
0.159996032714844,-0.0570995099842548,2.94039487838745,1.14297819137573,-0.0609176604100223,2.93960521300545,1.18056802388615,1135.45,3846.961,4069.674,879.868,-0.1062772,0.004335469,-0.09869941,0.0566006824374199,-0.023070527240634,-0.149428978562355,-0.0169249902365933,-0.00728235046931681,0.0104773752055438,4
0.180000305175781,-0.0557378083467484,2.93938803672791,1.14071130752563,-0.0612986871007165,2.9394412678651,1.18080389755851,1100.817,3565.35,4009.966,1148.999,-0.1236271,0.004492334,-0.0899994,0.0680850744247437,-0.0503413081169128,-0.113342367112637,-0.0212451141043368,-0.00914117907931815,0.0131517376757159,3
0.199996948242188,-0.0541965737938881,2.9377772808075,1.13924872875214,-0.0617704296168641,2.93923829023936,1.18109592864822,1373.567,3339.624,3594.703,1386.24,-0.1278743,0.003023113,-0.07725032,0.0770618319511414,-0.0805370137095451,-0.0731295049190521,-0.0260104776919234,-0.0111915819022102,0.0161017247421801,3
0.220001220703125,-0.0525143444538116,2.93557620048523,1.1385840177536,-0.0623420644491781,2.93899233174064,1.18144979784016,1790.593,3212.988,3017.054,1527.092,-0.1229757,0.0008616328,-0.06426101,0.0841115266084671,-0.110051080584526,-0.0332343205809593,-0.03121219533433,-0.0134297356845702,0.019321835755004,3
0.239997863769531,-0.0507196933031082,2.93284702301025,1.13860702514648,-0.0630217183703222,2.93869989564571,1.18187053599376,2159.469,3168.444,2517.229,1558.447,-0.1149671,-0.0009875001,-0.05362381,0.0897326022386551,-0.136453628540039,0.0011528953909874,-0.0368338920540454,-0.0158485947310391,0.02280193382306,3
0.260002136230469,-0.0488373823463917,2.92966485023499,1.13913774490356,-0.0638182299684225,2.938357178957,1.18236361461609,2351.588,3159.244,2274.124,1495.748,-0.1090538,-0.001903628,-0.04623674,0.0941155925393105,-0.159107491374016,0.0265344679355621,-0.0428675524613532,-0.0184447102433459,0.0265370570382875,3
0.279998779296875,-0.0468918681144714,2.92608761787415,1.13999605178833,-0.0647390625194898,2.93796097043536,1.18293365383054,2352.857,3152.061,2324.136,1363.731,-0.1078175,-0.001744371,-0.04152294,0.0972756817936897,-0.178863152861595,0.0429154485464096,-0.0492963837173861,-0.0212108567320638,0.030516809833474,3
0.299995422363281,-0.0449088625609875,2.92214369773865,1.1410619020462,-0.0657923226682404,2.93750778201804,1.18358567203635,2228.992,3144.213,2572.912,1194.36,-0.11109,-0.0007366303,-0.03798467,0.0991502925753593,-0.197192251682281,0.0532938539981842,-0.0561105313314725,-0.0241427940851591,0.0347350918094591,3
0.319999694824219,-0.0429170504212379,2.91783547401428,1.14229381084442,-0.0669860785243584,2.93699414222283,1.18432466377777,2073.963,3132.39,2873.279,1032.795,-0.1169293,0.0006862885,-0.03397927,0.0995904430747032,-0.215408205986023,0.061597716063261,-0.0633008373176985,-0.0272365818771378,0.0391862337367069,3
0.339996337890625,-0.0409490764141083,2.91315102577209,1.14370727539063,-0.068326768706371,2.93641728069206,1.18515461486636,1955.673,3107.436,3108.964,921.4274,-0.1228399,0.002069457,-0.02837492,0.0983988866209984,-0.234226614236832,0.0706762373447418,-0.0708499516420146,-0.0304847548730522,0.0438594951176439,3
0.360000610351563,-0.0390403121709824,2.90807723999023,1.14534318447113,-0.0698225328270578,2.93577369517774,1.1860805641102,1904.39,3065.833,3222.422,880.7359,-0.1267063,0.003092635,-0.0208696,0.0954381003975868,-0.253693282604218,0.0817983970046043,-0.0787518717320621,-0.0338847303337087,0.0487511600740379,3
0.379997253417969,-0.0372258499264717,2.90261030197144,1.14724338054657,-0.0714791088463715,2.935060916796,1.18710606357981,1924.165,3020.99,3206.831,896.2823,-0.1274173,0.003642032,-0.01188622,0.090723417699337,-0.27334401011467,0.0950118005275726,-0.0869889214763108,-0.0374289027221294,0.0538502862508218,3
0.400001525878906,-0.035537414252758,2.89676141738892,1.1494312286377,-0.0733044112230977,2.93427554017634,1.18823601270221,1990.893,2989.48,3099.135,938.8535,-0.1250413,0.003791149,-0.002208293,0.0844220668077469,-0.292450308799744,0.109393998980522,-0.0955558400788823,-0.0411150084648172,0.0591536169647403,3
0.419998168945313,-0.0340021178126335,2.89055490493774,1.15190577507019,-0.0753034649285836,2.93341540321397,1.18947352217404,2072.576,2974.112,2953.072,987.1885,-0.1205027,0.003707669,0.007334906,0.0767642557621002,-0.310326278209686,0.123724713921547,-0.104434660908044,-0.0449353170220673,0.0646500300148815,3
0.439994812011719,-0.0326426737010479,2.88402485847473,1.1546413898468,-0.0774831213880516,2.93247755793201,1.19082283335389,2136.178,2973.346,2825.721,1022.359,-0.1150816,0.003564465,0.01615121,0.0679726079106331,-0.326507091522217,0.136781364679337,-0.11361726969793,-0.0488863370519643,0.070334502284139,4
0.459999084472656,-0.0314785279333591,2.87720775604248,1.15760123729706,-0.0798502821969742,2.93145903476675,1.19228821865812,2168.102,2977.059,2748.907,1040.009,-0.109865,0.003475343,0.02394304,0.0582072511315346,-0.340851455926895,0.147993728518486,-0.123096124252221,-0.0529648233581361,0.0762023647937057,4
0.479995727539063,-0.0305268932133913,2.87013864517212,1.16074764728546,-0.0824088828700873,2.93035814037613,1.19387211435783,2168.794,2984.57,2732.225,1032.118,-0.10554,0.003481872,0.0307465,0.0475816167891026,-0.35346046090126,0.157319530844688,-0.132852887402757,-0.0571628859694044,0.0822422659629699,4
0.5,-0.0298037379980087,2.86284708976746,1.16405177116394,-0.085166398670376,2.92917165836334,1.1955791479969,2146.353,2989.528,2763.29,1009.118,-0.1022691,0.003569005,0.03679828,0.0361578688025475,-0.364581793546677,0.165207237005234,-0.142884000065179,-0.0614789935111996,0.0884520025491718,4
0.519996643066406,-0.0293244775384665,2.85535717010498,1.16749906539917,-0.0881260274065667,2.92789821280061,1.19741129917127,2117.033,2992.196,2816.412,978.5878,-0.09983499,0.0036861,0.04240822,0.0239628236740828,-0.37449648976326,0.172366708517075,-0.153170920546857,-0.0659051680111775,0.0948200963613094,4
0.540000915527344,-0.0291041564196348,2.84768867492676,1.17108523845673,-0.0912951145137283,2.92653464315245,1.19937311505516,2088.826,2992.444,2871.674,950.0174,-0.09783015,0.003776876,0.04786155,0.0110162291675806,-0.383422762155533,0.179309919476509,-0.163710711144578,-0.0704401454577151,0.101344728821151,4
0.55999755859375,-0.0291576720774174,2.8398585319519,1.1748161315918,-0.094676112580471,2.92507989413848,1.20146611391775,2070.972,2988.361,2907.932,935.821,-0.09578325,0.003795591,0.05329109,-0.00267599057406187,-0.391506224870682,0.186542838811874,-0.17448465888317,-0.0750758741803766,0.108014315705644,5
0.580001831054688,-0.0294990241527557,2.8318829536438,1.17869794368744,-0.0982762614093182,2.92353085067394,1.20369477754168,2063.717,2986.508,2922.993,929.4989,-0.09339706,0.00371678,0.05874243,-0.0170674193650484,-0.398780107498169,0.194092616438866,-0.185490414529404,-0.0798113433697334,0.11482740272751,5
0.599998474121094,-0.030141294002533,2.82377815246582,1.1827392578125,-0.102097262171133,2.92188678079254,1.20606015903275,2066.727,2983.541,2911.499,940.3043,-0.09049741,0.00353837,0.06410792,-0.0321133024990559,-0.405235528945923,0.202068611979485,-0.196709126405959,-0.0846384416756885,0.121772319800455,5
0.6199951171875,-0.0310955159366131,2.8155620098114,1.18694126605988,-0.106144683970236,2.92014528826426,1.20856570593183,2074.529,2987.599,2888.22,949.9187,-0.08718603,0.003271775,0.06929629,-0.0477113388478756,-0.410805493593216,0.21010085940361,-0.208134604141382,-0.0895545055543457,0.128845234789665,5
0.639999389648438,-0.0323712751269341,2.80725288391113,1.19130444526672,-0.110424235525481,2.91830391678686,1.21121495220784,2082.342,2990.287,2854.73,971.3477,-0.08358651,0.002941641,0.07414483,-0.0637879967689514,-0.415459811687469,0.218160048127174,-0.219761081350814,-0.0945570538913933,0.136042578028218,5
0.659996032714844,-0.0339758023619652,2.79886937141418,1.19582211971283,-0.114936482147704,2.9163624231229,1.21400824781511,2089.002,3000.567,2826.707,980.5984,-0.08000456,0.002566085,0.07860281,-0.0802264735102654,-0.419170260429382,0.225882664322853,-0.231569557951997,-0.0996379114822372,0.143352587560098,5
0.680000305175781,-0.0359148792922497,2.79043006896973,1.20048689842224,-0.119688496929273,2.91431776391831,1.21694997133476,2087.062,3006.48,2806.7,995.757,-0.0766005,0.002168386,0.08261067,-0.0969534888863564,-0.421970814466476,0.233237490057945,-0.243559016194652,-0.104796640417365,0.150774633349401,6
0.699996948242188,-0.0381927527487278,2.7819516658783,1.20529091358185,-0.124680083855354,2.91217002351282,1.22004000142426,2083.788,3015.389,2796.928,999.8504,-0.0735416,0.001758697,0.08619335,-0.113894000649452,-0.423921555280685,0.240198343992233,-0.255710395848158,-0.11002503961202,0.158296916205407,6
0.720001220703125,-0.040812510997057,2.77344942092896,1.21022617816925,-0.129918284978346,2.90991617190799,1.22328269744952,2074.728,3021.664,2798.575,1001.737,-0.07088216,0.001344534,0.08940594,-0.130987882614136,-0.425107091665268,0.246760830283165,-0.268023157655716,-0.11532287703907,0.16591910230247,6
0.739997863769531,-0.0437766723334789,2.76493692398071,1.21528923511505,-0.135402141159277,2.90755662179454,1.22667746565781,2066.142,3026.048,2802.9,1003.388,-0.06858066,0.000928485,0.09229464,-0.148208156228065,-0.425630301237106,0.253152936697006,-0.280478211503383,-0.120681938755799,0.173629373950669,6
0.759994506835938,-0.0470866970717907,2.75642538070679,1.22047483921051,-0.14113644597991,2.90508931062815,1.2302272735046,2057.127,3030.975,2813.991,998.1591,-0.06661152,0.000507072,0.09494941,-0.165501400828362,-0.425574570894241,0.25928208231926,-0.293070637251543,-0.126100107763583,0.181424685349205,6
0.779998779296875,-0.0507441274821758,2.7479248046875,1.2257844209671,-0.147126184485884,2.90251209348295,1.23393520697061,2049.51,3031.232,2818.237,1003.861,-0.06482134,8.518816E-05,0.09737091,-0.182871714234352,-0.425033211708069,0.2654809653759,-0.305795832832518,-0.131575403921268,0.189302187598958,6
0.799995422363281,-0.0547493658959866,2.73944354057312,1.23121559619904,-0.153369252164744,2.89982587587186,1.23779996326238,2047.085,3036.865,2823.266,997.5479,-0.06322984,-0.0003472762,0.09962722,-0.200261637568474,-0.424060344696045,0.271558463573456,-0.318634718604462,-0.13709961779199,0.197250069492735,6
0.819999694824219,-0.0591026805341244,2.73098921775818,1.23676931858063,-0.159872691993147,2.89702762739878,1.24182590231796,2041.705,3036.3,2822.012,1007.045,-0.06171556,-0.0007776431,0.101684,-0.217666581273079,-0.422718495130539,0.277686059474945,-0.331587821991737,-0.142672976311719,0.205268657531342,6
0.839996337890625,-0.063803493976593,2.72256827354431,1.24244451522827,-0.166633637018892,2.89411858163313,1.24601124935738,2042.753,3041.269,2818.604,1006.331,-0.06032752,-0.001212271,0.103559,-0.235041007399559,-0.421044766902924,0.283760696649551,-0.344636106234817,-0.148287288494656,0.213346167053785,6
0.860000610351563,-0.0688505917787552,2.714186668396,1.2482396364212,-0.173659158941841,2.89109569582005,1.2503603820997,2040.441,3043.358,2814.345,1012.713,-0.05905773,-0.00164104,0.105234,-0.252354592084885,-0.419080525636673,0.289754718542099,-0.357780475378537,-0.153942943326036,0.221483157706883,6
0.879997253417969,-0.0742422193288803,2.70584940910339,1.2541538476944,-0.180945630646592,2.88796053060595,1.25487105518773,2041.136,3047.283,2807.703,1016.806,-0.05794346,-0.002060754,0.1066981,-0.269581466913223,-0.416866987943649,0.295710414648056,-0.371001963495383,-0.159631780297098,0.229667888678032,6
0.900001525878906,-0.0799756348133087,2.69756054878235,1.26018238067627,-0.188500167066783,2.88471002463366,1.2595476731043,2039.392,3051.337,2807.264,1016.789,-0.0570497,-0.002467685,0.1079764,-0.286669999361038,-0.414441049098969,0.301429063081741,-0.384301823631742,-0.165354338558695,0.237901135662636,7
0.919998168945313,-0.0860482007265091,2.68932342529297,1.26632606983185,-0.196318384305134,2.8813460641717,1.26438752200817,2037.988,3052.947,2802.169,1024.433,-0.05634183,-0.002852245,0.1090389,-0.30362930893898,-0.411858946084976,0.307185262441635,-0.397661187980262,-0.171102499820431,0.246171218589148,7
0.939994812011719,-0.0924559235572815,2.68114042282104,1.27257764339447,-0.204404317663683,2.87786691294234,1.26939309994354,2036.8,3058.339,2809.335,1015.198,-0.05593118,-0.00322136,0.1099665,-0.320386111736298,-0.409154742956161,0.312579333782196,-0.4110765036434,-0.176874735369747,0.254475938044738,7
0.959999084472656,-0.0991958230733871,2.67301249504089,1.2789409160614,-0.212762239776093,2.87427073255068,1.27456705187416,2032.805,3056.069,2806.571,1027.966,-0.0556606,-0.003555853,0.1106956,-0.33699494600296,-0.406396597623825,0.318161994218826,-0.424544411524882,-0.18266959988136,0.262813214588797,7
0.979995727539063,-0.106263130903244,2.66494035720825,1.2854083776474,-0.22138664033507,2.87055989392801,1.27990596665734,2035.799,3063.756,2817.117,1009.355,-0.05570907,-0.00387703,0.1113505,-0.353365242481232,-0.403609871864319,0.323375076055527,-0.438046240701377,-0.188479059778567,0.271171490030365,7
1,-0.113654553890228,2.6569230556488,1.29198467731476,-0.230284798736574,2.86673126495361,1.28541435058594,2029.316,3058.361,2816.819,1025.951,-0.0558401,-0.00415826,0.1118444,-0.369570583105087,-0.400861829519272,0.328817456960678,-0.451584000205995,-0.194303979492187,0.279552008056641,7
1.01999664306641,-0.121365070343018,2.64895963668823,1.29866373538971,-0.239450461003889,2.86278753653895,1.29108833215045,2034.716,3065.579,2827.857,1005.612,-0.05623265,-0.004424576,0.1122974,-0.385527163743973,-0.398167133331299,0.333954840898514,-0.465139182559269,-0.200136395770846,0.2879433116562,7
1.04000091552734,-0.129391252994537,2.64104795455933,1.30545079708099,-0.24889099213045,2.8587255397331,1.29693247063265,2029.957,3060.256,2827.235,1021.304,-0.05666035,-0.004650944,0.1126202,-0.401309430599213,-0.395581752061844,0.339355170726776,-0.478714054341683,-0.205977283860805,0.296346803950333,7
1.05999755859375,-0.137727990746498,2.63318586349487,1.31234037876129,-0.258599401509697,2.85454828239877,1.30294243851408,2036.779,3067.131,2837.233,1001.492,-0.0573075,-0.004862399,0.1129219,-0.41683641076088,-0.393110513687134,0.344481140375137,-0.492290296490434,-0.211818761581115,0.30475114456651,7
1.08000183105469,-0.146371617913246,2.62536978721619,1.31933784484863,-0.268583149539609,2.85025255453512,1.30912285413647,2033.194,3062.019,2836.022,1016.905,-0.05796476,-0.005033907,0.1131104,-0.432181715965271,-0.390799820423126,0.349872082471848,-0.50587040849135,-0.217661904390701,0.313157880805523,7
1.09999847412109,-0.155316963791847,2.61759686470032,1.32643783092499,-0.278834517009062,2.84584167750307,1.31546893894041,2040.913,3068.763,2845.661,997.2639,-0.0588223,-0.005189968,0.1132892,-0.447266936302185,-0.388646841049194,0.35499706864357,-0.519436284009554,-0.223498921639497,0.321555803983559,7
1.1199951171875,-0.16456027328968,2.60986304283142,1.33364546298981,-0.289357002179081,2.84131414609862,1.32198285851614,2037.932,3063.832,2844.969,1011.95,-0.05968197,-0.005305017,0.1133685,-0.462165743112564,-0.386692434549332,0.360380291938782,-0.532985466132485,-0.229328756186667,0.329943393154705,8
1.13999938964844,-0.174096241593361,2.60216450691223,1.34095501899719,-0.300154365346813,2.83666834237095,1.3286669406667,2045.302,3069.912,2856.628,991.8921,-0.06072646,-0.005403554,0.1134532,-0.476800262928009,-0.38492739200592,0.365476667881012,-0.546515580872639,-0.235150386571708,0.338319178707607,8
1.15999603271484,-0.183921545743942,2.59449648857117,1.34837436676025,-0.311217811600473,2.8319080505249,1.33551574092274,2044.885,3065.723,2852.731,1007.335,-0.06175498,-0.005461611,0.1134406,-0.491265416145325,-0.38339552283287,0.370970338582993,-0.560008885098767,-0.240956178420931,0.346672176798798,8
1.18000030517578,-0.194030329585075,2.58685517311096,1.35589301586151,-0.322555076427271,2.82702994219644,1.34253404791935,2051.289,3072.59,2871.827,980.1095,-0.06301305,-0.005508482,0.1134839,-0.505437552928925,-0.382071107625961,0.375933587551117,-0.573468357077025,-0.246747413199059,0.355004231116904,8
1.19999694824219,-0.204420164227486,2.57923483848572,1.36352550983429,-0.334156660511822,2.8220381046756,1.34971598112778,2049.029,3064.139,2862.269,1008.724,-0.06413691,-0.005503688,0.1133963,-0.519492089748383,-0.381016671657562,0.381625831127167,-0.58687652428584,-0.252516572968185,0.36330452533874,8
1.22000122070313,-0.215084359049797,2.57163143157959,1.37125432491302,-0.346030421585499,2.81692915700008,1.35706640485806,2060.433,3076.513,2890.477,961.5995,-0.06558034,-0.005503688,0.1134436,-0.533212006092072,-0.380169838666916,0.386439859867096,-0.600236516861372,-0.258265004538453,0.371574997167698,8
1.23999786376953,-0.22602216899395,2.56403875350952,1.37910330295563,-0.358166167196084,2.81170748469733,1.36457900949675,2053.377,3061.271,2871.07,1013.235,-0.06672124,-0.005437642,0.1133023,-0.546889901161194,-0.379628717899323,0.392451852560043,-0.613531154887641,-0.263985315871967,0.379805011417393,8
1.25999450683594,-0.237225562334061,2.55645322799683,1.38704431056976,-0.3705671011502,2.80637170925886,1.37225577835275,2071.761,3081.622,2911.641,937.9595,-0.06832287,-0.005399826,0.1133983,-0.5601686835289,-0.379274904727936,0.397053390741348,-0.626758665639206,-0.269676744214496,0.387993470686331,8
1.27999877929688,-0.248695716261864,2.54886794090271,1.3951141834259,-0.383236695417198,2.80092033679326,1.3800988607405,2056.504,3056.113,2878.402,1023.789,-0.06938174,-0.005271994,0.1132098,-0.573509633541107,-0.379262030124664,0.403494387865067,-0.639917282339435,-0.275338529371412,0.396139281255613,8
1.29999542236328,-0.260423094034195,2.54128003120422,1.40327167510986,-0.396163740917024,2.79535819025452,1.38810131770546,2087.487,3089.246,2931.907,908.8799,-0.07112131,-0.00520648,0.1133818,-0.586367726325989,-0.379395663738251,0.407876670360565,-0.652990303744023,-0.280963485263868,0.404232104259424,8
1.31999969482422,-0.272411167621613,2.53368186950684,1.4115674495697,-0.409356423791328,2.7896817473746,1.39626821685929,2059.432,3050.626,2883.193,1038.037,-0.07206141,-0.005021656,0.1131524,-0.599403023719788,-0.379906207323074,0.414790898561478,-0.665981146317813,-0.286553081901244,0.412274054652251,8
1.33999633789063,-0.284648090600967,2.52607178688049,1.4199435710907,-0.422802873722428,2.78389611561957,1.40459220990988,2102.437,3096.839,2956.004,877.0037,-0.07393254,-0.004934305,0.1134261,-0.611846804618835,-0.380502551794052,0.418806046247482,-0.678873453515705,-0.29210028151913,0.420255006953505,8
1.36000061035156,-0.297140687704086,2.51844120025635,1.42847144603729,-0.436511415158101,2.77799771321212,1.41307845008695,2061.997,3043.268,2883.78,1059.616,-0.07466651,-0.004690359,0.1131335,-0.624630510807037,-0.381523877382278,0.42639172077179,-0.691670720740693,-0.297606588091785,0.42817712498415,9
1.37999725341797,-0.309873700141907,2.51079034805298,1.43706774711609,-0.450469530727146,2.77199192602736,1.42171918854144,2120.572,3108.088,2985.152,832.9683,-0.07671715,-0.004595551,0.113556,-0.636651754379272,-0.382538348436356,0.429815024137497,-0.704356955827446,-0.303065120637236,0.436030508832034,9
1.40000152587891,-0.322858691215515,2.50310921669006,1.44583475589752,-0.464685685951852,2.76587511158757,1.43051966583492,2060.975,3031.867,2877.856,1096.111,-0.07713154,-0.004288222,0.1131624,-0.649249970912933,-0.384054780006409,0.438348472118378,-0.716935713767318,-0.308477408768949,0.443817359206152,9
1.41999816894531,-0.336075097322464,2.49540066719055,1.4546514749527,-0.47914673136562,2.75965292774086,1.43947174182117,2142.932,3124.344,3021.76,771.4349,-0.07944422,-0.004204599,0.1137964,-0.660822689533234,-0.385426580905914,0.440835356712341,-0.729391385793766,-0.313836736470737,0.451528013536465,9
1.43999481201172,-0.349541544914246,2.48765230178833,1.46366608142853,-0.493855616658466,2.75332410531803,1.44857724249882,2054.55,3014.448,2861.938,1154.868,-0.07938138,-0.003821636,0.1132384,-0.673321902751923,-0.387424260377884,0.450730085372925,-0.7417228873516,-0.319142637088802,0.459161800431646,9
1.45999908447266,-0.363229334354401,2.47987103462219,1.47270047664642,-0.508815552717244,2.74688726276417,1.45783815555978,2170.663,3147.682,3071.073,683.1902,-0.08208821,-0.003774232,0.1141763,-0.684388041496277,-0.38906928896904,0.451719969511032,-0.753929052770513,-0.324394609067776,0.466717998286247,9
1.47999572753906,-0.377167761325836,2.4720401763916,1.48197519779205,-0.524012471663969,2.74034845309416,1.46724577231745,2041.377,2988.338,2826.678,1249.705,-0.08130205,-0.003295396,0.1133369,-0.696922183036804,-0.391548156738281,0.4637351334095,-0.765994882555672,-0.329586198544069,0.474187321698441,9
1.5,-0.39131498336792,2.46417307853699,1.49122083187103,-0.539455198877605,2.73370387899399,1.4768055561018,2209.191,3185.006,3139.345,548.4126,-0.08469491,-0.003325223,0.1147344,-0.707362294197083,-0.393353283405304,0.462282240390778,-0.777924000354858,-0.334718964672088,0.481572013878822,9
1.51999664306641,-0.405717223882675,2.4562463760376,1.50076973438263,-0.555129074991064,2.72695984797977,1.48650843206629,2010.494,2945.169,2767.233,1405.365,-0.08281206,-0.002706837,0.1134359,-0.720112502574921,-0.396334797143936,0.477444469928741,-0.789701834723693,-0.339786637766398,0.488863054409188,9
1.54000091552734,-0.420312404632568,2.44828319549561,1.5102151632309,-0.571043070329722,2.72011250037111,1.49635995326965,2264.652,3242.087,3235.462,345.4121,-0.08727498,-0.002866094,0.1155064,-0.729755818843842,-0.398156583309174,0.472270250320435,-0.801332006385301,-0.344790775723006,0.496062684689629,9
1.55999755859375,-0.435172080993652,2.44024920463562,1.5200582742691,-0.587181951496087,2.71316839067337,1.50635068951315,1957.87,2880.477,2669.35,1645.556,-0.0837692,-0.002043177,0.1134952,-0.742985427379608,-0.401696652173996,0.492158383131027,-0.812800388649436,-0.349725300221754,0.503162159625937,9
1.57999420166016,-0.450203239917755,2.43218231201172,1.52968406677246,-0.603548545866849,2.70612630234534,1.51648239107766,2342.97,3328.644,3373.615,42.4314,-0.08990086,-0.002404302,0.1165706,-0.751557648181915,-0.403345346450806,0.481289267539978,-0.824106301004481,-0.354589918457504,0.510161057949003,9
1.59999847412109,-0.465516477823257,2.42403125762939,1.53984987735748,-0.620145926473056,2.69898491314762,1.52675696031579,1869.6,2782.784,2513.563,2016.781,-0.08396148,-0.001267665,0.1134658,-0.765663623809814,-0.407558619976044,0.508289337158203,-0.835248923368005,-0.359384277571697,0.517058871988737,9
1.6199951171875,-0.48098886013031,2.41584277153015,1.54977774620056,-0.636958033083316,2.69175113334911,1.53716445517924,2134.28,3704.849,3248.857,0,-0.08996052,-0.0005944176,0.1186357,-0.773619949817657,-0.409422427415848,0.496394723653793,-0.846214826007804,-0.364102599125749,0.523847288101157,9
1.63999938964844,-0.496739327907562,2.40757131576538,1.5602160692215,-0.653994195024907,2.68442094880091,1.54771065096602,1956.263,2581.404,2442.234,2207.037,-0.08322698,0.001517686,0.1151144,-0.787520825862885,-0.413571119308472,0.521914064884186,-0.857007552155828,-0.368746407673381,0.530528499715628,9
1.65999603271484,-0.51264226436615,2.39926886558533,1.57038676738739,-0.671237824488362,2.67700149677403,1.55838527903188,2206.832,3651.469,3240.409,0,-0.08909978,0.002994786,0.1192262,-0.795145928859711,-0.415126264095306,0.5085329413414,-0.867614155697522,-0.373310132863173,0.537094492570531,9
1.68000030517578,-0.528814673423767,2.39089322090149,1.58104455471039,-0.688698391434734,2.66948870260877,1.56919420173384,2054.471,2534.255,2486.751,2124.001,-0.08304482,0.005590208,0.1143747,-0.808620095252991,-0.418784856796265,0.532889902591705,-0.878038122530658,-0.377795274579551,0.543547424602645,9
1.69999694824219,-0.545133829116821,2.3824896812439,1.59146690368652,-0.706358800111611,2.66188992212981,1.58012683598675,2185.989,3707.218,3218.817,0,-0.08943534,0.007630298,0.1175424,-0.815962255001068,-0.420182019472122,0.521120011806488,-0.888267004546665,-0.382196476749158,0.549879589839776,9
1.72000122070313,-0.561699092388153,2.37402033805847,1.60229313373566,-0.724228658537036,2.6542010212754,1.5911891296115,2127.816,2524.468,2637.05,1908.51,-0.08558387,0.01037067,0.112523,-0.828262805938721,-0.423469811677933,0.541308999061584,-0.898304216251578,-0.386515208538549,0.556093102023817,9
1.73999786376953,-0.578405141830444,2.36552143096924,1.61291003227234,-0.742290383213093,2.64642956573347,1.60237019758524,2250.9,3556.673,3317.135,0,-0.09256083,0.0122927,0.1144403,-0.835301160812378,-0.42494660615921,0.53084522485733,-0.908137821269591,-0.39074633405868,0.562180571969536,9
1.75999450683594,-0.595339238643646,2.35695290565491,1.62389671802521,-0.760546715064628,2.63857437616062,1.61367173667103,2133.523,2589.325,2804.609,1672.784,-0.09018262,0.01464364,0.1097826,-0.846706211566925,-0.428424924612045,0.549333214759827,-0.917767514700581,-0.394889722119545,0.568141810929231,9
1.77999877929688,-0.612409710884094,2.34834408760071,1.63471746444702,-0.779000609654483,2.63063418086074,1.62509557650306,2249.447,3493.373,3390.301,0,-0.09697901,0.01612589,0.1117648,-0.853524088859558,-0.430438369512558,0.541034817695618,-0.927192788821983,-0.398945154262308,0.57397650459845,9
1.79999542236328,-0.629696249961853,2.33965396881104,1.6458934545517,-0.797633790944145,2.62261684350262,1.63663040334288,2121.461,2639.364,2897.889,1540.083,-0.09476486,0.01793025,0.1082307,-0.864329934120178,-0.434505075216293,0.558802008628845,-0.936402499096495,-0.402907835303912,0.579677753977713,9
1.81999969482422,-0.647115468978882,2.33091259002686,1.65691816806793,-0.816456197270346,2.61451808789761,1.64828236949435,2288.158,3404.044,3444.01,0,-0.1007298,0.01873542,0.1107055,-0.870957911014557,-0.437066376209259,0.551237285137177,-0.945399824400851,-0.406779133026206,0.585247526943151,9
1.83999633789063,-0.664749205112457,2.32207751274109,1.66832542419434,-0.835449117627072,2.60634596486888,1.66003989195343,2091.222,2681.683,2883.707,1545.21,-0.09728794,0.01996656,0.1080093,-0.88168603181839,-0.441757649183273,0.570360124111176,-0.954174163352093,-0.410554485950274,0.590679260733698,9
1.86000061035156,-0.6825110912323,2.31318473815918,1.67958080768585,-0.854622615239374,2.59809614449182,1.6719092003358,2291.744,3425.506,3418.068,0,-0.1022611,0.02024925,0.111422,-0.888093769550323,-0.444637715816498,0.562769174575806,-0.962728579444532,-0.414235212212131,0.595974851798267,9
1.87999725341797,-0.700488567352295,2.30419278144836,1.69124126434326,-0.873957566090845,2.58977685529642,1.6838784559643,2071.301,2685.153,2798.05,1649.713,-0.09736517,0.02115354,0.1092018,-0.898872911930084,-0.449601203203201,0.583023726940155,-0.971053025860989,-0.417816988947023,0.601128080678429,9
1.90000152587891,-0.718588173389435,2.2951455116272,1.70272397994995,-0.893464153455626,2.58138371570432,1.69595396277071,2302.404,3455.931,3375.351,0,-0.1017652,0.02115139,0.1131907,-0.904983222484589,-0.452359676361084,0.57413649559021,-0.979150439632688,-0.421301079877433,0.606140765536421,9
1.91999816894531,-0.736905813217163,2.28600215911865,1.7146327495575,-0.913122862707269,2.57292512231409,1.70812364027167,2056.554,2670.945,2703.369,1778.779,-0.09577047,0.02197034,0.1108277,-0.915878355503082,-0.4571732878685,0.595437705516815,-0.987011339258123,-0.424683405378145,0.611007036871143,9
1.93999481201172,-0.755339384078979,2.27681112289429,1.72633814811707,-0.932936403420974,2.56439990927123,1.72038916582329,2279.912,3527.967,3325.72,0,-0.1000661,0.02200126,0.1151465,-0.921677589416504,-0.459534645080566,0.585268318653107,-0.994635661494588,-0.427963938237592,0.615726855532351,9
1.95999908447266,-0.773989737033844,2.26753425598145,1.73846781253815,-0.952907658613767,2.55580683609405,1.73275232415044,2057.318,2636.55,2651.421,1868.434,-0.09369107,0.02294959,0.1124312,-0.932523250579834,-0.463859140872955,0.606480658054352,-1.00202309041976,-0.431142542523221,0.620300025949072,9
1.97999572753906,-0.792751312255859,2.25822019577026,1.75037622451782,-0.973016570682103,2.54715453300902,1.74520069864106,2271.27,3559.13,3305.406,0,-0.09813056,0.02314221,0.116592,-0.938068866729736,-0.465686947107315,0.595423102378845,-1.00916501115878,-0.434215511495054,0.624721215103391,9
2,-0.811725556850433,2.24883270263672,1.76269674301147,-0.993273599084619,2.53843849960327,1.7577407641983,2068.232,2613.806,2651.905,1882.517,-0.09192486,0.02423234,0.113465,-0.948717057704926,-0.469389408826828,0.61602646112442,-1.01606400046349,-0.437183953857422,0.628992018127441,9
2.01999664306641,-0.83080643415451,2.23941850662231,1.77479195594788,-1.01365835337184,2.52966750931758,1.77035989816261,2261.747,3566.948,3309.321,0,-0.09652308,0.02456613,0.1172963,-0.954047858715057,-0.470712900161743,0.604759216308594,-1.02271203275434,-0.440044416427654,0.633107466805174,9
2.04000091552734,-0.850093901157379,2.22994184494019,1.78728318214417,-1.0341813929022,2.52083701875502,1.78306463727984,2081.663,2605.652,2682.54,1845.673,-0.09068117,0.02571225,0.1139319,-0.96437019109726,-0.473837316036224,0.624562680721283,-1.02911152474823,-0.442797939051516,0.637069057199471,9
2.05999755859375,-0.869483470916748,2.22044682502747,1.79955184459686,-1.05482201812353,2.5119559343546,1.79584216754118,2261.203,3549.935,3326.31,0,-0.09531453,0.02606063,0.117439,-0.969480991363525,-0.474746257066727,0.613434553146362,-1.03525504859546,-0.445441325732794,0.640872191117535,9
2.07999420166016,-0.889072000980377,2.21089863777161,1.81220471858978,-1.07558293843174,2.50302309033894,1.80869416619175,2087.642,2611.193,2714.325,1797.63,-0.08970219,0.02714287,0.114013,-0.979429066181183,-0.477409988641739,0.632641851902008,-1.0411426556922,-0.447974598585819,0.644516900376035,9
2.09999847412109,-0.908757567405701,2.20133900642395,1.8246374130249,-1.09646699912883,2.4940372624541,1.82162239460902,2261.583,3529.46,3341.509,0,-0.09421412,0.02738515,0.1173509,-0.984271466732025,-0.477982223033905,0.621634066104889,-1.04677411523768,-0.450397658303471,0.648003042098304,9
2.1199951171875,-0.928634881973267,2.19173336029053,1.83745121955872,-1.11745308225396,2.48500753716864,1.83461377976925,2086.239,2621.902,2722.226,1772.496,-0.0885517,0.02832884,0.1139551,-0.993865430355072,-0.480287551879883,0.64068877696991,-1.0521429102862,-0.45270770082608,0.651326581984514,9
2.13999938964844,-0.948602080345154,2.18212246894836,1.85004067420959,-1.138551967509,2.47592927627801,1.8476749948214,2256.998,3523.054,3343.021,0,-0.09289639,0.02841767,0.1173115,-0.998361349105835,-0.480549991130829,0.629470825195313,-1.05725102347782,-0.454905579228273,0.654488747383304,8
2.15999603271484,-0.968754410743713,2.17247200012207,1.86301124095917,-1.15974228854654,2.4668116731246,1.86079281297862,2075.667,2624.866,2707.706,1784.224,-0.08695274,0.02923215,0.1139361,-1.00761592388153,-0.482520431280136,0.648525834083557,-1.06209255378819,-0.456988754464129,0.657485885279498,8
2.18000030517578,-0.988988697528839,2.16282320022583,1.87574744224548,-1.18103490068612,2.45765005696766,1.87397395420079,2250.991,3527.361,3332.346,0,-0.09112325,0.02919078,0.1173614,-1.01171243190765,-0.482442945241928,0.636808931827545,-1.06666929835407,-0.458957999791384,0.660319108186354,7
2.19999694824219,-1.00940108299255,2.15314245223999,1.88886523246765,-1.20240821395574,2.44845371736898,1.88720505326679,2064.835,2621.497,2678.978,1815.242,-0.08484831,0.02991845,0.1139187,-1.02062344551086,-0.484034657478333,0.655892491340637,-1.07097597819164,-0.460811043810786,0.662985148161421,7
2.22000122070313,-1.0298867225647,2.14347124099731,1.90173470973969,-1.22387315175433,2.43921795429519,1.90049287228091,2241.342,3539.793,3315.393,0,-0.08892934,0.0298008,0.1173833,-1.02427566051483,-0.483566552400589,0.643471896648407,-1.07501419914593,-0.462548577472581,0.665484999299265,7
2.23999786376953,-1.05054271221161,2.13377690315247,1.91498422622681,-1.24540792547886,2.42995214277345,1.91382392305993,2055.197,2612.46,2648.355,1851.428,-0.08240566,0.03049252,0.1137806,-1.03280746936798,-0.484721273183823,0.662478685379028,-1.07877930973132,-0.464168599372462,0.667815782108711,5
2.25999450683594,-1.07126247882843,2.12410020828247,1.92797040939331,-1.26701526177039,2.4206551096063,1.92719989352455,2228.685,3554.238,3298.411,0,-0.08649095,0.03035381,0.1172162,-1.03598666191101,-0.48383042216301,0.649311065673828,-1.08227143928024,-0.465671165158559,0.669977576652695,4
2.27999877929688,-1.09214401245117,2.11440992355347,1.941330909729,-1.28869796983554,2.41132564607061,1.9406225227075,2046.8,2600.034,2627.034,1879.111,-0.07984796,0.03104412,0.1134096,-1.04407465457916,-0.484508991241455,0.668022751808167,-1.08549040888332,-0.467056197851165,0.67197027217779,3
2.29999542236328,-1.11307954788208,2.10474586486816,1.95441687107086,-1.31043401044317,2.40197323503182,1.95407816727483,2220.084,3562.449,3283.088,0,-0.08398438,0.0309021,0.1167201,-1.04677844047546,-0.483197718858719,0.654296934604645,-1.08843251702753,-0.468322104792631,0.6737915772711,0
2.31999969482422,-1.13416635990143,2.09507775306702,1.96786653995514,-1.33223444283894,2.39259311800549,1.96757367342642,2040.633,2591.595,2617.054,1887.586,-0.07739466,0.03158084,0.1127296,-1.05434155464172,-0.48340055346489,0.672480821609497,-1.09109887036509,-0.469469362144493,0.675442177003072,0
2.33999633789063,-1.15529727935791,2.08544373512268,1.98103106021881,-1.35407709248145,2.38319483607731,1.98109531406483,2213.235,3557.692,3278.122,0,-0.08160724,0.03140827,0.1158612,-1.05654799938202,-0.4816954433918,0.658225059509277,-1.09348640563071,-0.470496651869278,0.67692017506657,0
2.36000061035156,-1.17656850814819,2.07581424713135,1.99455177783966,-1.37597305876702,2.37377361348711,1.99464996024512,2031.943,2588.473,2610.83,1888.621,-0.07506972,0.03204272,0.1117146,-1.06356298923492,-0.481475472450256,0.676037728786469,-1.09559602313537,-0.471404361345641,0.678226128796969,0
2.37999725341797,-1.19787359237671,2.06622552871704,2.00777888298035,-1.39790005743958,2.36433903852774,2.00822381695123,2201.427,3557.881,3271.771,0,-0.07932758,0.03182205,0.1147457,-1.06525313854218,-0.47943240404129,0.661359310150146,-1.09742530100382,-0.472191448508328,0.679358538938131,0
2.39999389648438,-1.21930742263794,2.05664825439453,2.02135491371155,-1.41986083522252,2.35488992936084,2.02181858453579,2021.518,2584.43,2602.396,1892.963,-0.07278952,0.03239978,0.1105084,-1.071692943573,-0.478846281766891,0.678803265094757,-1.09897439291323,-0.472857979480329,0.680317500623536,0
2.41999816894531,-1.24076437950134,2.04711866378784,2.03462696075439,-1.44185817738692,2.34542508756209,2.03543598721428,2192.233,3552.34,3267.151,0,-0.07704152,0.03210974,0.1134623,-1.07284331321716,-0.476497054100037,0.663598358631134,-1.10024313330221,-0.473403883025206,0.681102911362803,0
2.43999481201172,-1.26233887672424,2.03760671615601,2.04824638366699,-1.46386968334064,2.3359541514805,2.04906215795307,2011.15,2581.674,2582.904,1906.577,-0.07039587,0.03262066,0.1091135,-1.07872974872589,-0.475588649511337,0.68097597360611,-1.10123006676374,-0.473828532921971,0.681713870189648,0
2.45999908447266,-1.28392517566681,2.02814769744873,2.0615496635437,-1.48590651627916,2.32647231790489,2.06270400730194,2176.094,3560.833,3253.908,0,-0.07465799,0.03227942,0.1120758,-1.07931113243103,-0.472959458827972,0.665169596672058,-1.10193556692257,-0.474132089930926,0.682150608395601,0
2.47999572753906,-1.30561757087708,2.01871299743652,2.0751965045929,-1.50794623031618,2.31698924467309,2.07634764018804,1998.509,2571.583,2560.338,1931.741,-0.06787332,0.03275371,0.1076118,-1.08461856842041,-0.471740245819092,0.682344317436218,-1.10235882472314,-0.474314205938057,0.682412625136718,0
2.5,-1.32731008529663,2.00933623313904,2.08851456642151,-1.52999999932945,2.30750012397766,2.08999997377396,2165.866,3564.252,3239.378,0,-0.07214503,0.03237662,0.1105234,-1.08462536334991,-0.468832910060883,0.665903508663177,-1.10250000050292,-0.474374949932098,0.682500019669533,0
2.51999664306641,-1.34909653663635,1.99999022483826,2.10217118263245,-1.55204535801192,2.29801462201262,2.10364710096447,1987.729,2562.719,2538.878,1952.331,-0.06527194,0.03281953,0.1059081,-1.08932936191559,-0.467299461364746,0.682833135128021,-1.10235893238473,-0.47431425226183,0.68241269178437,0
2.54000091552734,-1.37087166309357,1.99070763587952,2.11548733711243,-1.57409348237975,2.28852793005043,2.11729594024597,2154.676,3568.608,3224.576,0,-0.06959532,0.03241448,0.1087422,-1.08875262737274,-0.46412381529808,0.665803074836731,-1.10193556692257,-0.474132089930926,0.682150608395601,0
2.55999755859375,-1.39272797107697,1.98146200180054,2.12913513183594,-1.59612191359838,2.27904971150017,2.13093258853001,1976.678,2554.585,2521.612,1967.671,-0.06270999,0.03282592,0.1039833,-1.09281742572784,-0.462288796901703,0.682392537593842,-1.10123038958312,-0.473828671822132,0.681714070030222,0
2.57999420166016,-1.4145610332489,1.97228467464447,2.14243125915527,-1.61813342708139,2.26957877217893,2.14455876392979,2144.698,3568.283,3213.051,0,-0.06711059,0.03238567,0.1067185,-1.09165179729462,-0.458867907524109,0.664810121059418,-1.10024356351463,-0.47340406813359,0.681103177684783,0
2.59999847412109,-1.43646204471588,1.96314942836761,2.15605163574219,-1.64013077892511,2.26011392621545,2.15817617260023,1963.191,2548.001,2509.959,1977.918,-0.06023538,0.03275533,0.1018436,-1.09505355358124,-0.45676064491272,0.681017875671387,-1.09897493039424,-0.472858210743393,0.680317833349887,0
2.6199951171875,-1.45832812786102,1.95408689975739,2.1693127155304,-1.66209156852628,2.2506648119635,2.17177094750084,2138.313,3565.259,3200.649,0,-0.06469617,0.03226096,0.1044762,-1.09331119060516,-0.453129321336746,0.663051307201385,-1.09742594550583,-0.472191725819537,0.679358937915576,0
2.63999938964844,-1.48024868965149,1.94507110118866,2.1828887462616,-1.68402693989188,2.24122663446822,2.18534998730279,1949.119,2545.387,2500.866,1981.658,-0.05787475,0.03256529,0.0995413,-1.096027135849,-0.450785994529724,0.678802609443665,-1.09559602313537,-0.471404361345641,0.67822612879697,0
2.65999603271484,-1.50212299823761,1.93613171577454,2.19609618186951,-1.70591456353497,2.23180900148401,2.19889946898997,2133.617,3553.704,3194.861,0,-0.06238455,0.03198349,0.1020754,-1.09370350837708,-0.446972846984863,0.660370230674744,-1.09348726343002,-0.470497020956359,0.676920706085208,0
2.68000030517578,-1.52403819561005,1.92724299430847,2.2096152305603,-1.72776555581996,2.22240712994983,2.2124262741215,1931.776,2545.875,2487.01,1990.833,-0.05552265,0.03220151,0.09708806,-1.09576594829559,-0.444438308477402,0.675954699516296,-1.09109887036509,-0.469469362144494,0.675442177003072,0
2.69999694824219,-1.54589557647705,1.91843342781067,2.22275686264038,-1.74955768413056,2.21303058593937,2.22591663964878,2122.041,3554.167,3183.398,0,-0.06005002,0.03153685,0.09962798,-1.09286284446716,-0.440473437309265,0.657077848911285,-1.08843358680109,-0.468322565086308,0.673792239511893,0
2.72000122070313,-1.56778109073639,1.9096782207489,2.23620700836182,-1.77130202882336,2.20367460188472,2.23937742484041,1914.223,2541.855,2467.058,2010.466,-0.05308,0.03168354,0.0946137,-1.09428536891937,-0.437768429517746,0.67250782251358,-1.08549040888332,-0.467056197851165,0.671970272177789,0
2.73999786376953,-1.58959722518921,1.90100514888763,2.24926853179932,-1.79297647980783,2.19434869114016,2.25279494249708,2114.175,3551.489,3171.104,0,-0.0576079,0.03094433,0.09715001,-1.09080910682678,-0.433652460575104,0.653070688247681,-1.08227271937422,-0.465671715947234,0.669978369091845,0
2.75999450683594,-1.61142945289612,1.89238965511322,2.26263761520386,-1.81458384274179,2.18505164650952,2.26617092945464,1897.118,2536.852,2442.363,2035.762,-0.05048554,0.03103264,0.09206152,-1.09161460399628,-0.430773437023163,0.668458104133606,-1.07878069424208,-0.464169195088763,0.667816639186824,0
2.77999877929688,-1.63318085670471,1.88385939598083,2.27560615539551,-1.83612684690458,2.17578229366013,2.27950707526701,2101.468,3556.244,3156.028,0,-0.05502144,0.03024776,0.09460941,-1.08756768703461,-0.426499903202057,0.648423492908478,-1.07501419914593,-0.462548577472581,0.665484999299265,0
2.79999542236328,-1.65493631362915,1.87539076805115,2.28888249397278,-1.85758361379882,2.16655004629821,2.2927898361021,1883.856,2529.036,2413.505,2064.203,-0.04776433,0.03030088,0.08941158,-1.08776295185089,-0.423436224460602,0.663813352584839,-1.07097756992209,-0.460811728687929,0.662986133518392,0
2.81999969482422,-1.67659914493561,1.86701083183289,2.30174493789673,-1.87896509797278,2.15735019098767,2.30602599334712,2087.301,3563.812,3139.408,0,-0.0523668,0.02950044,0.09195772,-1.08314561843872,-0.419000744819641,0.643128395080566,-1.06666929835407,-0.458957999791384,0.660319108186353,0
2.83999633789063,-1.69825339317322,1.85869574546814,2.31491231918335,-1.90024960698239,2.14819206138118,2.31920211834584,1869.623,2517.551,2390.06,2091.715,-0.04502553,0.02954471,0.08662914,-1.08271420001984,-0.415746003389359,0.658370673656464,-1.06209435025759,-0.456989527434725,0.657486997379635,0
2.86000061035156,-1.7198041677475,1.85047292709351,2.32765555381775,-1.9214480311499,2.13907097167731,2.33232495272651,2076.207,3567.564,3124.013,0,-0.04969832,0.02874456,0.08911738,-1.07754361629486,-0.411153554916382,0.637157499790192,-1.05725102347782,-0.454905579228273,0.654488747383304,0
2.87999725341797,-1.74133348464966,1.84231853485107,2.34069800376892,-1.94253888918396,2.12999616467562,2.34538119854648,1857.686,2508.689,2373.943,2106.749,-0.04236344,0.02877644,0.08367251,-1.07646119594574,-0.407712250947952,0.652121067047119,-1.05214490868305,-0.452708560680416,0.651327819087361,0
2.89999389648438,-1.76274836063385,1.83425903320313,2.35330748558044,-1.96352501326936,2.1209664217661,2.35837260906308,2068.392,3564.016,3112.93,0,-0.04711878,0.02795929,0.08606382,-1.07074797153473,-0.402980774641037,0.630470454692841,-1.04677621342161,-0.450398561093403,0.648004340974112,0
2.91999816894531,-1.78412842750549,1.82627105712891,2.36620998382568,-1.98440911693069,2.11198057539494,2.37130086407726,1843.14,2504.039,2364.049,2113.818,-0.03981905,0.02795671,0.0805427,-1.06900131702423,-0.399378955364227,0.645121991634369,-1.04114485287423,-0.447975543971863,0.644518260536375,0
2.93999481201172,-1.80538368225098,1.81838059425354,2.37867403030396,-2.00517008215741,2.10304771205211,2.38415289053452,2064.149,3557.225,3101.689,0,-0.0446399,0.02709086,0.08284305,-1.06276333332062,-0.394537925720215,0.623197674751282,-1.03525734386973,-0.445442313325187,0.640873612001643,0
2.95999908447266,-1.82659077644348,1.81056427955627,2.39142417907715,-2.02581860575671,2.0941632292003,2.39693531026807,1826.563,2504.228,2355.424,2116.459,-0.0373993,0.02702406,0.07731149,-1.06034922599792,-0.390810012817383,0.637506365776062,-1.02911152474823,-0.442797939051516,0.637069057199471,0
2.97999572753906,-1.84766268730164,1.80284667015076,2.40372848510742,-2.04633384260397,2.08533609591429,2.40963521915279,2060.997,3543.454,3096.158,0,-0.04226756,0.02607242,0.0795457,-1.05359387397766,-0.385884672403336,0.61521178483963,-1.02271452148052,-0.440045487257004,0.633109007445237,0
3,-1.86867368221283,1.79520535469055,2.4163179397583,-2.06672639957428,2.07656174835205,2.42225918334961,1806.516,2506.881,2340.649,2126.914,-0.03497583,0.02591865,0.07401725,-1.05055451393127,-0.382064640522003,0.629475474357605,-1.01606400046349,-0.437183953857422,0.628992018127441,0
3.01999664306641,-1.88953971862793,1.7876638174057,2.42845392227173,-2.08697572864857,2.06784902775215,2.4347944826559,2051.446,3541.468,3084.816,0,-0.0398574,0.02488476,0.07629252,-1.04329645633698,-0.37707132101059,0.606798946857452,-1.00916768936771,-0.434216663853534,0.624722873042298,0
3.04000091552734,-1.9103330373764,1.78020060062408,2.44087505340576,-2.10709234004513,2.05919341186127,2.44724762339747,1786.422,2504.428,2318.583,2149.698,-0.03243091,0.02466113,0.07078175,-1.03966462612152,-0.373163878917694,0.621053159236908,-1.00202309041976,-0.43114254252322,0.620300025949072,0
3.05999755859375,-1.93097150325775,1.77283883094788,2.45283246040344,-2.12705600675913,2.05060360379452,2.45960608409476,2044.985,3537.984,3071.722,0,-0.03730716,0.02355886,0.07308894,-1.03192543983459,-0.368090033531189,0.597868144512177,-0.994638524886308,-0.427965170275055,0.615728628108227,0
3.07999420166016,-1.95152604579926,1.76555740833282,2.4650764465332,-2.14686960564145,2.04207836572333,2.47187164565552,1767.786,2500.137,2291.589,2178.275,-0.02970863,0.0232824,0.06753872,-1.02773261070251,-0.364073544740677,0.61220395565033,-0.987014293508169,-0.424684676509408,0.611008865692653,0
3.09999847412109,-1.97191667556763,1.75837957859039,2.47684574127197,-2.16653584520328,2.033616532251,2.4840459847772,2034.448,3541.416,3055.754,0,-0.03459659,0.02214405,0.0698771,-1.01952707767487,-0.358899295330048,0.588468492031097,-0.979150439632689,-0.421301079877433,0.606140765536421,0
3.1199951171875,-1.99221241474152,1.75128448009491,2.48890352249146,-2.18603502400946,2.02522658035469,2.49611690533293,1753.304,2492.995,2262.107,2208.131,-0.02686544,0.02184014,0.06424424,-1.01478493213654,-0.354748576879501,0.602886259555817,-0.971056158224178,-0.417818336715394,0.601130019760458,0
3.13999938964844,-2.01233506202698,1.74429512023926,2.50047469139099,-2.20537738341953,2.01690410346351,2.50809074721212,2022.725,3546.578,3039.268,0,-0.03182691,0.02069641,0.06658577,-1.0061240196228,-0.349461555480957,0.578562557697296,-0.962728579444533,-0.414235212212131,0.595974851798267,0
3.15999603271484,-2.03235125541687,1.73739206790924,2.51233291625977,-2.22454360124808,2.00865741537402,2.51995554906156,1738.076,2483.416,2239.085,2234.671,-0.02403077,0.02038931,0.06085214,-1.00082528591156,-0.345166474580765,0.592908620834351,-0.95417746870157,-0.410555908149813,0.590681306902481,0
3.18000030517578,-2.05218601226807,1.7305965423584,2.52369546890259,-2.24354380138856,2.00048216005771,2.53171757805356,2013.829,3547.531,3024.775,0,-0.02907533,0.01925308,0.06314294,-0.991728127002716,-0.339770376682281,0.568123757839203,-0.94539982440085,-0.406779133026206,0.58524752694315,0
3.19999694824219,-2.07190322875977,1.72388982772827,2.5353410243988,-2.2623590635174,1.99238647840124,2.54336512160655,1724.426,2477.039,2223.347,2249.049,-0.02130049,0.01893942,0.05732952,-0.985859751701355,-0.335338562726974,0.582282721996307,-0.936405971974636,-0.402909329586355,0.579679903854719,0
3.21999359130859,-2.09142994880676,1.71729278564453,2.54648327827454,-2.28099231507127,1.9843691108104,2.55489999194326,2007.541,3541.686,3014.861,0,-0.0264356,0.01779419,0.05954261,-0.97633957862854,-0.329852163791656,0.557117819786072,-0.927196343299057,-0.398946683654493,0.573978704989081,0
3.23999786376953,-2.11082768440247,1.71078670024872,2.55790519714355,-2.29944628156995,1.97642888457015,2.56632387629027,1708.248,2474.709,2212.192,2257.382,-0.01869486,0.01745401,0.0536897,-0.969900965690613,-0.325310796499252,0.571099162101746,-0.917771149318993,-0.394891285994308,0.568144060931169,0
3.25999450683594,-2.13002753257751,1.70439147949219,2.56881880760193,-2.31770268688992,1.96857366338589,2.57762546085652,2003.746,3534.163,3004.327,0,-0.02390187,0.01627356,0.05584463,-0.959975600242615,-0.319759756326675,0.545686483383179,-0.90814153446928,-0.390747931744771,0.562182870617026,0
3.27999877929688,-2.14908695220947,1.69808864593506,2.58000826835632,-2.33577134012187,1.96079922667992,2.58881081793642,1690.204,2475.768,2201.022,2264.02,-0.01619841,0.0158851,0.05000875,-0.952975988388062,-0.31513723731041,0.559476494789124,-0.898304216251578,-0.386515208538549,0.556093102023818,0
3.29999542236328,-2.16793990135193,1.6918979883194,2.59068274497986,-2.35363442159312,1.95311324175956,2.5998689163037,2001.222,3521.021,2998.064,0,-0.02145709,0.01464204,0.05212661,-0.942662000656128,-0.309541434049606,0.533720552921295,-0.888270870184445,-0.382198140025101,0.549881982853707,0
3.31999969482422,-2.18664264678955,1.68580079078674,2.60163426399231,-2.37130160722417,1.94551154534655,2.61080574581408,1670.375,2478.39,2183.994,2277.43,-0.01369983,0.01418758,0.04631024,-0.935138404369354,-0.30485874414444,0.547574162483215,-0.878038122530657,-0.377795274579551,0.543547424602645,0
3.33999633789063,-2.20513200759888,1.67981624603271,2.61206340789795,-2.38875555478454,1.93800159931817,2.62161057080077,1993.438,3517.96,2986.706,0,-0.01898994,0.01288706,0.04847347,-0.924456059932709,-0.299225121736526,0.521453142166138,-0.867618167158097,-0.373311858882592,0.53709697585572,0
3.36000061035156,-2.22346091270447,1.67392635345459,2.62277102470398,-2.406005803634,1.93057929915441,2.6322892965819,1650.876,2476.279,2161.538,2300.672,-0.01112136,0.01238224,0.04268026,-0.916440844535828,-0.294479608535767,0.535378932952881,-0.857007552155826,-0.36874640767338,0.530528499715627,0
3.37999725341797,-2.24156904220581,1.66815090179443,2.63294696807861,-2.42303550945299,1.9232518924954,2.64283149572124,1988.435,3513.57,2973.94,0,-0.0164349,0.01103915,0.04487106,-0.90541809797287,-0.288796663284302,0.508802950382233,-0.846218976345105,-0.364104384899943,0.523849857357654,0
3.39999389648438,-2.25950813293457,1.66247141361237,2.64340376853943,-2.43984769972619,1.91601807669906,2.65323904237604,1633.346,2472.928,2136.444,2326.309,-0.008449145,0.01049823,0.039054,-0.896937906742096,-0.283969730138779,0.522843718528748,-0.835253140422974,-0.35938609205264,0.51706148254665,0
3.41999816894531,-2.27721977233887,1.656907081604,2.65331959724426,-2.45644516534361,1.90887665092339,2.66351366424015,1980.645,3513.311,2960.034,0,-0.01380902,0.009137072,0.04126147,-0.885594308376312,-0.278224557638168,0.495786160230637,-0.824110582941664,-0.354591760855451,0.510163708672097,0
3.43999481201172,-2.29475331306458,1.65144097805023,2.66351819038391,-2.4728118459714,1.90183452548138,2.67364541920187,1619.002,2468.076,2111.181,2350.708,-0.005754026,0.008577431,0.03539237,-0.876662075519562,-0.273302286863327,0.509929120540619,-0.812804733542555,-0.349727169707881,0.503164849321754,0
3.45999908447266,-2.31205344200134,1.64609098434448,2.67316603660583,-2.48895692832918,1.89488774758421,2.68363999427827,1972.084,3513.905,2946.365,0,-0.01120818,0.007218832,0.0375971,-0.865013837814331,-0.267493158578873,0.482391983270645,-0.801332006385299,-0.344790775723006,0.496062684689628,0
3.47999572753906,-2.32916641235352,1.64084148406982,2.68309640884399,-2.50486489870395,1.88804299234919,2.69348778574196,1603.562,2462.284,2091.661,2371.579,-0.003139334,0.006657615,0.03167685,-0.855633497238159,-0.262480437755585,0.496518135070801,-0.789706299681989,-0.339788558913217,0.488865818431069,0
3.5,-2.34604048728943,1.63570892810822,2.6924684047699,-2.5205447997813,1.88129636896134,2.70319439144611,1965.974,3510.464,2935.032,0,-0.008690427,0.005308119,0.03384647,-0.843699634075165,-0.256619781255722,0.468603610992432,-0.777924000354857,-0.334718964672089,0.481572013878822,0
3.51999664306641,-2.36271786689758,1.63067817687988,2.70212173461914,-2.53598168290031,1.87465430941181,2.7127505574575,1588.866,2459.464,2077.016,2384.138,-0.0006562029,0.004740668,0.02789931,-0.833874940872192,-0.251534134149551,0.482664793729782,-0.765999459475408,-0.329588167864767,0.474190155029786,0
3.54000091552734,-2.37915086746216,1.6257655620575,2.71121048927307,-2.55118444594166,1.86811298519115,2.72216179198813,1961.553,3503.163,2926.418,0,-0.006303702,0.003387738,0.0300296,-0.821672081947327,-0.24564303457737,0.454440504312515,-0.753929052770513,-0.324394609067776,0.466717998286246,0
3.55999755859375,-2.39537954330444,1.62095510959625,2.72058010101318,-2.56613872308604,1.86167857751006,2.73141920191151,1573.097,2459.461,2063.926,2393.762,0.001691063,0.00280083,0.0240879,-0.811415672302246,-0.240510940551758,0.468475103378296,-0.741727567798258,-0.319144650954242,0.459164697851087,0
3.57999420166016,-2.41135859489441,1.61626327037811,2.72937941551208,-2.58084770246059,1.8553497146065,2.74052476083022,1957.38,3494.762,2918.967,0,-0.00403895,0.001430528,0.02620476,-0.798963129520416,-0.234610959887505,0.439960420131683,-0.729396114728537,-0.313838771199258,0.451530940972359,0
3.59999847412109,-2.42712473869324,1.6116738319397,2.73845982551575,-2.59531431270705,1.84912513636775,2.74948028171299,1555.517,2460.104,2050.081,2405.697,0.003958395,0.0008151312,0.0202953,-0.788297951221466,-0.229454383254051,0.454023569822311,-0.716935713767317,-0.308477408768949,0.443817359206151,0
3.6199951171875,-2.4426372051239,1.60720264911652,2.74696516990662,-2.60952509409627,1.84301063413925,2.75827743234631,1955.468,3486.928,2909.029,0,-0.00183332,-0.0005816344,0.0224169,-0.77562141418457,-0.22355642914772,0.425267904996872,-0.704361775018033,-0.303067194200314,0.436033492140578,0
3.63999938964844,-2.45792841911316,1.60283517837524,2.75575232505798,-2.6234885835008,1.83700253474321,2.76692149746096,1538.103,2461.533,2034.212,2418.988,0.00617033,-0.001229848,0.01655406,-0.764573574066162,-0.218383476138115,0.439355105161667,-0.691670720740692,-0.297606588091786,0.428177124984152,0
3.65999603271484,-2.47296261787415,1.59858524799347,2.76396322250366,-2.63719194552437,1.83110636089208,2.77540453133521,1943.435,3485.062,2889.831,14.00735,0.0004032703,-0.002617887,0.01870528,-0.751703977584839,-0.212492033839226,0.41053968667984,-0.678878353700696,-0.292102389931838,0.420258040401444,0
3.68000030517578,-2.48776865005493,1.59443950653076,2.77245092391968,-2.65064357486757,1.82531850058072,2.78373173068862,1527.538,2461.243,2020.21,2424.953,0.008361262,-0.00327196,0.01290796,-0.74029803276062,-0.207292377948761,0.424383193254471,-0.665981146317811,-0.286553081901244,0.412274054652249,0
3.69999694824219,-2.50231409072876,1.59041118621826,2.78036952018738,-2.66383127580226,1.81964420129024,2.79189554578451,1921.265,3484.211,2855.645,53.47326,0.002768532,-0.004580637,0.01503184,-0.727271020412445,-0.201400771737099,0.395930022001266,-0.65299527533123,-0.280965624398954,0.404235181908735,0
3.71999359130859,-2.51662445068359,1.58648872375488,2.78854775428772,-2.6767584210412,1.81408201183655,2.79989806449274,1529.177,2463.135,2016.496,2405.229,0.0104969,-0.005196893,0.009326477,-0.715517461299896,-0.196149289608002,0.408917546272278,-0.639922285921447,-0.275340682272968,0.396142378711232,0
3.73999786376953,-2.5306715965271,1.58268344402313,2.79617238044739,-2.68942811570037,1.808630596175,2.80774120902801,1899.984,3467.55,2816.499,114.7524,0.005173555,-0.00638626,0.01124711,-0.702356994152069,-0.190255105495453,0.381229132413864,-0.626763698705669,-0.269678909802388,0.38799658639423,0
3.75999450683594,-2.54447627067566,1.57898461818695,2.80403065681458,-2.70182915057228,1.80329477731443,2.81541804035694,1539.143,2476.646,2026.927,2351.066,0.01243389,-0.006956177,0.005657527,-0.690248012542725,-0.184949934482574,0.392910331487656,-0.613536214864365,-0.263987493038594,0.379808143784027,0
3.77999877929688,-2.5580153465271,1.5754029750824,2.81135869026184,-2.7139695770734,1.79807109095524,2.82293354268985,1876.298,3441.317,2775.743,191.4282,0.007399125,-0.008019843,0.007280944,-0.676952540874481,-0.179078802466393,0.366399794816971,-0.60023651686137,-0.258265004538452,0.371574997167698,0
3.79999542236328,-2.57130527496338,1.57192778587341,2.81888628005981,-2.72583886061506,1.79296406983666,2.83028119461452,1548.457,2501.181,2052.217,2271.288,0.01400367,-0.008548214,0.001910162,-0.664482414722443,-0.173764288425446,0.376385152339935,-0.586881630238189,-0.252518769916838,0.363307686166475,0
3.81999969482422,-2.58432626724243,1.56856846809387,2.82591557502747,-2.73744492223163,1.78797030575888,2.83746589962856,1849.559,3404.486,2733.853,284.6486,0.009348388,-0.009495234,0.003213933,-0.651052057743073,-0.167968600988388,0.351469755172729,-0.573468357077023,-0.246747413199059,0.355004231116903,0
3.83999633789063,-2.59709072113037,1.56531429290771,2.83310604095459,-2.74877791451009,1.78309403578861,2.84448156171422,1558.649,2535.293,2086.317,2172.11,0.01521852,-0.009998572,-0.001812547,-0.638239860534668,-0.162701934576035,0.359525293111801,-0.560014026276881,-0.240958390526246,0.346675359432959,0
3.86000061035156,-2.60958456993103,1.56217384338379,2.83983635902405,-2.75984563331209,1.77833190558438,2.85133300688122,1821.596,3358.851,2689.106,392.1479,0.01106458,-0.01084652,-0.0008165252,-0.624687612056732,-0.157030299305916,0.336510717868805,-0.546515580872635,-0.235150386571708,0.338319178707605,0
3.87999725341797,-2.62181615829468,1.5591367483139,2.84668684005737,-2.77063893010371,1.77368785150474,2.85801457175126,1570.055,2575.728,2122.332,2063.635,0.0162099,-0.01133814,-0.005411011,-0.611578524112701,-0.151850938796997,0.342526972293854,-0.532990631455729,-0.229330978680956,0.329946590735853,0
3.89999389648438,-2.63377475738525,1.55621004104614,2.85311818122864,-2.78116151864576,1.76916027562219,2.86452855531919,1794.783,3307.544,2640.774,508.7711,0.01265623,-0.01210407,-0.004719121,-0.597927868366241,-0.146328777074814,0.321564048528671,-0.519441457145543,-0.223501147495394,0.321559006401168,0
3.91999816894531,-2.64546632766724,1.55338513851166,2.85962843894958,-2.79141684911929,1.7647476934202,2.87087709341145,1582.766,2619.952,2156.215,1952.667,0.01710793,-0.01258876,-0.008853412,-0.584578335285187,-0.141248852014542,0.325514733791351,-0.505870408491346,-0.2176619043907,0.313157880805522,0
