t,x_s1,x_s2,x_s3,x_s_d1,x_s_d2,x_s_d3,propellers_rpms1,propellers_rpms2,propellers_rpms3,propellers_rpms4,rollRad,pitchRad,yawRad,v_s1,v_s2,v_s3,v_s_d1,v_s_d2,v_s_d3,insideCount
0,-0.0599999986588955,2.94000005722046,1.17999994754791,-0.0599999986588955,2.94000005722046,1.17999994754791,0,0,0,0,0,45.0048027038574,0,0,0,0,-1.06581410364015E-15,4.44089209850063E-16,4.44089209850063E-16,0
0.0199966430664063,-0.0599999986588955,2.94000005722046,1.17705690860748,-0.0600018680476204,2.93999925287472,1.18000110478858,0,0,0,0,0.937003672122955,44.8630027770996,-0.00115976633969694,3.71994488546079E-08,3.50004931704007E-08,-0.147149950265884,-0.000279892991557604,-0.000120430134961378,0.000173267094926113,5
0.0399971008300781,-0.0599999986588955,2.94000005722046,1.17018985748291,-0.0600148681826738,2.93999365927978,1.18000915249146,0,0,0,0,1.87400352954865,44.7211418151855,-0.00311126722954214,3.70364325874561E-08,3.5142885934647E-08,-0.343349903821945,-0.00111080915396111,-0.000477950146533378,0.000687643781479785,6
0.05999755859375,-0.0599062219262123,2.94009447097778,1.16346526145935,-0.0600498857373401,2.93997859220429,1.18003083002592,3197.521,2848.859,1517.268,2782.404,1.4035724401474,44.7413597106934,0.0289093926548958,0.0046888617798686,0.00471903523430228,-0.336230486631393,-0.00247936261166862,-0.00106680046642749,0.00153484356504269,6
0.0799980163574219,-0.0597377754747868,2.94026732444763,1.1572380065918,-0.0601175407449857,2.93994948214456,1.18007271169851,2865.712,2651.858,2344.825,2562.41,0.339533179998398,44.8158378601074,0.0998035222291946,0.00842237565666437,0.00864489004015923,-0.311362147331238,-0.00437227586895222,-0.00188126815916228,0.00270664704326441,6
0.0999984741210938,-0.0595562867820263,2.94046425819397,1.15152072906494,-0.0602281887669101,2.93990187339187,1.18014120809498,2240.054,2528.303,3138.292,2508.774,359.321502685547,44.9191398620605,0.178526893258095,0.00907440483570099,0.0098490584641695,-0.285862326622009,-0.00677637982016689,-0.00291568692648091,0.00419490191241918,5
0.119998931884766,-0.0594243854284286,2.94063210487366,1.14657127857208,-0.0603919230601972,2.93983142309968,1.18024256742227,2124.069,2455.022,3352.121,2464.688,358.749938964844,44.999927520752,0.253304898738861,0.00659509561955929,0.00839799083769321,-0.247470006346703,-0.00967861374975049,-0.00416443710735115,0.00599152296740588,5
0.139999389648438,-0.0593829788267612,2.94074010848999,1.1425746679306,-0.0606185767455666,2.93973390035084,1.18038287685052,2312.519,2456.923,3069.504,2463.644,358.636169433594,45.0327033996582,0.326367825269699,0.0020702606998384,0.00539796426892281,-0.199831634759903,-0.0130660253322238,-0.00562194567796536,0.00808849210174802,5
0.159999847412109,-0.0594433546066284,2.9407856464386,1.13953077793121,-0.0609177249752248,2.93960518522485,1.18056806385509,2536.954,2487.062,2635.808,2492.27,358.757049560547,45.0250396728516,0.398171931505203,-0.0030188811942935,0.00227832794189453,-0.152192488312721,-0.0169257706321904,-0.00728268625174051,0.0104778583075938,5
0.179996490478516,-0.0596000924706459,2.94078159332275,1.13731873035431,-0.0612986060586912,2.93944130273522,1.18080384738964,2666.91,2506.434,2302.929,2513.61,358.864410400391,44.9986000061035,0.467296987771988,-0.00783687643706799,-0.000198954017832875,-0.110602587461472,-0.0212442472567593,-0.00914080609902243,0.0131512010557717,5
0.199996948242188,-0.0598476752638817,2.94073963165283,1.13577437400818,-0.0617704296168641,2.93923829023936,1.18109592864822,2653.878,2500.528,2183.828,2509.02,358.817260742188,44.9744529724121,0.53276789188385,-0.012379165738821,-0.00209276331588626,-0.077215850353241,-0.0260104776919234,-0.0111915819022102,0.0161017247421801,5
0.219997406005859,-0.0601896308362484,2.94066190719604,1.13476347923279,-0.0623419453860714,2.93899238297017,1.18144972413443,2540.905,2471.024,2246.114,2479.327,358.612823486328,44.963737487793,0.594431161880493,-0.0170977264642715,-0.00388273573480546,-0.0505448020994663,-0.0312111627562649,-0.0134292913950757,0.0193211965399932,5
0.239997863769531,-0.0606389082968235,2.94054126739502,1.13421714305878,-0.0630217183703222,2.93869989564571,1.18187053599376,2412.318,2430.21,2374.614,2437.845,358.335083007813,44.9659652709961,0.65251350402832,-0.0224638637155294,-0.00603310205042362,-0.0273166541010141,-0.0368338920540454,-0.0158485947310391,0.02280193382306,5
0.259998321533203,-0.0612132959067822,2.9403657913208,1.13412094116211,-0.063818066443955,2.93835724931701,1.18236351338666,2330.223,2392.528,2463.06,2399.107,358.076812744141,44.9739379882813,0.707611858844757,-0.028719387948513,-0.00877000391483307,-0.00481048598885536,-0.04286636357961,-0.0184441987007453,0.0265363210638542,4
0.279998779296875,-0.0619298592209816,2.94012475013733,1.13447868824005,-0.0647390625194898,2.93796097043536,1.18293365383054,2306.279,2365.658,2470.696,2371.254,357.887542724609,44.9803848266602,0.760375618934631,-0.03582813590765,-0.0120579730719328,0.0178874433040619,-0.0492963837173861,-0.0212108567320638,0.030516809833474,4
0.299999237060547,-0.0628014355897903,2.93981051445007,1.13528311252594,-0.065792536715479,2.93750768991949,1.18358580454179,2318.058,2348.837,2416.384,2354.078,357.765563964844,44.9818649291992,0.811090707778931,-0.043578989803791,-0.0157082602381706,0.0402215905487537,-0.0561118672418845,-0.0241433688900884,0.0347359188016424,4
0.319999694824219,-0.0638362988829613,2.9394199848175,1.13650596141815,-0.0669860785243584,2.93699414222283,1.18432466377777,2335.444,2337.144,2343.37,2342.268,357.679290771484,44.9789276123047,0.859794020652771,-0.0517433471977711,-0.0195260755717754,0.0611442737281322,-0.0633008373176985,-0.0272365818771378,0.0391862337367069,4
0.340000152587891,-0.0650399997830391,2.93895196914673,1.13810408115387,-0.0683270389802989,2.93641716440073,1.1851547821788,2338.555,2325.413,2287.415,2330.711,357.595123291016,44.9742240905762,0.906310200691223,-0.0601850040256977,-0.0234062075614929,0.0799059867858887,-0.0708514254995047,-0.0304853890327553,0.0438604075056398,4
0.359996795654297,-0.0664175823330879,2.93840503692627,1.14003121852875,-0.0698222324154443,2.93577382443646,1.1860803781411,2322.964,2311.289,2262.404,2316.644,357.495330810547,44.9703636169434,0.950506329536438,-0.068879060447216,-0.0273443721234798,0.096356213092804,-0.0787503322603694,-0.0338840679420472,0.0487502070677249,4
0.379997253417969,-0.0679749324917793,2.9377772808075,1.14224803447723,-0.0714791088463715,2.935060916796,1.18710606357981,2296.036,2295.022,2261.88,2300.321,357.380676269531,44.9686393737793,0.992349028587341,-0.077867716550827,-0.0313917472958565,0.110842421650887,-0.0869889214763108,-0.0374289027221294,0.0538502862508218,4
0.399997711181641,-0.0697189569473267,2.9370653629303,1.14472651481628,-0.0733040467096699,2.93427569701629,1.18823578705104,2269.534,2278.647,2269.152,2283.521,357.262634277344,44.9688262939453,1.03202426433563,-0.0872012600302696,-0.035600833594799,0.123921692371368,-0.0955541759940907,-0.0411142924556206,0.059152586816983,4
0.419998168945313,-0.0716568902134895,2.93626546859741,1.14744651317596,-0.0753034649285836,2.93341540321397,1.18947352217404,2249.832,2263.722,2271.701,2268.49,357.153045654297,44.9699745178223,1.06961953639984,-0.0968966782093048,-0.0399917662143707,0.136002883315086,-0.104434660908044,-0.0449353170220673,0.0646500300148815,4
0.439998626708984,-0.0737955495715141,2.93537449836731,1.15039229393005,-0.0774835548069347,2.93247737144397,1.19082310166083,2238.674,2251.344,2264.325,2255.878,357.058044433594,44.9711112976074,1.10528004169464,-0.106932953000069,-0.0445504263043404,0.147288993000984,-0.113619049702587,-0.0488871029382406,0.0703356041918149,4
0.459999084472656,-0.076140858232975,2.93438959121704,1.15354812145233,-0.0798502821969742,2.93145903476675,1.19228821865812,2233.056,2241.239,2249.567,2245.67,356.976776123047,44.9717559814453,1.1390745639801,-0.117265611886978,-0.0492434911429882,0.157788947224617,-0.123096124252221,-0.0529648233581361,0.0762023647937057,4
0.479999542236328,-0.0786978378891945,2.93330883979797,1.15689694881439,-0.0824093896672336,2.93035792231548,1.19387242808941,2228.799,2232.748,2233.344,2236.987,356.904693603516,44.9719734191895,1.17108285427094,-0.127848893404007,-0.0540381073951721,0.167438730597496,-0.13285477482153,-0.0571636980729742,0.0822434343651008,4
0.5,-0.0814708694815636,2.93213057518005,1.16042125225067,-0.085166398670376,2.92917165836334,1.1955791479969,2223.301,2225.02,2220.365,2229.156,356.837005615234,44.9720726013184,1.201331615448,-0.138651520013809,-0.0589140132069588,0.176214799284935,-0.142884000065179,-0.0614789935111996,0.0884520025491718,5
0.519996643066406,-0.0844640359282494,2.93085336685181,1.1641047000885,-0.0881260274065667,2.92789821280061,1.19741129917127,2216.009,2217.711,2212.353,2221.734,356.771240234375,44.9723854064941,1.229851603508,-0.149658426642418,-0.0638650059700012,0.184170335531235,-0.153170920546857,-0.0659051680111775,0.0948200963613094,5
0.539997100830078,-0.0876813307404518,2.92947554588318,1.16793298721313,-0.0912944900108037,2.92653491185861,1.1993727284581,2207.768,2210.72,2208.46,2214.801,356.707489013672,44.9730567932129,1.25660789012909,-0.160864681005478,-0.0688924789428711,0.191416576504707,-0.163708678212627,-0.0704392707438901,0.101343470339432,5
0.55999755859375,-0.0911266878247261,2.9279956817627,1.17189514636993,-0.094676112580471,2.92507989413848,1.20146611391775,2200.864,2204.718,2205.561,2208.216,356.647064208984,44.9740257263184,1.28185403347015,-0.172267928719521,-0.0739990323781967,0.198109999299049,-0.17448465888317,-0.0750758741803766,0.108014315705644,5
0.579998016357422,-0.0948038846254349,2.9264121055603,1.17598187923431,-0.0982755538235842,2.92353115512831,1.2036943395124,2195.025,2199.235,2202.933,2202.835,356.59130859375,44.9751663208008,1.30555284023285,-0.183859944343567,-0.0791818648576736,0.204338312149048,-0.185488294752812,-0.0798104312890852,0.11482609048482,5
0.599998474121094,-0.0987164676189423,2.92472338676453,1.18018567562103,-0.102097262171133,2.92188678079254,1.20606015903275,2190.936,2194.76,2199.544,2198.229,356.540802001953,44.9763565063477,1.32776772975922,-0.195629417896271,-0.0844350829720497,0.210189804434776,-0.196709126405959,-0.0846384416756885,0.121772319800455,5
0.619998931884766,-0.10286770761013,2.92292833328247,1.18449997901917,-0.106145477944935,2.92014494663912,1.20856619743999,2188.114,2191.14,2195.639,2194.47,356.495330810547,44.9774971008301,1.3485631942749,-0.207561850547791,-0.0897502601146698,0.215716302394867,-0.208136802817102,-0.0895554515830839,0.128846595874672,5
0.639999389648438,-0.107260555028915,2.92102599143982,1.18891906738281,-0.110424235525481,2.91830391678686,1.21121495220784,2185.969,2188.207,2191.95,2191.438,356.454132080078,44.9785995483398,1.36798226833344,-0.219642773270607,-0.0951191261410713,0.220955118536949,-0.219761081350814,-0.0945570538913933,0.136042578028218,5
0.659999847412109,-0.111897751688957,2.91901516914368,1.19343793392181,-0.114937365519793,2.91636204303257,1.21400879466451,2184.112,2185.829,2189.068,2188.969,356.416351318359,44.9796829223633,1.38606071472168,-0.231860011816025,-0.10053539276123,0.225944444537163,-0.231571827761751,-0.0996388881179631,0.143353992680462,5
0.679996490478516,-0.116781838238239,2.91689538955688,1.19805252552032,-0.119687567829752,2.91431816368388,1.21694939617789,2182.353,2183.954,2187.271,2186.917,356.381561279297,44.980785369873,1.40287172794342,-0.244203880429268,-0.105994865298271,0.230727061629295,-0.24355671368107,-0.104795649710095,0.15077320798381,5
0.699996948242188,-0.12191516160965,2.91466546058655,1.20275950431824,-0.124680083855354,2.91217002351282,1.22004000142426,2180.618,2182.268,2186.595,2185.472,356.349700927734,44.9819412231445,1.41831171512604,-0.256666362285614,-0.11149437725544,0.235347345471382,-0.255710395848158,-0.11002503961202,0.158296916205407,5
0.719997406005859,-0.127299979329109,2.91232490539551,1.20755708217621,-0.129917262555645,2.90991661182791,1.22328206452116,2180.06,2181.538,2185.629,2183.993,356.320709228516,44.983081817627,1.4327038526535,-0.26924130320549,-0.11703210324049,0.239880084991455,-0.26802079535749,-0.115321860608138,0.165917639927336,5
0.739997863769531,-0.132938370108604,2.90987277030945,1.21244370937347,-0.135402141159277,2.90755662179454,1.22667746565781,2179.3,2180.719,2185.494,2183.429,356.294494628906,44.9842529296875,1.44593691825867,-0.281919300556183,-0.122603632509708,0.244333565235138,-0.280478211503383,-0.120681938755799,0.173629373950669,5
0.759998321533203,-0.138832241296768,2.90730857849121,1.21741878986359,-0.141137563960274,2.90508882959244,1.2302279655877,2179.086,2180.419,2185.572,2183.023,356.271087646484,44.9853935241699,1.4580591917038,-0.294693529605865,-0.128206297755241,0.248755753040314,-0.293073051970232,-0.126101146749576,0.181426180175103,5
0.779998779296875,-0.144983366131783,2.90463185310364,1.22248232364655,-0.147126184485884,2.90251209348295,1.23393520697061,2179.305,2180.447,2185.737,2182.983,356.250457763672,44.9865074157715,1.46910011768341,-0.30755627155304,-0.133836701512337,0.253178030252457,-0.305795832832518,-0.131575403921268,0.189302187598958,5
0.799999237060547,-0.151393353939056,2.90184211730957,1.22763478755951,-0.153370467664426,2.8998253528763,1.23780071571459,2179.836,2180.77,2186.042,2183.247,356.232452392578,44.9875907897949,1.47908616065979,-0.320499390363693,-0.139491334557533,0.25762414932251,-0.318637178554805,-0.1371006762399,0.197251592319181,5
0.819999694824219,-0.158063650131226,2.89893889427185,1.23287713527679,-0.159872691993147,2.89702762739878,1.24182590231796,2180.59,2181.363,2186.555,2183.745,356.216796875,44.9886245727539,1.48805630207062,-0.333515226840973,-0.14516693353653,0.262114614248276,-0.331587821991737,-0.142672976311719,0.205268657531342,5
0.839996337890625,-0.164995580911636,2.89592170715332,1.23821043968201,-0.166633637018892,2.89411858163313,1.24601124935738,2181.484,2182.16,2187.325,2184.454,356.203430175781,44.9896202087402,1.49605023860931,-0.346596449613571,-0.15086068212986,0.266667604446411,-0.344636106234817,-0.148287288494656,0.213346167053785,5
0.859996795654297,-0.172190308570862,2.8927903175354,1.24363625049591,-0.173657794122436,2.89109628306371,1.25035953721147,2182.144,2182.953,2188.734,2185.446,356.192291259766,44.9906005859375,1.50297951698303,-0.359735608100891,-0.156569600105286,0.27129065990448,-0.357777960707973,-0.153941861333544,0.221481601006014,5
0.879997253417969,-0.179648846387863,2.88954448699951,1.2491569519043,-0.180945630646592,2.88796053060595,1.25487105518773,2183.998,2184.405,2189.184,2186.204,356.183288574219,44.9914970397949,1.50914704799652,-0.372927814722061,-0.162292152643204,0.276036232709885,-0.371001963495383,-0.159631780297098,0.229667888678032,5
0.899997711181641,-0.187372133135796,2.88618397712708,1.25477433204651,-0.188498701076517,2.88471065540831,1.25954676558649,2185.06,2185.499,2190.507,2187.581,356.176086425781,44.9923667907715,1.51442718505859,-0.386163860559464,-0.168024152517319,0.280870646238327,-0.384299280991351,-0.165353244531568,0.237899561647111,5
0.919998168945313,-0.195360869169235,2.88270878791809,1.26049077510834,-0.196318384305134,2.8813460641717,1.26438752200817,2186.345,2186.778,2191.979,2188.872,356.170715332031,44.9931983947754,1.51881611347198,-0.399438798427582,-0.173764079809189,0.285821914672852,-0.397661187980262,-0.171102499820431,0.246171218589148,5
0.939998626708984,-0.203615829348564,2.87911868095398,1.26630878448486,-0.204405885800988,2.87786623821667,1.26939407069523,2187.764,2188.173,2193.444,2190.213,356.167175292969,44.9939842224121,1.52233517169952,-0.412746608257294,-0.179509952664375,0.290900886058807,-0.411079067636589,-0.176875838584386,0.254477525278661,5
0.959999084472656,-0.212137430906296,2.87541341781616,1.27223098278046,-0.212762239776093,2.87427073255068,1.27456705187416,2189.228,2189.64,2194.924,2191.612,356.16552734375,44.9947280883789,1.52501559257507,-0.426080822944641,-0.185259357094765,0.296111822128296,-0.424544411524882,-0.18266959988136,0.262813214588797,5
0.979999542236328,-0.220926135778427,2.87159323692322,1.27826023101807,-0.221388311353785,2.87055917493534,1.27990700109753,2190.778,2191.175,2196.348,2193.033,356.165679931641,44.9954223632813,1.52690541744232,-0.439434975385666,-0.191009923815727,0.301459729671478,-0.438048819599778,-0.188480169406503,0.271173086491326,5
0.999996185302734,-0.229982167482376,2.86765813827515,1.28439915180206,-0.230283076085251,2.86673200616235,1.28541328418271,2192.387,2192.659,2197.703,2194.558,356.167602539063,44.9960594177246,1.52798807621002,-0.452802717685699,-0.196759149432182,0.306946337223053,-0.45158141622203,-0.194302867676075,0.279550408447474,5
1.01999664306641,-0.239305704832077,2.86360812187195,1.29065036773682,-0.239450461003889,2.86278753653895,1.29108833215045,2193.542,2193.978,2199.536,2196.18,356.171356201172,44.9966773986816,1.52813196182251,-0.466176778078079,-0.202504321932793,0.312558561563492,-0.465139182559269,-0.200136395770846,0.2879433116562,5
1.03999710083008,-0.248896777629852,2.85944318771362,1.29701709747314,-0.248889165986195,2.85872632547195,1.29693134016237,2195.856,2195.921,2200.115,2197.289,356.176727294922,44.9971923828125,1.52769804000854,-0.479552865028381,-0.208244398236275,0.318337082862854,-0.478711464817306,-0.205976169660809,0.296345200911388,5
1.05999755859375,-0.258755207061768,2.85516357421875,1.30350160598755,-0.258599401509697,2.85454828239877,1.30294243851408,2197.039,2197.249,2201.618,2198.952,356.183441162109,44.997673034668,1.52653872966766,-0.492921769618988,-0.213975101709366,0.324226140975952,-0.492290296490434,-0.211818761581115,0.30475114456651,5
1.07999801635742,-0.268880784511566,2.85076975822449,1.3101065158844,-0.268581219802083,2.85025338484727,1.30912165953701,2198.381,2198.614,2203.114,2200.38,356.191589355469,44.9981346130371,1.52462768554688,-0.506279647350311,-0.219695538282394,0.330246448516846,-0.50586781946303,-0.217660790404144,0.31315627807366,5
1.09999847412109,-0.279273182153702,2.84626173973083,1.31683444976807,-0.278834517009062,2.84584167750307,1.31546893894041,2199.7,2199.952,2204.517,2201.744,356.201263427734,44.9985542297363,1.52195298671722,-0.519620776176453,-0.225403904914856,0.336395680904388,-0.519436284009554,-0.223498921639497,0.321555803983559,5
1.11999893188477,-0.289931952953339,2.84163975715637,1.32368779182434,-0.289359035362208,2.84131327127672,1.32198411715334,2200.976,2201.312,2205.812,2202.986,356.212463378906,44.9989280700684,1.51856625080109,-0.53293913602829,-0.231098204851151,0.342668831348419,-0.532988048794549,-0.229329867434001,0.329944991945551,5
1.13999938964844,-0.300856560468674,2.83690428733826,1.3306690454483,-0.300154365346813,2.83666834237095,1.3286669406667,2202.241,2202.577,2206.949,2204.209,356.225250244141,44.9992752075195,1.51448535919189,-0.546228647232056,-0.236776113510132,0.349060952663422,-0.546515580872639,-0.235150386571708,0.338319178707607,5
1.15999984741211,-0.312046229839325,2.83205556869507,1.33778035640717,-0.311219947869739,2.83190713134792,1.33551706337518,2203.474,2203.74,2207.93,2205.406,356.239562988281,44.9995574951172,1.50969588756561,-0.559483170509338,-0.242435246706009,0.355565160512924,-0.560011455688534,-0.240957284473894,0.346673768116318,6
1.17999649047852,-0.323500156402588,2.82709407806396,1.34502375125885,-0.322552888823985,2.82703088346102,1.34253269368871,2204.591,2204.88,2208.846,2206.472,356.25537109375,44.9998168945313,1.50422871112823,-0.572696328163147,-0.248073264956474,0.362172067165375,-0.573465794611364,-0.246746310641672,0.355002644828593,6
1.19999694824219,-0.335217356681824,2.8220202922821,1.3524010181427,-0.334156660511822,2.8220381046756,1.34971598112778,2205.138,2205.646,2210.23,2207.64,356.272796630859,45.0000686645508,1.49790990352631,-0.585861384868622,-0.253687620162964,0.368861198425293,-0.58687652428584,-0.252516572968185,0.36330452533874,6
1.21999740600586,-0.347196847200394,2.81683468818665,1.35991442203522,-0.346028131869748,2.8169301422008,1.35706498741494,2206.976,2207.065,2210.073,2208.139,356.291656494141,45.0002212524414,1.49113881587982,-0.598974585533142,-0.259277403354645,0.375673085451126,-0.600233974716476,-0.258263910724523,0.371573423458908,6
1.23999786376953,-0.359437376260757,2.81153798103333,1.3675651550293,-0.358166167196084,2.81170748469733,1.36457900949675,2207.448,2207.7,2210.919,2209.234,356.311676025391,45.0003623962402,1.48371410369873,-0.612026691436768,-0.26483815908432,0.382536917924881,-0.613531154887641,-0.263985315871967,0.379805011417393,6
1.2599983215332,-0.371937662363052,2.8061306476593,1.37535452842712,-0.370569492049568,2.80637068052165,1.37225725843336,2208.055,2208.348,2211.711,2209.985,356.332946777344,45.00048828125,1.47559010982513,-0.625014126300812,-0.27036926150322,0.389471620321274,-0.626761182173783,-0.269677827009021,0.387995028541113,6
1.27999877929688,-0.384696304798126,2.80061316490173,1.38328385353088,-0.383236695417198,2.80092033679326,1.3800988607405,2208.554,2209.002,2212.414,2210.539,356.355621337891,45.0005989074707,1.46681177616119,-0.63793158531189,-0.275868982076645,0.396469354629517,-0.639917282339435,-0.275338529371412,0.396139281255613,6
1.29999923706055,-0.397711753845215,2.79498648643494,1.39135432243347,-0.396166231882091,2.79535711846185,1.3881028597315,2209.024,2209.542,2212.928,2211.025,356.379760742188,45.0006828308105,1.45740032196045,-0.650773346424103,-0.281335264444351,0.403523594141006,-0.652992789539212,-0.280964554832093,0.404233643085061,6
1.31999969482422,-0.410982429981232,2.78925108909607,1.3995668888092,-0.409356423791328,2.7896817473746,1.39626821685929,2209.516,2209.956,2213.165,2211.48,356.405426025391,45.0007362365723,1.44734108448029,-0.663533627986908,-0.286765724420547,0.41062718629837,-0.665981146317813,-0.286553081901244,0.412274054652251,6
1.33999633789063,-0.424506545066833,2.78340792655945,1.40792226791382,-0.422802873722428,2.78389611561957,1.40459220990988,2209.86,2210.326,2213.312,2211.792,356.432556152344,45.0007591247559,1.43665635585785,-0.676205992698669,-0.29215794801712,0.417766511440277,-0.678873453515705,-0.29210028151913,0.420255006953505,6
1.3599967956543,-0.438282191753387,2.77745771408081,1.41642069816589,-0.436508776648329,2.77799884848916,1.41307681672372,2209.609,2210.293,2213.917,2212.213,356.461303710938,45.000789642334,1.42515254020691,-0.688783884048462,-0.297509133815765,0.424919277429581,-0.691668290305691,-0.297605542343502,0.428175620429107,6
1.37999725341797,-0.452307492494583,2.77140140533447,1.42506325244904,-0.450469530727146,2.77199192602736,1.42171918854144,2210.77,2210.985,2212.847,2211.88,356.491455078125,45.000732421875,1.41327166557312,-0.701263785362244,-0.302818447351456,0.432128310203552,-0.704356955827446,-0.303065120637236,0.436030508832034,6
1.39999771118164,-0.466580212116241,2.76523971557617,1.43384957313538,-0.464682951063699,2.76587628833354,1.43051797280888,2210.409,2210.792,2212.911,2212.237,356.522674560547,45.0006790161133,1.40077352523804,-0.71363639831543,-0.308081239461899,0.43931582570076,-0.716933326165324,-0.308476381450513,0.44381588116678,6
1.41999816894531,-0.481098175048828,2.7589738368988,1.44277966022491,-0.47914673136562,2.75965292774086,1.43947174182117,2210.176,2210.7,2212.97,2212.138,356.555084228516,45.0006217956543,1.38766086101532,-0.725898742675781,-0.313296943902969,0.446502864360809,-0.729391385793766,-0.313836736470737,0.451528013536465,6
1.43999862670898,-0.495859086513519,2.75260448455811,1.45185339450836,-0.4938584461112,2.75332288788357,1.44857899406484,2209.901,2210.495,2212.889,2211.965,356.5888671875,45.0005645751953,1.37391972541809,-0.738045990467072,-0.318464010953903,0.453684359788895,-0.741725227577294,-0.31914364402254,0.459163249142831,6
1.45999908447266,-0.510860502719879,2.74613285064697,1.46107041835785,-0.508815552717244,2.74688726276417,1.45783815555978,2209.569,2210.275,2212.646,2211.645,356.624084472656,45.0004959106445,1.35959458351135,-0.750072658061981,-0.323580384254456,0.460852354764938,-0.753929052770513,-0.324394609067776,0.466717998286247,6
1.47999954223633,-0.526100039482117,2.73955988883972,1.47043037414551,-0.524015393706918,2.74034719582071,1.46724758120123,2209.273,2209.924,2212.143,2211.31,356.660797119141,45.0004196166992,1.34467852115631,-0.761973261833191,-0.328643769025803,0.468000799417496,-0.76599717101811,-0.329587183205524,0.474188738365705,6
1.49999618530273,-0.541574895381927,2.73288679122925,1.47993278503418,-0.539452231337361,2.73370515584365,1.47680371905302,2208.865,2209.508,2211.534,2210.883,356.698974609375,45.000316619873,1.32917618751526,-0.773741960525513,-0.333651512861252,0.475117802619934,-0.777921739365859,-0.334717991831687,0.481570614218926,6
1.51999664306641,-0.557282269001007,2.72611474990845,1.48957633972168,-0.555129074991064,2.72695984797977,1.48650843206629,2207.836,2208.721,2211.432,2210.562,356.738739013672,45.0002288818359,1.31288623809814,-0.785372376441956,-0.338601052761078,0.482180804014206,-0.789701834723693,-0.339786637766398,0.488863054409188,6
1.53999710083008,-0.573219478130341,2.71924495697021,1.49936103820801,-0.571040013494911,2.72011381564173,1.49635806094328,2208.385,2208.729,2209.527,2209.449,356.779876708984,45.0000648498535,1.29629456996918,-0.796861231327057,-0.343491345643997,0.489238113164902,-0.801329803423436,-0.344789827850059,0.496061320951293,6
1.55999755859375,-0.589383542537689,2.71227860450745,1.50928521156311,-0.587181951496087,2.71316839067337,1.50635068951315,2207.27,2207.802,2208.905,2209.124,356.822021484375,44.9999122619629,1.27913725376129,-0.808199763298035,-0.348317921161652,0.496206730604172,-0.812800388649436,-0.349725300221754,0.503162159625937,6
1.57999801635742,-0.605771243572235,2.70521688461304,1.51934742927551,-0.603551689586986,2.70612494969039,1.51648433719019,2206.319,2206.979,2208.321,2208.351,356.865264892578,44.9997787475586,1.26139318943024,-0.819385588169098,-0.353080302476883,0.503112137317657,-0.824108441976122,-0.354590839657789,0.510162383312438,6
1.59999847412109,-0.62237948179245,2.69806122779846,1.52954649925232,-0.620145926473056,2.69898491314762,1.52675696031579,2205.341,2206.16,2207.625,2207.428,356.909851074219,44.9996643066406,1.24310719966888,-0.830414354801178,-0.357777118682861,0.50995147228241,-0.835248923368005,-0.359384277571697,0.517058871988737,5
1.61999893188477,-0.639205098152161,2.6908130645752,1.53988087177277,-0.636961261140657,2.69174974440622,1.53716645350051,2204.4,2205.228,2206.71,2206.505,356.955841064453,44.9995422363281,1.22427642345428,-0.841281294822693,-0.362406402826309,0.516720473766327,-0.846216901179681,-0.364103492014234,0.523848572731403,5
1.63999938964844,-0.65624475479126,2.68347382545471,1.55034911632538,-0.653994195024907,2.68442094880091,1.54771065096602,2203.461,2204.243,2205.598,2205.539,357.003265380859,44.9994087219238,1.20489275455475,-0.851981163024902,-0.366965800523758,0.523412108421326,-0.857007552155828,-0.368746407673381,0.530528499715628,5
1.65999603271484,-0.673494935035706,2.67604470252991,1.56094944477081,-0.671237824488362,2.67700149677403,1.55838527903188,2202.491,2203.223,2204.348,2204.495,357.052062988281,44.9992561340332,1.18496692180634,-0.862508773803711,-0.371453076601028,0.53001868724823,-0.867614155697522,-0.373310132863173,0.537094492570531,5
1.67999649047852,-0.690952122211456,2.66852736473083,1.57167971134186,-0.688695041988866,2.66949014378176,1.56919212826729,2200.78,2201.875,2203.766,2203.56,357.102447509766,44.9991455078125,1.16431963443756,-0.872858226299286,-0.375865548849106,0.536515057086945,-0.878036152828799,-0.377794427071868,0.543546205263364,5
1.69999694824219,-0.708612620830536,2.66092324256897,1.58253884315491,-0.706358800111611,2.66188992212981,1.58012683598675,2200.874,2201.302,2201.24,2201.875,357.154083251953,44.9989395141602,1.14343285560608,-0.883026838302612,-0.380202442407608,0.542958796024323,-0.888267004546665,-0.382196476749158,0.549879589839776,5
1.71999740600586,-0.726472795009613,2.65323400497437,1.5935240983963,-0.724225231782013,2.65420249571236,1.5911870082869,2199.2,2199.867,2200.086,2200.99,357.206634521484,44.9987602233887,1.12206530570984,-0.89300662279129,-0.384459465742111,0.54926323890686,-0.898302321135456,-0.386514393123025,0.556091928856661,5
1.73999786376953,-0.744528710842133,2.64546132087708,1.60463321208954,-0.742290383213093,2.64642956573347,1.60237019758524,2197.743,2198.484,2198.995,2199.736,357.260192871094,44.9986038208008,1.10016298294067,-0.902795791625977,-0.388636201620102,0.555457532405853,-0.908137821269591,-0.39074633405868,0.562180571969536,5
1.7599983215332,-0.762776434421539,2.63760662078857,1.61586403846741,-0.760550216073323,2.63857286977439,1.61367390396219,2196.285,2197.146,2197.807,2198.341,357.31494140625,44.9984703063965,1.07774937152863,-0.91239070892334,-0.392731487751007,0.561540961265564,-0.917769332013572,-0.394890504058555,0.568142935932543,4
1.77999877929688,-0.781212151050568,2.6296718120575,1.62721419334412,-0.779000609654483,2.63063418086074,1.62509557650306,2194.845,2195.8,2196.469,2196.886,357.371032714844,44.9983367919922,1.05487179756165,-0.921787083148956,-0.396743655204773,0.567510068416595,-0.927192788821983,-0.398945154262308,0.57397650459845,4
1.79999923706055,-0.799831807613373,2.62165832519531,1.63868141174316,-0.79763736303951,2.62261530652977,1.63663261464007,2193.471,2194.337,2194.922,2195.49,357.428405761719,44.9981994628906,1.03150248527527,-0.930980622768402,-0.400670617818832,0.57336163520813,-0.936404235539493,-0.402908582446823,0.579678828918647,4
1.81999588012695,-0.818631112575531,2.61356806755066,1.65026319026947,-0.816452590859454,2.61451963963547,1.64828013695421,2192.044,2192.92,2193.301,2193.982,357.487060546875,44.9980545043945,1.00767934322357,-0.93996673822403,-0.404510349035263,0.57908821105957,-0.945398129488514,-0.406778403752778,0.585246477711674,3
1.83999633789063,-0.837605893611908,2.60540294647217,1.6619565486908,-0.835449117627072,2.60634596486888,1.66003989195343,2189.96,2191.108,2192.3,2192.7,357.547180175781,44.9979476928711,0.983174979686737,-0.948740482330322,-0.408260494470596,0.584668934345245,-0.954174163352093,-0.410554485950274,0.590679260733698,3
1.8599967956543,-0.85675185918808,2.59716463088989,1.67375981807709,-0.854618942724365,2.59809772467243,1.67190692687406,2189.76,2190.187,2189.328,2190.58,357.608428955078,44.9977493286133,0.958507359027863,-0.957299292087555,-0.411920249462128,0.590162694454193,-0.962726969681477,-0.41423451957606,0.595973855278252,0
1.87999725341797,-0.876064598560333,2.58885502815247,1.68566942214966,-0.873957566090845,2.58977685529642,1.6838784559643,2187.683,2188.379,2187.847,2189.357,357.67041015625,44.9975891113281,0.933421552181244,-0.965636551380157,-0.415485799312592,0.595481097698212,-0.971053025860989,-0.417816988947023,0.601128080678429,0
1.89999771118164,-0.895539581775665,2.58047580718994,1.69768261909485,-0.893460418296025,2.58138532283915,1.69595165052899,2185.88,2186.668,2186.447,2187.737,357.733245849609,44.9974479675293,0.907877385616302,-0.973751127719879,-0.418957054615021,0.600657641887665,-0.979148917665041,-0.421300425017273,0.606139823365946,0
1.91999816894531,-0.915172398090363,2.57202911376953,1.70979642868042,-0.913122862707269,2.57292512231409,1.70812364027167,2184.061,2185.034,2185.005,2185.981,357.797119140625,44.9973373413086,0.881928503513336,-0.981640100479126,-0.422333240509033,0.605692327022552,-0.987011339258123,-0.424683405378145,0.611007036871143,0
1.93999862670898,-0.934958457946777,2.56351685523987,1.72200810909271,-0.932940197657643,2.56439827671719,1.72039151463653,2182.354,2183.306,2183.357,2184.294,357.862182617188,44.9972267150879,0.855557084083557,-0.989300131797791,-0.425612777471542,0.610586106777191,-0.99463709319481,-0.4279645542582,0.615727741822989,0
1.95999908447266,-0.954892992973328,2.55494093894958,1.73431479930878,-0.952907658613767,2.55580683609405,1.73275232415044,2180.714,2181.614,2181.519,2182.56,357.928405761719,44.9971122741699,0.828782141208649,-0.996727645397186,-0.428793966770172,0.61533534526825,-1.00202309041976,-0.431142542523221,0.620300025949072,0
1.97999954223633,-0.974971354007721,2.54630351066589,1.74671351909637,-0.973020420343666,2.54715287660719,1.74520308176496,2179.065,2179.924,2179.595,2180.797,357.995697021484,44.9969787597656,0.801634967327118,-1.0039187669754,-0.431874930858612,0.619934678077698,-1.00916635026771,-0.434216087676217,0.62472204407561,0
1.99999618530273,-0.995188772678375,2.53760623931885,1.75920116901398,-0.993269723110518,2.53844016732665,1.7577383647857,2177.385,2178.16,2177.65,2179.059,358.06396484375,44.9968566894531,0.774104475975037,-1.01087021827698,-0.434854030609131,0.624380171298981,-1.01606270846678,-0.437183397947334,0.628991218319934,0
2.01999664306641,-1.01554024219513,2.5288519859314,1.7717741727829,-1.01365835337184,2.52966750931758,1.77035989816261,2174.878,2176.104,2176.544,2177.476,358.133453369141,44.9967842102051,0.745986461639404,-1.017578125,-0.437729805707932,0.628648936748505,-1.02271203275434,-0.440044416427654,0.633107466805174,0
2.03999710083008,-1.0360209941864,2.52004194259644,1.78443038463593,-1.03417746715556,2.52083870789413,1.78306220705567,2174.561,2174.888,2173.276,2175.092,358.203796386719,44.9966087341309,0.717785239219666,-1.02404093742371,-0.440501600503922,0.632811367511749,-1.02911032850577,-0.442797424341804,0.637068316668402,0
2.05999755859375,-1.05662596225739,2.51117873191833,1.79716575145721,-1.05482201812353,2.5119559343546,1.79584216754118,2172.113,2172.899,2171.695,2173.591,358.274688720703,44.9964866638184,0.689287662506104,-1.03025329113007,-0.443166434764862,0.636771023273468,-1.03525504859546,-0.445441325732794,0.640872191117535,0
2.07999801635742,-1.0773503780365,2.50226426124573,1.80997717380524,-1.07558691007788,2.50302138145056,1.8086966248299,2170.166,2170.929,2170.052,2171.779,358.346221923828,44.9963798522949,0.660426795482635,-1.03621518611908,-0.445724427700043,0.640571117401123,-1.04114375428791,-0.447975071280863,0.644517580459114,0
2.09999847412109,-1.09818887710571,2.49330067634583,1.82286131381989,-1.09646699912883,2.4940372624541,1.82162239460902,2168.127,2169.046,2168.432,2169.88,358.418640136719,44.9962959289551,0.631209075450897,-1.04192423820496,-0.448175072669983,0.644207894802094,-1.04677411523768,-0.450397658303471,0.648003042098304,0
2.11999893188477,-1.11913657188416,2.48429036140442,1.83581507205963,-1.11745709586255,2.485005810225,1.83461626438416,2166.283,2167.24,2166.564,2167.904,358.491973876953,44.9962272644043,0.601707816123962,-1.04737818241119,-0.450517237186432,0.647686004638672,-1.0521439094894,-0.452708130755304,0.651327200538896,0
2.13999938964844,-1.1401880979538,2.47523546218872,1.84883511066437,-1.138551967509,2.47592927627801,1.8476749948214,2164.487,2165.306,2164.551,2166.074,358.566223144531,44.9961433410645,0.571879148483276,-1.05257427692413,-0.452749520540237,0.651001036167145,-1.05725102347782,-0.454905579228273,0.654488747383304,0
2.15999603271484,-1.16133832931519,2.46613812446594,1.86191809177399,-1.15974228854654,2.4668116731246,1.86079281297862,2162.707,2163.479,2162.463,2164.136,358.641296386719,44.9960441589355,0.541770100593567,-1.05750966072083,-0.454870611429214,0.65414971113205,-1.06209255378819,-0.456988754464129,0.657485885279498,0
2.17999649047852,-1.18258190155029,2.4570004940033,1.87506031990051,-1.18103083166728,2.45765180775279,1.8739714352843,2160.14,2161.284,2161.161,2162.485,358.717376708984,44.9960021972656,0.511146783828735,-1.06218183040619,-0.456879138946533,0.657110035419464,-1.06666845113384,-0.45895763525619,0.660318583716675,0
2.19999694824219,-1.20391368865967,2.44782495498657,1.88825929164886,-1.20240821395574,2.44845371736898,1.88720505326679,2159.676,2160.045,2157.854,2159.885,358.794128417969,44.9958610534668,0.480594247579575,-1.0665887594223,-0.458774656057358,0.659948229789734,-1.07097597819164,-0.460811043810786,0.662985148161421,0
2.21999740600586,-1.2253280878067,2.43861389160156,1.90151083469391,-1.22386905090202,2.43921971877738,1.90049033365798,2157.236,2157.842,2156.083,2158.417,358.871154785156,44.9957618713379,0.449795663356781,-1.07072758674622,-0.460554838180542,0.662576198577881,-1.07501345493598,-0.46254825725983,0.665484538597853,0
2.23999786376953,-1.24682021141052,2.42936944961548,1.91481149196625,-1.24540792547886,2.42995214277345,1.91382392305993,2155.178,2155.851,2154.372,2156.466,358.948577880859,44.9956893920898,0.418733924627304,-1.07459843158722,-0.462220072746277,0.665031433105469,-1.07877930973132,-0.464168599372462,0.667815782108711,0
2.2599983215332,-1.26838421821594,2.42009401321411,1.92815780639648,-1.26701939030951,2.42065333321126,1.92720244928693,2153.035,2153.864,2152.726,2154.517,359.026580810547,44.9956398010254,0.387392312288284,-1.07819998264313,-0.463770300149918,0.667313158512115,-1.08227207933222,-0.465671440555045,0.66997797287536,0
2.27999877929688,-1.29001474380493,2.41078996658325,1.94154632091522,-1.28869796983554,2.41132564607061,1.9406225227075,2151.147,2151.999,2150.8,2152.461,359.105285644531,44.9955940246582,0.355853617191315,-1.08153080940247,-0.465204954147339,0.669428646564484,-1.08549040888332,-0.467056197851165,0.67197027217779,0
2.29999923706055,-1.31170666217804,2.40145945549011,1.95497381687164,-1.31043816248474,2.40197144852433,1.95408073758635,2149.301,2150.06,2148.74,2150.528,359.184631347656,44.9955368041992,0.324114978313446,-1.08458912372589,-0.466522991657257,0.671373188495636,-1.08843305191934,-0.468322334941636,0.673791908394614,0
2.31999588012695,-1.33345401287079,2.39210510253906,1.96843671798706,-1.33223028062798,2.39259490888859,1.96757109681956,2147.404,2148.121,2146.698,2148.602,359.264587402344,44.9954795837402,0.292171001434326,-1.08737325668335,-0.467723518610001,0.673142373561859,-1.09109838837379,-0.469469154757102,0.675441878627497,0
2.33999633789063,-1.35525178909302,2.38272905349731,1.98193109035492,-1.35407709248145,2.38319483607731,1.98109531406483,2144.893,2145.914,2145.279,2146.897,359.345336914063,44.9954566955566,0.259806573390961,-1.0898814201355,-0.468805700540543,0.674720823764801,-1.09348640563071,-0.470496651869278,0.67692017506657,0
2.3599967956543,-1.37709391117096,2.37333369255066,1.99545443058014,-1.37596887940059,2.37377541175173,1.99464737301821,2144.382,2144.6,2141.986,2144.293,359.426483154297,44.9953422546387,0.227574646472931,-1.09211206436157,-0.469769060611725,0.676168382167816,-1.09559564748259,-0.471404199712748,0.678225896250009,0
2.37999725341797,-1.39897513389587,2.36392116546631,2.0090024471283,-1.39790005743958,2.36433903852774,2.00822381695123,2141.967,2142.472,2140.156,2142.718,359.507629394531,44.9952659606934,0.195237189531326,-1.09406411647797,-0.470612227916718,0.67740261554718,-1.09742530100382,-0.472191448508328,0.679358538938131,0
2.39999771118164,-1.42088985443115,2.35449481010437,2.0225715637207,-1.41986502747765,2.35488812555058,2.02182117974142,2139.793,2140.437,2138.54,2140.789,359.588958740234,44.9952201843262,0.162748649716377,-1.09573793411255,-0.471335768699646,0.67845630645752,-1.09897466165884,-0.47285809511406,0.680317666989874,0
2.41999816894531,-1.44283258914948,2.34505605697632,2.03615832328796,-1.44185817738692,2.34542508756209,2.03543598721428,2137.852,2138.374,2136.715,2138.897,359.670562744141,44.9952011108398,0.130036026239395,-1.09713351726532,-0.471939891576767,0.679339408874512,-1.10024313330221,-0.473403883025206,0.681102911362803,0
2.43999862670898,-1.46479749679565,2.33560752868652,2.04975914955139,-1.46387388420027,2.33595234396796,2.0490647584853,2135.782,2136.577,2134.945,2136.797,359.752593994141,44.9951820373535,0.0972296819090843,-1.09825003147125,-0.472424566745758,0.680045187473297,-1.10123022817855,-0.473828602374257,0.681713970113108,0
2.45999908447266,-1.48677933216095,2.32615184783936,2.06337070465088,-1.48590651627916,2.32647231790489,2.06270400730194,2133.98,2134.665,2132.916,2134.828,359.835052490234,44.9951553344727,0.0643542483448982,-1.09908676147461,-0.472789317369461,0.680580854415894,-1.10193556692257,-0.474132089930926,0.682150608395601,0
2.47999572753906,-1.5087718963623,2.31669116020203,2.07698941230774,-1.50794623031618,2.31698924467309,2.07634764018804,2132.157,2132.683,2130.843,2132.981,359.917846679688,44.9951210021973,0.0313507169485092,-1.09964299201965,-0.473033428192139,0.680940628051758,-1.10235882472314,-0.474314205938057,0.682412625136718,0
2.49999618530273,-1.53077054023743,2.30722808837891,2.09061145782471,-1.52999579362571,2.30750193357449,2.089997370243,2129.644,2130.596,2129.455,2131.227,0.00115446571726352,44.9951324462891,-0.00192261801566929,-1.09991812705994,-0.473156601190567,0.681106984615326,-1.10250000049778,-0.474374949929889,0.682500019666355,0
2.51999664306641,-1.55276870727539,2.29776501655579,2.10423421859741,-1.55204535801192,2.29801462201262,2.10364710096447,2129.154,2129.154,2126.253,2128.765,0.0846051350235939,44.9950332641602,359.964965820313,-1.09991073608398,-0.473158478736877,0.681140303611755,-1.10235893238473,-0.47431425226183,0.68241269178437,0
2.53999710083008,-1.57476115226746,2.28830432891846,2.11785340309143,-1.57408927882895,2.2885297387209,2.11729333804778,2126.817,2127.153,2124.421,2127.146,0.167808219790459,44.9949760437012,359.931854248047,-1.09962141513824,-0.473038554191589,0.680962383747101,-1.10193567455836,-0.474132136243598,0.68215067502728,0
2.55999755859375,-1.59674215316772,2.27884840965271,2.13146543502808,-1.59612191359838,2.27904971150017,2.13093258853001,2124.719,2125.133,2122.809,2125.291,0.250880658626556,44.9949531555176,359.898681640625,-1.09905111789703,-0.47279766201973,0.680603921413422,-1.10123038958312,-0.473828671822132,0.681714070030222,0
2.57999801635742,-1.61870610713959,2.26939964294434,2.14506697654724,-1.6181376241771,2.2695769662859,2.14456136213196,2122.708,2123.252,2121.151,2123.313,0.333998054265976,44.9949569702148,359.865478515625,-1.09820067882538,-0.472436428070068,0.680071830749512,-1.10024334841354,-0.473403975581601,0.681103044526962,0
2.59999847412109,-1.64064741134644,2.25996065139771,2.15865445137024,-1.64013077892511,2.26011392621545,2.15817617260023,2120.808,2121.367,2119.356,2121.391,0.417268186807632,44.9949684143066,359.832275390625,-1.09707033634186,-0.471955060958862,0.679368376731873,-1.09897493039424,-0.472858210743393,0.680317833349887,0
2.61999893188477,-1.66256058216095,2.25053358078003,2.17222428321838,-1.66209575487342,2.25066301069528,2.17177353904914,2119.055,2119.486,2117.384,2119.515,0.500671863555908,44.9949684143066,359.799072265625,-1.09566020965576,-0.471353441476822,0.678494453430176,-1.09742562325992,-0.472191587166126,0.67935873843001,0
2.63999557495117,-1.68444013595581,2.24112105369568,2.18577313423157,-1.68402276052401,2.24122843273345,2.18534740007499,2117.265,2117.674,2115.417,2117.624,0.584129691123962,44.9949493408203,359.765869140625,-1.09397041797638,-0.470631450414658,0.677445828914642,-1.09559639877797,-0.471404522974156,0.678226361337632,0
2.65999603271484,-1.70627999305725,2.23172521591187,2.19929718971252,-1.70591456353497,2.23180900148401,2.19889946898997,2114.807,2115.519,2114.122,2116.084,0.667857468128204,44.9949798583984,359.732421875,-1.09200155735016,-0.469789206981659,0.676207065582275,-1.09348726343002,-0.470497020956359,0.676920706085208,0
2.67999649047852,-1.72807502746582,2.22234869003296,2.21279406547546,-1.72776139360717,2.22240892083372,2.2124236975135,2114.503,2114.378,2110.933,2113.431,0.751418173313141,44.9949073791504,359.699371337891,-1.08975231647491,-0.468826532363892,0.67484039068222,-1.09109935234628,-0.469469569527535,0.67544247537239,0
2.69999694824219,-1.74981963634491,2.21299386024475,2.22625923156738,-1.74955768413056,2.21303058593937,2.22591663964878,2112.121,2112.233,2109.283,2112.138,0.83445793390274,44.9948768615723,359.666351318359,-1.08722531795502,-0.467743575572968,0.673262119293213,-1.08843358680109,-0.468322565086308,0.673792239511893,0
2.71999740600586,-1.77150821685791,2.20366311073303,2.23968935012817,-1.77129788800495,2.2036763835632,2.23937486147656,2110.163,2110.355,2107.737,2110.295,0.917110621929169,44.9948844909668,359.633392333984,-1.08442211151123,-0.466541439294815,0.671510517597198,-1.08549099645889,-0.467056450668518,0.671970635915057,0
2.73999786376953,-1.79313492774963,2.19435858726501,2.25308108329773,-1.79297647980783,2.19434869114016,2.25279494249708,2108.25,2108.559,2106.164,2108.418,0.999538838863373,44.9949150085449,359.600463867188,-1.08134400844574,-0.465221226215363,0.669589579105377,-1.08227271937422,-0.465671715947234,0.669978369091845,0
2.7599983215332,-1.81469488143921,2.18508291244507,2.26643109321594,-1.81458795796224,2.18504987584512,2.26617347697213,2106.485,2106.864,2104.433,2106.495,1.08182668685913,44.994930267334,359.567687988281,-1.07799208164215,-0.463783472776413,0.66750293970108,-1.07878000199166,-0.464168897232749,0.667816210650842,0
2.77999877929688,-1.83618187904358,2.17583823204041,2.27973604202271,-1.83612684690458,2.17578229366013,2.27950707526701,2104.768,2104.984,2102.623,2104.825,1.16396760940552,44.9949493408203,359.535003662109,-1.07436752319336,-0.462228357791901,0.665249228477478,-1.07501419914593,-0.462548577472581,0.665484999299265,0
2.79999923706055,-1.85759139060974,2.1666271686554,2.29299259185791,-1.85758769925251,2.16654828844162,2.29279236519255,2103.196,2103.372,2100.678,2102.926,1.24585795402527,44.9949531555176,359.502502441406,-1.07047140598297,-0.460556328296661,0.662830471992493,-1.07097677406178,-0.460811386251471,0.662985640842947,0
2.81999588012695,-1.87891757488251,2.15745186805725,2.30619740486145,-1.87896102895071,2.15735194177419,2.30602347442862,2101.466,2101.494,2098.889,2101.341,1.32740247249603,44.9949531555176,359.470062255859,-1.06630516052246,-0.458767682313919,0.660240471363068,-1.06667014556453,-0.458958364322378,0.660319632649988,0
2.83999633789063,-1.90015482902527,2.14831471443176,2.31934690475464,-1.90024960698239,2.14819206138118,2.31920211834584,2099.145,2099.615,2097.727,2099.773,1.40883672237396,44.9949951171875,359.437530517578,-1.06187057495117,-0.45686349272728,0.657469272613525,-1.06209435025759,-0.456989527434725,0.657486997379635,0
2.8599967956543,-1.92129826545715,2.13921785354614,2.33243846893311,-1.9214439980555,2.13907270700516,2.33232245604895,2098.891,2098.474,2094.806,2097.332,1.48975932598114,44.9949493408203,359.405517578125,-1.05716681480408,-0.454843699932098,0.654575288295746,-1.05725197237562,-0.454905987512489,0.654489334796247,0
2.87999725341797,-1.94234228134155,2.13016366958618,2.34546804428101,-1.94253888918396,2.12999616467562,2.34538119854648,2096.609,2096.534,2093.351,2096.105,1.56989002227783,44.9949493408203,359.373657226563,-1.05219852924347,-0.452709466218948,0.651480555534363,-1.05214490868305,-0.452708560680416,0.651327819087361,0
2.89999771118164,-1.96328151226044,2.12115454673767,2.35843253135681,-1.96352900640172,2.1209647036328,2.35837508100222,2094.857,2094.809,2091.905,2094.381,1.64935970306396,44.9949684143066,359.342010498047,-1.04696750640869,-0.450461894273758,0.648224174976349,-1.04677516433438,-0.450398109700476,0.648003691539142,0
2.91999816894531,-1.98411107063293,2.11219239234924,2.37132859230042,-1.98440911693069,2.11198057539494,2.37130086407726,2093.156,2093.147,2090.398,2092.673,1.72828149795532,44.9950103759766,359.310546875,-1.04147624969482,-0.448102384805679,0.644808948040009,-1.04114485287423,-0.447975543971863,0.644518260536375,0
2.93999862670898,-2.00482583045959,2.10327982902527,2.38415336608887,-2.00517403134858,2.10304601282548,2.38415533527198,2091.448,2091.525,2088.894,2090.994,1.80674111843109,44.9950561523438,359.279296875,-1.03572678565979,-0.445631951093674,0.641234636306763,-1.03525619623725,-0.445441819530995,0.640872901562472,0
2.95999908447266,-2.02542018890381,2.0944185256958,2.39690351486206,-2.02581860575671,2.0941632292003,2.39693531026807,2089.973,2089.865,2087.193,2089.39,1.88472759723663,44.9950866699219,359.248260498047,-1.02972102165222,-0.443051308393478,0.637507200241089,-1.02911152474823,-0.442797939051516,0.637069057199471,0
2.97999572753906,-2.04588937759399,2.08561158180237,2.40957593917847,-2.04633384260397,2.08533609591429,2.40963521915279,2088.49,2088.435,2085.471,2087.639,1.9621434211731,44.9951095581055,359.217559814453,-1.02346110343933,-0.440361142158508,0.63362330198288,-1.02271452148052,-0.440045487257004,0.633109007445237,0
2.99999618530273,-2.06622838973999,2.07686042785645,2.42216730117798,-2.06672252359526,2.07656341607755,2.42225678393395,2086.453,2086.456,2084.3,2086.493,2.03912734985352,44.9951629638672,359.186859130859,-1.01694989204407,-0.437562525272369,0.62957090139389,-1.01606529245116,-0.437184509763622,0.628992817929355,0
3.01999664306641,-2.08643198013306,2.06816720962524,2.4346752166748,-2.08697572864857,2.06784902775215,2.4347944826559,2086.161,2085.511,2081.706,2084.168,2.11529350280762,44.9951362609863,359.156707763672,-1.01018714904785,-0.434655874967575,0.625398993492126,-1.00916768936771,-0.434216663853534,0.624722873042298,0
3.03999710083008,-2.10649585723877,2.05953431129456,2.44709610939026,-2.10708851762775,2.05919505654068,2.44724525713902,2084.158,2083.824,2080.343,2082.977,2.19038152694702,44.9951438903809,359.126922607422,-1.00317871570587,-0.431642919778824,0.621044218540192,-1.00202447609459,-0.431143138740389,0.620300883747801,0
3.05999755859375,-2.12641429901123,2.05096387863159,2.45942687988281,-2.12705600675913,2.05060360379452,2.45960608409476,2082.482,2082.111,2079.122,2081.582,2.26453042030334,44.995189666748,359.097351074219,-0.995927393436432,-0.42852509021759,0.616537034511566,-0.994638524886308,-0.427965170275055,0.615728628108227,0
3.07999801635742,-2.14618277549744,2.04245781898499,2.47166466712952,-2.14687337079936,2.04207674568107,2.47187397646763,2081.031,2080.726,2077.729,2079.908,2.33784198760986,44.995246887207,359.068145751953,-0.988435924053192,-0.425304055213928,0.611886739730835,-0.987012816387451,-0.424684040945629,0.611007951284564,0
3.09999847412109,-2.16579723358154,2.03401803970337,2.48380637168884,-2.16653584520328,2.033616532251,2.4840459847772,2079.549,2079.266,2076.331,2078.413,2.41035604476929,44.995304107666,359.039306640625,-0.98070752620697,-0.42198121547699,0.607090830802917,-0.979150439632689,-0.421301079877433,0.606140765536421,0
3.11999893188477,-2.18525218963623,2.02564716339111,2.49584937095642,-2.18603872829175,2.02522498650551,2.49611919846012,2078.083,2077.761,2074.948,2077.023,2.48209857940674,44.9953575134277,359.010772705078,-0.972745180130005,-0.418557643890381,0.602150678634644,-0.971054592046769,-0.41781766283301,0.601129050222034,0
3.13999557495117,-2.2045431137085,2.01734614372253,2.5077908039093,-2.20537371089838,2.01690568364676,2.50808847374658,2076.967,2076.375,2073.288,2075.534,2.55295348167419,44.9953880310059,358.982604980469,-0.964551448822021,-0.415034472942352,0.597075045108795,-0.962730189199339,-0.414235904844652,0.595975848313175,0
3.15999603271484,-2.22366571426392,2.00911808013916,2.51962757110596,-2.22454360124808,2.00865741537402,2.51995554906156,2074.937,2074.95,2072.414,2074.251,2.62308692932129,44.9954681396484,358.954711914063,-0.956130623817444,-0.41141352057457,0.591840088367462,-0.95417746870157,-0.410555908149813,0.590681306902481,0
3.17999649047852,-2.24261522293091,2.00096416473389,2.53135776519775,-2.2435401949712,2.00048371179835,2.53171534550942,2074.946,2073.786,2069.975,2072.451,2.69210457801819,44.9954566955566,358.927398681641,-0.947482824325562,-0.407694876194,0.586504817008972,-0.9454015193052,-0.406779862296197,0.585248576169681,0
3.19999694824219,-2.26138758659363,1.99288654327393,2.54297780990601,-2.2623590635174,1.99238647840124,2.54336512160655,2073.091,2072.436,2068.815,2071.329,2.75975465774536,44.995475769043,358.900573730469,-0.938615322113037,-0.403881192207336,0.58100152015686,-0.936405971974636,-0.402909329586355,0.579679903854719,0
3.21999740600586,-2.27997827529907,1.98488712310791,2.55448508262634,-2.28099585204123,1.98436758895103,2.55490218149615,2071.659,2070.974,2067.749,2070.065,2.82615542411804,44.995532989502,358.874114990234,-0.929531276226044,-0.399974048137665,0.575363397598267,-0.927194566064376,-0.398945918960059,0.573977604796153,0
3.23999786376953,-2.29838299751282,1.97696781158447,2.56587696075439,-2.29944628156995,1.97642888457015,2.56632387629027,2070.326,2069.696,2066.624,2068.689,2.89142370223999,44.9955978393555,358.848114013672,-0.920234560966492,-0.395975530147552,0.569596529006958,-0.917771149318993,-0.394891285994308,0.568144060931169,0
3.2599983215332,-2.31659770011902,1.96912968158722,2.57715106010437,-2.31770615117141,1.96857217280235,2.57762760541179,2069.107,2068.445,2065.395,2067.371,2.9555995464325,44.9956703186035,358.822540283203,-0.910728991031647,-0.391887336969376,0.563704133033752,-0.908139677873146,-0.390747132903322,0.562181721295578,0
3.27999877929688,-2.33461809158325,1.96137535572052,2.5883047580719,-2.33577134012187,1.96079922667992,2.58881081793642,2067.85,2067.307,2064.205,2066.032,3.01869797706604,44.9957466125488,358.797515869141,-0.901018440723419,-0.387711107730865,0.557684898376465,-0.898304216251578,-0.386515208538549,0.556093102023818,0
3.29999542236328,-2.35243988037109,1.95370674133301,2.59933567047119,-2.35363442159312,1.95311324175956,2.5998689163037,2066.903,2065.998,2062.798,2064.882,3.08060932159424,44.9957962036133,358.772979736328,-0.89110654592514,-0.383448004722595,0.551547288894653,-0.888270870184445,-0.382198140025101,0.549881982853707,0
3.31999588012695,-2.37005996704102,1.94612431526184,2.61024117469788,-2.37129825777079,1.94551298652277,2.61080367234288,2065.366,2064.67,2061.895,2063.902,3.14139199256897,44.9958648681641,358.748748779297,-0.880998253822327,-0.379100143909454,0.545276165008545,-0.878040092225563,-0.377796122084242,0.54354864393762,0
3.33999633789063,-2.38747358322144,1.93863129615784,2.62101936340332,-2.38875555478454,1.93800159931817,2.62161057080077,2065.063,2063.968,2060.108,2062.144,3.20078039169312,44.9958915710449,358.725311279297,-0.870695292949677,-0.374668717384338,0.538908004760742,-0.867618167158097,-0.373311858882592,0.53709697585572,0
3.3599967956543,-2.4046778678894,1.93122816085815,2.63166761398315,-2.40600253440574,1.930580705812,2.63228727277387,2063.846,2062.579,2058.927,2061.384,3.25852417945862,44.9959182739258,358.702362060547,-0.860204815864563,-0.370156049728394,0.532408773899078,-0.85700959304645,-0.368747285811601,0.530529763124145,0
3.37999725341797,-2.42166829109192,1.92391681671143,2.64218330383301,-2.42303550945299,1.9232518924954,2.64283149572124,2062.413,2061.502,2058.198,2060.269,3.31473612785339,44.9959907531738,358.679962158203,-0.849531769752502,-0.365564703941345,0.525786459445953,-0.846218976345105,-0.364104384899943,0.523849857357654,0
3.39999771118164,-2.43844199180603,1.91669905185699,2.65256452560425,-2.43985088596004,1.91601670575165,2.65324101480657,2061.444,2060.491,2057.22,2059.044,3.36951971054077,44.9960632324219,358.658172607422,-0.838679850101471,-0.360896646976471,0.519061326980591,-0.835251031898626,-0.359385184813519,0.517060177269636,0
3.41999816894531,-2.45499515533447,1.9095755815506,2.66280913352966,-2.45644516534361,1.90887665092339,2.66351366424015,2060.407,2059.345,2056.245,2058.106,3.42290210723877,44.9961433410645,358.636901855469,-0.827654361724854,-0.35615399479866,0.512229681015015,-0.824110582941664,-0.354591760855451,0.510163708672097,0
3.43999862670898,-2.47132444381714,1.90254902839661,2.67291498184204,-2.47281494657125,1.90183319137989,2.67364733862088,2059.433,2058.509,2055.261,2056.925,3.47488164901733,44.9962196350098,358.616302490234,-0.816459834575653,-0.351338773965836,0.505294740200043,-0.812802561098952,-0.34972623496609,0.503163504475677,0
3.45999526977539,-2.4874267578125,1.89561986923218,2.68288016319275,-2.48895387148596,1.89488906285845,2.6836381019467,2058.731,2057.369,2054.089,2056.085,3.52533483505249,44.9962844848633,358.596282958984,-0.805100798606873,-0.346452593803406,0.498263537883759,-0.801334209341438,-0.344791723593488,0.49606404842442,0
3.47999572753906,-2.50329828262329,1.88879001140594,2.69270253181458,-2.50486489870395,1.88804299234919,2.69348778574196,2057.289,2056.431,2053.56,2055.227,3.57438063621521,44.9963722229004,358.576751708984,-0.793583393096924,-0.341498196125031,0.491119146347046,-0.789706299681989,-0.339788558913217,0.488865818431069,0
3.49999618530273,-2.51893639564514,1.8820606470108,2.70238065719604,-2.52054183223243,1.88129764581471,2.703192554392,2057.518,2055.825,2051.823,2053.795,3.62168431282043,44.9964027404785,358.558074951172,-0.781909286975861,-0.336476534605026,0.48390930891037,-0.777926261338517,-0.334719937510192,0.481573413535413,0
3.51999664306641,-2.5343382358551,1.87543284893036,2.71191239356995,-2.53598168290031,1.87465430941181,2.7127505574575,2056.226,2054.803,2051.114,2053.253,3.66705346107483,44.9964561462402,358.540069580078,-0.770087957382202,-0.331391096115112,0.476582586765289,-0.765999459475408,-0.329588167864767,0.474190155029786,0
3.53999710083008,-2.54950094223022,1.86890769004822,2.72129559516907,-2.55118156992615,1.86811422266028,2.72216001159753,2055.258,2053.923,2050.528,2052.38,3.71059894561768,44.9965286254883,358.522735595703,-0.758123874664307,-0.326244175434113,0.469166040420532,-0.753931367647136,-0.324395605094516,0.466719431305148,0
3.55999755859375,-2.5644211769104,1.86248695850372,2.73052883148193,-2.56613872308604,1.86167857751006,2.73141920191151,2054.394,2053.144,2049.904,2051.487,3.7524471282959,44.9966354370117,358.506103515625,-0.746022462844849,-0.321038275957108,0.461666941642761,-0.741727567798258,-0.319144650954242,0.459164697851087,0
3.57999801635742,-2.57909727096558,1.8561714887619,2.73961067199707,-2.58085048488145,1.85534851740854,2.74052648328127,2053.849,2052.358,2049.021,2050.668,3.79255771636963,44.9967079162598,358.490173339844,-0.733788967132568,-0.315775662660599,0.454093664884567,-0.72939375026341,-0.313837753835969,0.451529477255809,0
3.59999847412109,-2.59352564811707,1.84996247291565,2.74853944778442,-2.59531431270705,1.84912513636775,2.74948028171299,2053.034,2051.57,2048.342,2050.017,3.83090329170227,44.9967956542969,358.474914550781,-0.721429765224457,-0.310458898544312,0.446438252925873,-0.716935713767317,-0.308477408768949,0.443817359206151,0
3.61999893188477,-2.60770463943481,1.84386038780212,2.75731372833252,-2.6095277810186,1.84300947803163,2.75827909567923,2052.58,2050.999,2047.483,2049.132,3.86738729476929,44.9968757629395,358.460479736328,-0.708949744701385,-0.30509027838707,0.438713610172272,-0.704359365424783,-0.303066157419654,0.436032000487571,0
3.63999557495117,-2.62163209915161,1.83786714076996,2.76593208312988,-2.62348594498176,1.83700367002424,2.76691986409198,2051.815,2050.34,2046.9,2048.486,3.90196251869202,44.9969520568848,358.446807861328,-0.696355760097504,-0.299672484397888,0.430912286043167,-0.691673151171832,-0.297607633838406,0.428178629536803,0
3.65999603271484,-2.63530492782593,1.83198285102844,2.77439284324646,-2.63719194552437,1.83110636089208,2.77540453133521,2050.97,2049.424,2046.523,2048.133,3.93474650382996,44.9970588684082,358.433685302734,-0.683653771877289,-0.294207990169525,0.423040062189102,-0.678878353700696,-0.292102389931838,0.420258040401444,0
3.67999649047852,-2.64872217178345,1.82620871067047,2.78269529342651,-2.65064103434641,1.825319593696,2.783730157985,2051.198,2049.333,2045.333,2046.878,3.96547222137451,44.9971084594727,358.421630859375,-0.670847415924072,-0.28869891166687,0.415124893188477,-0.665983614869008,-0.28655414404986,0.412275582803033,0
3.69999694824219,-2.66188097000122,1.82054603099823,2.79083800315857,-2.66383127580226,1.81964420129024,2.79189554578451,2050.269,2048.503,2044.967,2046.742,3.99402785301208,44.9971961975098,358.410308837891,-0.657946467399597,-0.283148765563965,0.407130807638168,-0.65299527533123,-0.280965624398954,0.404235181908735,0
