t,x_s1,x_s2,x_s3,x_s_d1,x_s_d2,x_s_d3,propellers_rpms1,propellers_rpms2,propellers_rpms3,propellers_rpms4,rollRad,pitchRad,yawRad,v_s1,v_s2,v_s3,v_s_d1,v_s_d2,v_s_d3,insideCount
0,-0.0599999986588955,2.94000005722046,1.17999994754791,-0.0599999986588955,2.94000005722046,1.17999994754791,0,0,0,0,0,0,0,0,0,0,-1.06581410364015E-15,4.44089209850063E-16,4.44089209850063E-16,0
0.0200042724609375,-0.0599999986588955,2.94000005722046,1.17811644077301,-0.0600018701838461,2.93999925195556,1.18000110611101,0,0,0,0,-0.01635288,0.0001297794,-0.01587137,-1.10653664009419E-09,-7.76775763711157E-08,-0.0941759571433067,-0.000280105751305916,-0.000120521679537258,0.00017339880334547,5
0.0400009155273438,-0.0599999986588955,2.94000005722046,1.17242503166199,-0.0600148724204753,2.93999365745638,1.18000915511487,0,0,0,0,-0.03270202,0.0005238493,-0.03175127,-1.08383135799528E-09,-7.60859677484405E-08,-0.284568399190903,-0.00111101934050116,-0.00047804058392963,0.00068777389696065,5
0.0600051879882813,-0.0599058829247952,2.93990302085876,1.16596508026123,-0.0600499046557519,2.93997858406422,1.18003084173732,1868.045,3252.776,3183.965,1722.467,-0.04942134,0.0003294761,-0.01369451,0.00470573361963034,-0.0048492681235075,-0.322995036840439,-0.00247998555168399,-0.00106706850011317,0.00153522919458695,5
0.0800018310546875,-0.059820368885994,2.93960738182068,1.16000306606293,-0.0601175574246769,2.93994947496775,1.18007272202403,1925.605,2314.388,3251.986,2829.434,-0.07543138,-0.002135855,0.02094779,0.00427578017115593,-0.0147782657295465,-0.29810032248497,-0.00437268608126799,-0.00188144466206175,0.00270690098422899,5
0.100006103515625,-0.0599374435842037,2.93904495239258,1.15498650074005,-0.0602282404704493,2.93990185114529,1.18014124010193,980.1481,1498.819,3915.03,3896.608,-0.1031943,-0.008062987,0.06330775,-0.00585371907800436,-0.0281163863837719,-0.250825673341751,-0.00677739276378709,-0.00291612276782231,0.00419552897277328,4
0.120002746582031,-0.0604638382792473,2.93818354606628,1.15081310272217,-0.0603919599823235,2.93983140721312,1.18024259027882,346.5067,980.4406,4172.759,4613.324,-0.1214316,-0.01542077,0.104001,-0.0263197124004364,-0.0430678725242615,-0.208670139312744,-0.00967921398219614,-0.00416469537060396,0.00599189453988277,4
0.139999389648438,-0.0615636073052883,2.93704128265381,1.14728283882141,-0.0606185767455666,2.93973390035084,1.18038287685052,352.83,747.0342,3975.524,4854.942,-0.1254008,-0.0211668,0.1351054,-0.054988406598568,-0.0571135953068733,-0.176515623927116,-0.0130660253322238,-0.00562194567796536,0.00808849210174802,4
0.160003662109375,-0.0633408427238464,2.93568110466003,1.14427495002747,-0.0609177895434042,2.93960515744296,1.18056810382587,820.8849,814.9078,3462.82,4692.4,-0.1184579,-0.02352423,0.15227,-0.0888619273900986,-0.0680147036910057,-0.150393724441528,-0.0169265510445065,-0.00728302204135792,0.0104783414199936,3
0.180000305175781,-0.065846860408783,2.93417239189148,1.14182531833649,-0.0612986871007165,2.9394412678651,1.18080389755851,1348.86,1083.499,3006.405,4255.276,-0.10798,-0.02277961,0.1557778,-0.125300794839859,-0.0754298940300941,-0.122483223676682,-0.0212451141043368,-0.00914117907931815,0.0131517376757159,3
0.200004577636719,-0.0690849274396896,2.93255400657654,1.14006161689758,-0.0617706280683152,2.93923820485124,1.18109605149912,1636.412,1381.107,2918.615,3666.299,-0.09982753,-0.02030074,0.1501555,-0.161903262138367,-0.080914631485939,-0.0881862938404083,-0.026012379510746,-0.0111924002017188,0.0161029020586274,3
0.220001220703125,-0.0730102434754372,2.93082618713379,1.13903570175171,-0.0623420644491781,2.93899233174064,1.18144979784016,1641.419,1580.738,3148.166,3113.094,-0.09584025,-0.01735475,0.1421877,-0.196265980601311,-0.0863857939839363,-0.0512940436601639,-0.03121219533433,-0.0134297356845702,0.019321835755004,3
0.240005493164063,-0.0775499641895294,2.92897367477417,1.13863337039948,-0.0630219993990999,2.93869977472688,1.18187070996396,1524.005,1624.172,3417.966,2777.412,-0.0947574,-0.01467775,0.1377332,-0.226986318826675,-0.0926249995827675,-0.0201183166354895,-0.0368361158647881,-0.0158495515746756,0.0228033104678445,3
0.260002136230469,-0.0826388373970985,2.92699241638184,1.13863575458527,-0.0638182299684225,2.938357178957,1.18236361461609,1439.084,1500.922,3533.052,2744.207,-0.09439148,-0.01258876,0.1393024,-0.254443615674973,-0.099058210849762,0.000116316601634026,-0.0428675524613532,-0.0184447102433459,0.0265370570382875,3
0.280006408691406,-0.0882447063922882,2.92490077018738,1.13885247707367,-0.0647394386306903,2.93796080860522,1.18293388666129,1400.474,1275.89,3476.789,2977.665,-0.0932117,-0.01110591,0.1456851,-0.280293434858322,-0.104585029184818,0.0108336936682463,-0.0492989108318322,-0.0212119440788105,0.0305183742376993,3
0.300003051757813,-0.0943704545497894,2.92273259162903,1.13920724391937,-0.0657927507678135,2.93750759781875,1.18358593705038,1350.672,1061.62,3344.957,3324.882,-0.09053469,-0.009935189,0.1533116,-0.306287616491318,-0.108407393097878,0.0177401956170797,-0.0561132031658829,-0.0241439437008635,0.0347367458022363,3
0.319999694824219,-0.10103577375412,2.92052578926086,1.13972544670105,-0.0669860785243584,2.93699414222283,1.18432466377777,1280.821,941.0609,3237.715,3590.529,-0.08597963,-0.008524246,0.1583613,-0.333265960216522,-0.110343255102634,0.0259075220674276,-0.0633008373176985,-0.0272365818771378,0.0391862337367069,3
0.340003967285156,-0.108251377940178,2.91831207275391,1.14046204090118,-0.0683273092598492,2.93641704810699,1.18515494949472,1252.914,944.055,3171.232,3649.934,-0.07944529,-0.00629305,0.1584789,-0.360779851675034,-0.110681146383286,0.0368324220180511,-0.0708528993697216,-0.0304860231979345,0.0438613199015142,4
0.360000610351563,-0.116002917289734,2.91611480712891,1.14145302772522,-0.0698225328270578,2.93577369517774,1.1860805641102,1320.03,1047.414,3120.201,3498.074,-0.07154689,-0.002963033,0.1534737,-0.387577027082443,-0.109858945012093,0.0495465882122517,-0.0787518717320621,-0.0338847303337087,0.0487511600740379,4
0.3800048828125,-0.124251291155815,2.91394972801208,1.14270806312561,-0.0714797725314022,2.93506063123087,1.18710647443246,1455.361,1181.603,3090.943,3231.237,-0.06361386,0.001258675,0.145038,-0.412419110536575,-0.108256861567497,0.0627500116825104,-0.0869921272359981,-0.0374302820709642,0.0538522707687797,4
0.400001525878906,-0.132943093776703,2.91182637214661,1.14421761035919,-0.0733044112230977,2.93427554017634,1.18823601270221,1579.549,1273.709,3104.672,2981.81,-0.05701988,0.005825923,0.1357466,-0.434590280056,-0.106165312230587,0.0754783898591995,-0.0955558400788823,-0.0411150084648172,0.0591536169647403,4
0.420005798339844,-0.142023488879204,2.90975022315979,1.14595830440521,-0.0753042617149609,2.93341506037905,1.18947401542277,1631.106,1288.547,3159.321,2844.685,-0.05244137,0.01017531,0.1278564,-0.454020112752914,-0.103802762925625,0.087034747004509,-0.104438107169167,-0.0449367998519515,0.0646521634146853,4
0.44000244140625,-0.151445910334587,2.90772438049316,1.14789605140686,-0.077483988232608,2.93247718495301,1.19082336997196,1607.003,1238.152,3219.206,2842.963,-0.04965943,0.01397483,0.1224618,-0.471121311187744,-0.101291701197624,0.0968901738524437,-0.113620829717891,-0.048887868829098,0.0703367061060819,4
0.459999084472656,-0.161176636815071,2.9057514667511,1.14999747276306,-0.0798502821969742,2.93145903476675,1.19228821865812,1541.457,1158.161,3252.957,2938.168,-0.04788737,0.0171854,0.1193421,-0.486536473035812,-0.098640538752079,0.105069942772388,-0.123096124252221,-0.0529648233581361,0.0762023647937057,4
0.480003356933594,-0.171193510293961,2.90383577346802,1.15223956108093,-0.0824098964715798,2.93035770425173,1.19387274182544,1474.03,1086.029,3248.462,3067.193,-0.04628681,0.01998616,0.117381,-0.500842928886414,-0.0957796797156334,0.112107053399086,-0.132856662250146,-0.057164510180779,0.0822446027733248,5
0.5,-0.181480929255486,2.90198302268982,1.15461599826813,-0.085166398670376,2.92917165836334,1.1955791479969,1432.222,1046.466,3215.824,3169.588,-0.04433205,0.02264377,0.1152247,-0.514372229576111,-0.0926401540637016,0.118823252618313,-0.142884000065179,-0.0614789935111996,0.0884520025491718,5
0.520004272460938,-0.192024171352386,2.90019845962524,1.15713500976563,-0.088127196023106,2.92789770997757,1.19741202260058,1423.575,1045.013,3177.617,3210.299,-0.04191922,0.02537865,0.1118868,-0.527161717414856,-0.0892274528741837,0.125952199101448,-0.153174893518032,-0.065906877469682,0.0948225558197254,5
0.540000915527344,-0.202804461121559,2.89848566055298,1.15981018543243,-0.0912951145137283,2.92653464315245,1.19937311505516,1445.573,1073.439,3148.662,3184.726,-0.03929548,0.02828875,0.1070495,-0.539015352725983,-0.0856388956308365,0.133757874369621,-0.163710711144578,-0.0704401454577151,0.101344728821151,5
0.560005187988281,-0.21379779279232,2.89684510231018,1.16265344619751,-0.0946774438086223,2.9250793213482,1.20146693801139,1483.965,1113.858,3139.056,3114.03,-0.03688798,0.03132731,0.1010582,-0.549666941165924,-0.0820321813225746,0.142160266637802,-0.174488813605259,-0.0750776618412222,0.108016887676534,5
0.580001831054688,-0.224976092576981,2.89527344703674,1.16566848754883,-0.0982762614093182,2.92353085067394,1.20369477754168,1521.138,1148.827,3145.583,3035.012,-0.03512923,0.0343452,0.09465496,-0.558915555477142,-0.078577347099781,0.150751113891602,-0.185490414529404,-0.0798113433697334,0.11482740272751,5
0.600006103515625,-0.236310824751854,2.89376497268677,1.16885209083557,-0.102098762959148,2.92188613504538,1.20606108809202,1540.685,1167.016,3163.552,2978.858,-0.03429139,0.03716099,0.08861727,-0.566735923290253,-0.0754201263189316,0.15918080508709,-0.196713446836865,-0.0846403006364086,0.121774994352997,5
0.620002746582031,-0.247776165604591,2.89231157302856,1.17219507694244,-0.106146271928021,2.92014460501038,1.20856668895334,1535.023,1167.313,3181.797,2964.193,-0.03442189,0.039632,0.08345917,-0.573267221450806,-0.0726663693785667,0.167146518826485,-0.208139001499973,-0.0895563976148993,0.128847956964108,5
0.639999389648438,-0.259351462125778,2.89090394973755,1.1756876707077,-0.110424235525481,2.91830391678686,1.21121495220784,1506.562,1156.328,3195.174,2986.849,-0.03534814,0.04169763,0.07929867,-0.578765153884888,-0.0703813657164574,0.174630954861641,-0.219761081350814,-0.0945570538913933,0.136042578028218,5
0.660003662109375,-0.27102130651474,2.8895320892334,1.1793212890625,-0.114938248900541,2.91636166293851,1.21400934151928,1466.041,1144.161,3197.926,3031.846,-0.03678092,0.04338378,0.07591055,-0.583492040634155,-0.0685976222157478,0.181678712368011,-0.231574097577923,-0.0996398647564507,0.143355397804799,5
0.680000305175781,-0.282774329185486,2.88818550109863,1.18309020996094,-0.119688496929273,2.91431776391831,1.21694997133476,1430.203,1139.792,3189.818,3074.848,-0.03844113,0.04477702,0.07288375,-0.587651491165161,-0.0673259198665619,0.188444748520851,-0.243559016194652,-0.104796640417365,0.150774633349401,5
0.700004577636719,-0.294601410627365,2.88685393333435,1.18699300289154,-0.124682034788652,2.91216918408072,1.22004120914491,1404.497,1146.286,3177.581,3101.699,-0.04016633,0.04596758,0.06985634,-0.591353535652161,-0.0665747374296188,0.195141181349754,-0.255715062526221,-0.110027047553219,0.158299805101433,5
0.720001220703125,-0.306493699550629,2.88552665710449,1.19102931022644,-0.129918284978346,2.90991617190799,1.22328269744952,1393.396,1162.906,3163.241,3107.177,-0.0419336,0.0470207,0.06662857,-0.594616711139679,-0.0663597136735916,0.201812461018562,-0.268023157655716,-0.11532287703907,0.16591910230247,5
0.740005493164063,-0.318442195653915,2.88419246673584,1.19520032405853,-0.13540428105644,2.90755570105657,1.22667879035609,1392.176,1185.096,3154.019,3093.726,-0.04383297,0.0479522,0.06321792,-0.597425103187561,-0.0667098686099052,0.208549082279205,-0.280482990349159,-0.120683994959631,0.173632332283853,5
0.760002136230469,-0.330437362194061,2.88283920288086,1.19950544834137,-0.14113868194985,2.90508834855275,1.23022865767651,1392.549,1207.619,3149.399,3074.715,-0.04600345,0.04873417,0.05981049,-0.599758446216583,-0.0676622316241264,0.215253680944443,-0.293075466693575,-0.12610218573757,0.181427675003881,5
0.779998779296875,-0.342470288276672,2.88145399093628,1.20394337177277,-0.147126184485884,2.90251209348295,1.23393520697061,1387.523,1226.525,3151.189,3058.698,-0.0485425,0.04931816,0.05665004,-0.601644456386566,-0.0692565217614174,0.221894294023514,-0.305795832832518,-0.131575403921268,0.189302187598958,5
0.800003051757813,-0.354533314704895,2.88002347946167,1.20850992202759,-0.153371683173492,2.89982482987671,1.2378014681726,1373.116,1240.472,3154.365,3055.159,-0.05147411,0.04965938,0.05393953,-0.603152513504028,-0.0715212970972061,0.228325068950653,-0.318639638509124,-0.13710173468952,0.197253115148089,5
0.819999694824219,-0.366621196269989,2.87853407859802,1.21319961547852,-0.159872691993147,2.89702762739878,1.24182590231796,1353.79,1250.896,3155.584,3061.571,-0.05474181,0.04974004,0.05175931,-0.604393601417542,-0.0744684934616089,0.234483033418655,-0.331587821991737,-0.142672976311719,0.205268657531342,4
0.840003967285156,-0.378731071949005,2.87697219848633,1.21800792217255,-0.166636266402775,2.89411745028271,1.24601287707125,1326.876,1259.616,3155.927,3077.828,-0.05825079,0.04956013,0.05010172,-0.605492889881134,-0.0780974477529526,0.240417525172234,-0.344641102544584,-0.148289438267168,0.213349260007538,4
0.860000610351563,-0.390862226486206,2.87532448768616,1.22292959690094,-0.173659158941841,2.89109569582005,1.2503603820997,1300.04,1269.125,3151.473,3097.807,-0.06187748,0.04915122,0.04886311,-0.606557250022888,-0.0823906138539314,0.24608151614666,-0.357780475378537,-0.153942943326036,0.221483157706883,4
0.8800048828125,-0.403015673160553,2.87357807159424,1.22796142101288,-0.180948461186242,2.88795931270381,1.25487280742661,1277.065,1280.93,3146.044,3113.224,-0.06551643,0.04855388,0.04791874,-0.607673227787018,-0.087325245141983,0.251589417457581,-0.371007022483504,-0.159633957038354,0.229671020432672,4
0.900001525878906,-0.415193378925323,2.87172079086304,1.23309993743896,-0.188500167066783,2.88471002463366,1.2595476731043,1259.53,1295.229,3138.221,3123.939,-0.06911808,0.0478063,0.04717857,-0.608886659145355,-0.0928694903850555,0.256924510002136,-0.384301823631742,-0.165354338558695,0.237901135662636,4
0.920005798339844,-0.427397966384888,2.86974096298218,1.23834371566772,-0.196321418238714,2.88134475875484,1.26438940015758,1246.672,1310.899,3132.822,3127.446,-0.07266755,0.04693398,0.04660873,-0.610230028629303,-0.0989965945482254,0.262190103530884,-0.397666296250757,-0.171104697766516,0.246174380851924,4
0.94000244140625,-0.43963235616684,2.86762738227844,1.24369037151337,-0.204407453948074,2.87786556348678,1.26939504145298,1236.722,1326.636,3127.739,3128.653,-0.07618292,0.04594902,0.04623227,-0.611717879772186,-0.10567481815815,0.26733461022377,-0.411081631631503,-0.176876941799768,0.254479112513653,4
0.959999084472656,-0.451899886131287,2.86536979675293,1.24913883209229,-0.212762239776093,2.87427073255068,1.27456705187416,1227.083,1340.973,3126.39,3128.231,-0.07967751,0.04485232,0.04610297,-0.613378047943115,-0.112878531217575,0.272424072027206,-0.424544411524882,-0.18266959988136,0.262813214588797,3
0.980003356933594,-0.464204668998718,2.8629584312439,1.2546865940094,-0.221389982382338,2.87055845593844,1.2799080355438,1215.51,1353.232,3125.427,3131.936,-0.08315241,0.04364238,0.04627857,-0.615239322185516,-0.120573222637177,0.277385950088501,-0.438051398499298,-0.18848127903492,0.271174682952979,3
1,-0.476551651954651,2.86038398742676,1.26033091545105,-0.230284798736574,2.86673126495361,1.28541435058594,1206.283,1363.664,3123.981,3136.314,-0.08658789,0.04232671,0.04677376,-0.617346346378326,-0.128721281886101,0.282215118408203,-0.451584000205995,-0.194303979492187,0.279552008056641,3
1.02000427246094,-0.488946616649628,2.85763835906982,1.26607072353363,-0.239454009753966,2.86278600961093,1.2910905289958,1192.459,1372.44,3124.697,3145.415,-0.08995999,0.04090797,0.04760187,-0.619749426841736,-0.137287065386772,0.286990314722061,-0.465144357597929,-0.200138622445408,0.287946515251652,3
1.04000091552734,-0.501396358013153,2.85471391677856,1.27190339565277,-0.24889099213045,2.8587255397331,1.29693247063265,1179.642,1380.156,3123.2,3157.125,-0.09321756,0.03940726,0.0487228,-0.622487843036652,-0.146222099661827,0.291635900735855,-0.478714054341683,-0.205977283860805,0.296346803950333,3
1.06000518798828,-0.513908445835114,2.85160422325134,1.27782845497131,-0.258603157406353,2.85454666634136,1.30294476359303,1169.303,1387.485,3122.803,3166.52,-0.09630736,0.03784902,0.05008097,-0.625602424144745,-0.155483067035675,0.296250522136688,-0.492295476531527,-0.211820990408084,0.304754351258706,3
1.08000183105469,-0.52649062871933,2.84830403327942,1.2838442325592,-0.268583149539609,2.85025255453512,1.30912285413647,1161.935,1394.86,3120.359,3175.752,-0.09920648,0.03625781,0.05162804,-0.62910932302475,-0.165014937520027,0.300790995359421,-0.50587040849135,-0.217661904390701,0.313157880805523,3
1.10000610351563,-0.539151132106781,2.84480857849121,1.28995144367218,-0.278838480013141,2.84583997233313,1.31547139222872,1157.011,1401.797,3120.116,3181.895,-0.1019016,0.03465422,0.05332701,-0.633025944232941,-0.174773409962654,0.305363059043884,-0.519441457145546,-0.223501147495394,0.321559006401169,3
1.12000274658203,-0.551898121833801,2.84111452102661,1.29614996910095,-0.289361068555186,2.84131239645058,1.32198537579665,1154.51,1408.292,3119.159,3187.603,-0.1043959,0.03305484,0.05515874,-0.637350618839264,-0.184706404805183,0.309925079345703,-0.532990631455731,-0.229330978680957,0.329946590735853,3
1.13999938964844,-0.564739882946014,2.83721899986267,1.30244123935699,-0.300154365346813,2.83666834237095,1.3286669406667,1152.872,1413.622,3121.125,3191.624,-0.1066921,0.03147031,0.05711761,-0.64208984375,-0.194773346185684,0.314563542604446,-0.546515580872639,-0.235150386571708,0.338319178707607,3
1.16000366210938,-0.577684700489044,2.83312058448792,1.30882585048676,-0.311222084148811,2.83190621216671,1.33551838583369,1151.594,1417.755,3122.984,3197.122,-0.1087912,0.02990929,0.05920441,-0.647238254547119,-0.204925835132599,0.319229066371918,-0.560014026276883,-0.240958390526247,0.34667535943296,3
1.18000030517578,-0.590740621089935,2.82881832122803,1.31530439853668,-0.322555076427271,2.82702994219644,1.34253404791935,1154.768,1420.93,3124.103,3200.654,-0.1106959,0.02838462,0.06140002,-0.652797698974609,-0.215117171406746,0.323925137519836,-0.573468357077025,-0.246747413199059,0.355004231116904,3
1.20000457763672,-0.603916049003601,2.82431197166443,1.32187938690186,-0.334161138043845,2.82203617811866,1.3497187529334,1154.447,1422.777,3128.246,3206.64,-0.1124195,0.02689684,0.06371065,-0.658774375915527,-0.225311875343323,0.32874783873558,-0.586881630238192,-0.252518769916838,0.363307686166476,3
1.22000122070313,-0.617219269275665,2.81960272789001,1.32855176925659,-0.346030421585499,2.81692915700008,1.35706640485806,1155.212,1423.645,3130.996,3214.089,-0.1139513,0.02545865,0.06611091,-0.665160834789276,-0.235464125871658,0.333617478609085,-0.600236516861372,-0.258265004538453,0.371574997167698,3
1.24000549316406,-0.630658447742462,2.81469202041626,1.33532404899597,-0.358170848086624,2.8117054706409,1.36458190719098,1157.263,1423.707,3135.368,3219.946,-0.1152755,0.02408175,0.06856924,-0.671960115432739,-0.245539113879204,0.338611423969269,-0.613536214864368,-0.263987493038594,0.379808143784027,2
1.26000213623047,-0.644241571426392,2.80958223342896,1.34219753742218,-0.370571882958536,2.80636965178032,1.3722587385199,1161.62,1423.641,3137.699,3226.011,-0.116395,0.02277879,0.07105481,-0.679156005382538,-0.255492210388184,0.343672811985016,-0.626763698705669,-0.269678909802388,0.38799658639423,2
1.27999877929688,-0.657976448535919,2.80427646636963,1.34917545318604,-0.383236695417198,2.80092033679326,1.3800988607405,1166.294,1422.885,3142.348,3230.658,-0.117316,0.02155694,0.07354481,-0.686742424964905,-0.265293896198273,0.348897725343704,-0.639917282339435,-0.275338529371412,0.396139281255613,2
1.30000305175781,-0.671870291233063,2.79877829551697,1.35626029968262,-0.396168722856641,2.79535604666509,1.38810440176341,1171.026,1421.701,3146.501,3236.281,-0.1180451,0.02042344,0.07602239,-0.694694995880127,-0.274908244609833,0.354239702224731,-0.652995275331231,-0.280965624398954,0.404235181908735,2
1.31999969482422,-0.685930252075195,2.79309225082397,1.36345434188843,-0.409356423791328,2.7896817473746,1.39626821685929,1180.428,1420.426,3149.739,3238.611,-0.1185948,0.01938833,0.07845809,-0.702993929386139,-0.284303396940231,0.359700262546539,-0.665981146317813,-0.286553081901244,0.412274054652251,2
1.34000396728516,-0.700162708759308,2.78722310066223,1.37076163291931,-0.422808053134535,2.78389388706324,1.40459541621271,1186.279,1418.235,3156.248,3242.36,-0.1189906,0.01844647,0.08086143,-0.711623072624207,-0.293461084365845,0.365365713834763,-0.678878353700697,-0.292102389931837,0.420258040401443,2
1.36000061035156,-0.714573681354523,2.78117609024048,1.37818443775177,-0.436511415158101,2.77799771321212,1.41307845008695,1193.471,1415.592,3161.103,3246.615,-0.1192361,0.01760246,0.08321923,-0.72055059671402,-0.302352845668793,0.371138125658035,-0.691670720740693,-0.297606588091785,0.42817712498415,2
1.3800048828125,-0.729168951511383,2.77495694160461,1.38572609424591,-0.450474904562636,2.77198961381608,1.4217225152016,1201.151,1412.24,3167.761,3249.334,-0.1193325,0.01685735,0.08552091,-0.729762196540833,-0.310963094234467,0.37708568572998,-0.704361775018035,-0.303067194200314,0.436033492140578,2
1.40000152587891,-0.743953466415405,2.76857161521912,1.39338874816895,-0.464685685951852,2.76587511158757,1.43051966583492,1209.93,1408.932,3172.072,3253.069,-0.1192968,0.01621229,0.08775528,-0.739225804805756,-0.319266438484192,0.383131712675095,-0.716935713767318,-0.308477408768949,0.443817359206152,2
1.42000579833984,-0.758931934833527,2.76202654838562,1.40117597579956,-0.479152296198309,2.75965053334882,1.43947518671769,1217.798,1404.945,3178.674,3256.062,-0.1191397,0.01566534,0.08991272,-0.748927652835846,-0.327253878116608,0.38936260342598,-0.729396114728537,-0.313838771199258,0.451530940972358,2
1.44000244140625,-0.774108588695526,2.75532841682434,1.40908992290497,-0.493861275572861,2.75332167044526,1.4485807456364,1226.13,1401.135,3183.342,3259.95,-0.1188739,0.01521778,0.0919793,-0.758833527565002,-0.334907799959183,0.395700067281723,-0.741727567798258,-0.319144650954242,0.459164697851088,2
1.45999908447266,-0.789487183094025,2.74848389625549,1.41713428497314,-0.508815552717244,2.74688726276417,1.45783815555978,1233.876,1396.819,3190.261,3262.455,-0.1185027,0.01486752,0.09394424,-0.768925964832306,-0.342225253582001,0.402216196060181,-0.753929052770513,-0.324394609067776,0.466717998286247,2
1.48000335693359,-0.805070459842682,2.74149990081787,1.42531108856201,-0.524018315758597,2.74034593854351,1.46724939009041,1241.424,1392.573,3195.928,3265.782,-0.1180313,0.01461439,0.09580054,-0.779168307781219,-0.349195241928101,0.408839195966721,-0.765999459475408,-0.329588167864767,0.474190155029787,2
1.5,-0.820861160755157,2.73438382148743,1.43362212181091,-0.539455198877605,2.73370387899399,1.4768055561018,1253.239,1388.886,3199.624,3266.075,-0.1174763,0.01446098,0.09752723,-0.789531826972961,-0.355808794498444,0.41555267572403,-0.777924000354858,-0.334718964672088,0.481572013878822,1
1.52000427246094,-0.836861073970795,2.72714233398438,1.44207108020782,-0.555135099954955,2.72695725560613,1.48651216180595,1260.591,1384.481,3206.678,3267.896,-0.1168643,0.0143937,0.09914179,-0.799997210502625,-0.362072318792343,0.422446846961975,-0.789706299681991,-0.339788558913217,0.48886581843107,1
1.54000091552734,-0.853071630001068,2.71978259086609,1.45065939426422,-0.571043070329722,2.72011250037111,1.49635995326965,1268.226,1380.198,3211.823,3270.407,-0.1162006,0.01441104,0.1006393,-0.810525596141815,-0.367983162403107,0.42941352725029,-0.801332006385301,-0.344790775723006,0.496062684689629,1
1.56000518798828,-0.869493544101715,2.71231150627136,1.45938944816589,-0.587188152687502,2.71316572247394,1.50635452834604,1275.779,1375.538,3218.607,3271.248,-0.1154811,0.01450915,0.1020165,-0.821098923683167,-0.373548954725266,0.436505258083344,-0.812804733542556,-0.349727169707881,0.503164849321754,1
1.58000183105469,-0.886127054691315,2.70473623275757,1.46826195716858,-0.60355483331529,2.70612359703193,1.51648628330776,1284.568,1371.503,3222.319,3272.671,-0.1147199,0.01468509,0.1032696,-0.831680059432983,-0.378766387701035,0.443627148866653,-0.824110582941666,-0.354591760855452,0.510163708672098,0
1.59999847412109,-0.902972221374512,2.69706320762634,1.47727918624878,-0.620145926473056,2.69898491314762,1.52675696031579,1291.991,1367.063,3228.13,3273.364,-0.1139284,0.01493112,0.1043996,-0.842255294322968,-0.383646816015244,0.450861841440201,-0.835248923368005,-0.359384277571697,0.517058871988737,0
1.62000274658203,-0.9200279712677,2.68929934501648,1.48644208908081,-0.636964489205914,2.69174835545992,1.53716845182668,1297.751,1362.777,3232.981,3275.695,-0.1131119,0.01524145,0.1054085,-0.852792203426361,-0.388196170330048,0.458143919706345,-0.846218976345106,-0.364104384899943,0.523849857357655,0
1.63999938964844,-0.937293231487274,2.68145084381104,1.49575102329254,-0.653994195024907,2.68442094880091,1.54771065096602,1306.998,1359.299,3235.721,3275.339,-0.112281,0.0156175,0.106278,-0.863265573978424,-0.392420649528503,0.465444982051849,-0.857007552155828,-0.368746407673381,0.530528499715628,0
1.66000366210938,-0.954766571521759,2.67352414131165,1.50520801544189,-0.671244443874359,2.67699864863716,1.55838937674714,1312.06,1355.267,3241.884,3275.763,-0.1114496,0.01604548,0.1070266,-0.873661398887634,-0.396340101957321,0.472851276397705,-0.867618167158098,-0.373311858882592,0.53709697585572,0
1.68000030517578,-0.972445368766785,2.66552495956421,1.514812707901,-0.688698391434734,2.66948870260877,1.56919420173384,1317.53,1351.752,3245.302,3277.042,-0.1106176,0.01652347,0.1076537,-0.883942663669586,-0.399962395429611,0.480234950780869,-0.878038122530658,-0.377795274579551,0.543547424602645,0
1.70000457763672,-0.990327417850494,2.65745878219604,1.5245658159256,-0.706365577065784,2.66188700619576,1.58013103124422,1323.323,1348.062,3250.252,3276.109,-0.1097792,0.01704674,0.1081597,-0.894098281860352,-0.403304666280746,0.487658530473709,-0.888270870184447,-0.382198140025102,0.549881982853708,0
1.72000122070313,-1.00840926170349,2.64933133125305,1.53446638584137,-0.724228658537036,2.6542010212754,1.5911891296115,1329.532,1345.129,3252.172,3276.335,-0.1089526,0.01760951,0.108549,-0.904096603393555,-0.406373977661133,0.495029211044312,-0.898304216251578,-0.386515208538549,0.556093102023817,0
1.74000549316406,-1.02668786048889,2.64114761352539,1.54451501369476,-0.742297311768984,2.64642658456943,1.60237448669139,1334.009,1341.809,3256.432,3275.839,-0.1081419,0.01820338,0.1088282,-0.913931608200073,-0.409190237522125,0.502430558204651,-0.908141534469281,-0.390747931744771,0.562182870617028,0
1.76000213623047,-1.04515945911407,2.63291239738464,1.55471038818359,-0.76055371708895,2.63857136338517,1.61367607125764,1338.175,1339.158,3258.257,3276.587,-0.1073573,0.01882421,0.108999,-0.923575162887573,-0.411765068769455,0.509767830371857,-0.917771149318994,-0.394891285994308,0.568144060931169,0
1.77999877929688,-1.06381976604462,2.62462997436523,1.56505262851715,-0.779000609654483,2.63063418086074,1.62509557650306,1341.129,1336.208,3262.436,3275.901,-0.1065909,0.01946645,0.1090647,-0.933022320270538,-0.414120584726334,0.517112195491791,-0.927192788821983,-0.398945154262308,0.57397650459845,0
1.80000305175781,-1.08266484737396,2.61630463600159,1.57554006576538,-0.797640935141499,2.62261376955408,1.63663482594136,1343.356,1333.712,3264.754,3276.473,-0.1058383,0.02012605,0.1090314,-0.942246794700623,-0.416268944740295,0.52437299489975,-0.936405971974637,-0.402909329586356,0.579679903854719,0
1.81999969482422,-1.10168957710266,2.60794019699097,1.58617067337036,-0.816456197270346,2.61451808789761,1.64828236949435,1349.712,1332.226,3264.393,3274.213,-0.1051112,0.02080426,0.1088862,-0.95123416185379,-0.418220371007919,0.531527817249298,-0.945399824400851,-0.406779133026206,0.585247526943151,0
1.84000396728516,-1.12088918685913,2.59954023361206,1.5969443321228,-0.835456397410825,2.6063428325813,1.66004439848636,1351.054,1330.124,3267.833,3273.352,-0.1044257,0.02148602,0.1086558,-0.959983706474304,-0.419999003410339,0.538682818412781,-0.95417746870157,-0.410555908149813,0.59068130690248,0
1.86000061035156,-1.14025855064392,2.5911078453064,1.60785853862762,-0.854622615239374,2.59809614449182,1.6719092003358,1351.934,1328.505,3268.794,3273.979,-0.1037791,0.02216918,0.1083441,-0.968470573425293,-0.421618461608887,0.545711100101471,-0.962728579444532,-0.414235212212131,0.595974851798267,0
1.8800048828125,-1.15979242324829,2.58264589309692,1.61891198158264,-0.873964974649439,2.58977366760063,1.68388304221498,1353.056,1326.712,3271.47,3272.3,-0.1031528,0.02285191,0.1079522,-0.976695895195007,-0.423098832368851,0.552674651145935,-0.971056158224177,-0.417818336715394,0.601130019760457,0
1.90000152587891,-1.17948520183563,2.57415699958801,1.63010132312775,-0.893464153455626,2.58138371570432,1.69595396277071,1355.156,1325.817,3270.616,3271.654,-0.1025557,0.02353176,0.1074839,-0.984638273715973,-0.424447357654572,0.559468924999237,-0.979150439632688,-0.421301079877433,0.606140765536421,0
1.92000579833984,-1.19933128356934,2.56564331054688,1.64142513275146,-0.913130393017452,2.572921882232,1.70812830189239,1355.995,1324.611,3272.099,3269.928,-0.1019879,0.02420244,0.1069465,-0.992303967475891,-0.425682634115219,0.566190421581268,-0.98701429350817,-0.424684676509409,0.611008865692653,0
1.94000244140625,-1.21932482719421,2.55710697174072,1.65288007259369,-0.932943991899774,2.5643966441608,1.72039386345315,1356.317,1324.074,3271.113,3269.854,-0.101459,0.02486094,0.1063451,-0.999675810337067,-0.426814496517181,0.572746932506561,-0.994638524886308,-0.427965170275055,0.615728628108227,0
1.95999908447266,-1.23945987224579,2.54854965209961,1.66446447372437,-0.952907658613767,2.55580683609405,1.73275232415044,1355.361,1323.194,3272.711,3268.38,-0.1009572,0.02550374,0.1056845,-1.00676071643829,-0.4278624355793,0.579219281673431,-1.00202309041976,-0.431142542523221,0.620300025949072,0
1.98000335693359,-1.25973081588745,2.53997302055359,1.67617475986481,-0.973024270010337,2.54715122020317,1.74520546489201,1353.555,1322.709,3272.491,3268.44,-0.1004747,0.02612961,0.104972,-1.01354336738586,-0.42883574962616,0.585516154766083,-1.00916768936771,-0.434216663853535,0.624722873042297,0
2,-1.28013122081757,2.53137826919556,1.68800711631775,-0.993273599084619,2.53843849960327,1.7577407641983,1356.38,1323.163,3269.64,3265.367,-0.100015,0.02674301,0.1041932,-1.02002000808716,-0.429740160703659,0.591618716716766,-1.01606400046349,-0.437183953857422,0.628992018127441,0
2.02000427246094,-1.30065512657166,2.52276635169983,1.69995987415314,-1.01366615605493,2.52966415204104,1.77036472839513,1354.193,1322.999,3270.681,3263.799,-0.09959317,0.02733093,0.1033767,-1.02619969844818,-0.430594086647034,0.597640454769135,-1.02271452148052,-0.440045487257004,0.633109007445237,0
2.04000091552734,-1.32129645347595,2.51413822174072,1.71202898025513,-1.0341813929022,2.52083701875502,1.78306463727984,1351.677,1323.203,3269.201,3263.923,-0.09920115,0.02789407,0.1025266,-1.03206765651703,-0.43140497803688,0.603453755378723,-1.02911152474823,-0.442797939051516,0.637069057199471,0
2.06000518798828,-1.34204912185669,2.50549459457397,1.72421157360077,-1.05482991650149,2.51195253590321,1.79584705701339,1349.639,1323.152,3269.557,3261.671,-0.09881872,0.02843318,0.1016429,-1.03763484954834,-0.432185918092728,0.609129846096039,-1.03525734386973,-0.445442313325188,0.640873612001644,0
2.08000183105469,-1.36290717124939,2.49683594703674,1.73650288581848,-1.07559088172821,2.50301967256038,1.80869908347065,1348.674,1323.874,3266.414,3260.647,-0.09845068,0.02894889,0.1007284,-1.04288911819458,-0.432936936616898,0.614566326141357,-1.04114485287423,-0.447975543971863,0.644518260536375,0
2.09999847412109,-1.38386392593384,2.48816251754761,1.74890029430389,-1.09646699912883,2.4940372624541,1.82162239460902,1346.631,1324.203,3265.849,3258.404,-0.09809487,0.02943761,0.09978905,-1.04784512519836,-0.433668911457062,0.619870483875275,-1.04677411523768,-0.450397658303471,0.648003042098304,0
2.12000274658203,-1.40491366386414,2.47947478294373,1.76139962673187,-1.11746110947495,2.48500408327971,1.83461874900143,1342.669,1324.713,3264.031,3258.582,-0.09774867,0.02989796,0.0988337,-1.05249524116516,-0.43438521027565,0.6249680519104,-1.05214490868305,-0.452708560680417,0.651327819087362,0
2.13999938964844,-1.42605066299438,2.47077298164368,1.7739964723587,-1.138551967509,2.47592927627801,1.8476749948214,1343.095,1325.931,3260.099,3255.644,-0.09740938,0.03033699,0.09784472,-1.05684173107147,-0.435086846351624,0.629842579364777,-1.05725102347782,-0.454905579228273,0.654488747383304,0
2.16000366210938,-1.44726848602295,2.46205735206604,1.78668856620789,-1.15975039167652,2.46680818657414,1.86079782920208,1338.81,1326.56,3260.01,3254.015,-0.09708447,0.03074572,0.09684668,-1.0608971118927,-0.435785710811615,0.634601950645447,-1.0620943502576,-0.456989527434725,0.657486997379635,0
2.18000030517578,-1.46856153011322,2.45332765579224,1.79947078227997,-1.18103490068612,2.45765005696766,1.87397395420079,1335.169,1327.51,3257.028,3253.682,-0.09676276,0.03112795,0.09583933,-1.06464982032776,-0.436480790376663,0.639111936092377,-1.06666929835407,-0.458957999791384,0.660319108186354,0
2.20000457763672,-1.48992383480072,2.44458413124084,1.81234002113342,-1.20241638486008,2.44845020165711,1.88721011144582,1332.502,1328.161,3255.995,3250.638,-0.09642561,0.03148624,0.09482164,-1.06811439990997,-0.437177449464798,0.64345920085907,-1.07097756992209,-0.460811728687929,0.662986133518392,0
2.22000122070313,-1.51134967803955,2.43582677841187,1.82529091835022,-1.22387315175433,2.43921795429519,1.90049287228091,1330.498,1329.381,3251.659,3249.387,-0.09608312,0.0318208,0.09379843,-1.07128190994263,-0.437868773937225,0.647545158863068,-1.07501419914593,-0.462548577472581,0.665484999299265,0
2.24000549316406,-1.53283298015594,2.42705535888672,1.83832061290741,-1.24541615591711,2.42994860144581,1.91382901809327,1327.477,1330.08,3250.135,3246.865,-0.09573159,0.03213038,0.09277358,-1.07416975498199,-0.438559710979462,0.651483416557312,-1.07878069424208,-0.464169195088763,0.667816639186824,0
2.26000213623047,-1.55436837673187,2.41827058792114,1.85142421722412,-1.26702351885107,2.42065155681516,1.92720500505083,1324.159,1331.164,3246.241,3246.231,-0.09537473,0.03241625,0.09174951,-1.07677102088928,-0.439245373010635,0.6551793217659,-1.08227271937422,-0.465671715947234,0.669978369091845,0
2.27999877929688,-1.57595038414001,2.40947198867798,1.86459863185883,-1.28869796983554,2.41132564607061,1.9406225227075,1320.232,1331.77,3244.886,3244.035,-0.09499868,0.03267996,0.09072559,-1.07910060882568,-0.439929902553558,0.658720910549164,-1.08549040888332,-0.467056197851165,0.67197027217779,0
2.30000305175781,-1.59757339954376,2.40065979957581,1.87783920764923,-1.31044231452835,2.40196966201596,1.95408330789913,1315.831,1332.528,3241.929,3243.351,-0.09459335,0.03292388,0.08970506,-1.0811527967453,-0.440607339143753,0.662028610706329,-1.08843358680109,-0.468322565086307,0.673792239511894,0
2.31999969482422,-1.61923205852509,2.39183449745178,1.89114105701447,-1.33223444283894,2.39259311800549,1.96757367342642,1316.576,1333.837,3236.683,3239.361,-0.09416032,0.03315633,0.08867015,-1.08293104171753,-0.441269159317017,0.665091276168823,-1.09109887036509,-0.469469362144493,0.675442177003072,0
2.34000396728516,-1.64092087745667,2.38299608230591,1.90450167655945,-1.35408543512393,2.38319124647132,1.98110047855794,1312.336,1334.515,3235.267,3237.211,-0.09371611,0.03336757,0.08764634,-1.08444845676422,-0.441919058561325,0.668029606342316,-1.09348726343002,-0.470497020956358,0.676920706085208,0
2.36000061035156,-1.66263496875763,2.37414503097534,1.91791605949402,-1.37597305876702,2.37377361348711,1.99464996024512,1308.21,1335.196,3231.578,3236.691,-0.09325218,0.0335624,0.08663217,-1.08569729328156,-0.442550182342529,0.670722007751465,-1.09559602313537,-0.471404361345641,0.678226128796969,0
2.3800048828125,-1.68436884880066,2.36528182029724,1.93138110637665,-1.39790843013262,2.36433543599182,2.00822900004707,1304.901,1335.457,3229.965,3233.647,-0.09274725,0.03374426,0.08562288,-1.08669185638428,-0.443162441253662,0.67325097322464,-1.09742594550583,-0.472191725819537,0.679358937915576,0
2.40000152587891,-1.70611727237701,2.35640692710876,1.94489145278931,-1.4198692197338,2.35488632173988,2.02182377494768,1302.979,1336.18,3225.033,3231.872,-0.09220609,0.03391662,0.08461749,-1.08742427825928,-0.443743020296097,0.67551589012146,-1.09897493039424,-0.472858210743393,0.680317833349887,0
2.41999816894531,-1.72787547111511,2.34752082824707,1.95844411849976,-1.44185817738692,2.34542508756209,2.03543598721428,1300.55,1336.401,3222.74,3228.598,-0.09162712,0.03407912,0.08361731,-1.08790981769562,-0.444290518760681,0.677631914615631,-1.10024313330221,-0.473403883025206,0.681102911362803,0
2.44000244140625,-1.7496383190155,2.33862519264221,1.97203469276428,-1.46387808506052,2.33595053645515,2.04906735901791,1296.14,1336.56,3219.343,3228.115,-0.09101087,0.03423188,0.08262866,-1.08814346790314,-0.444796562194824,0.679529786109924,-1.10123038958312,-0.473828671822132,0.681714070030222,0
2.45999908447266,-1.77140092849731,2.32972025871277,1.98565864562988,-1.48590651627916,2.32647231790489,2.06270400730194,1296.678,1337.059,3214.018,3224.324,-0.0903552,0.03438426,0.08162782,-1.08812868595123,-0.44525146484375,0.681196272373199,-1.10193556692257,-0.474132089930926,0.682150608395601,0
2.48000335693359,-1.79315829277039,2.32080698013306,1.99931371212006,-1.50795464064698,2.31698562594271,2.07635284658344,1292.751,1337.058,3212.632,3221.616,-0.0896697,0.03452931,0.08063545,-1.0878769159317,-0.445657461881638,0.682752847671509,-1.10235893238473,-0.47431425226183,0.68241269178437,0
2.5,-1.81490588188171,2.31188678741455,2.01299500465393,-1.52999999932945,2.30750012397766,2.08999997377396,1289.278,1337.009,3208.706,3220.542,-0.08894585,0.03467143,0.07964962,-1.08737790584564,-0.44600448012352,0.684065103530884,-1.10250000050292,-0.474374949932098,0.682500019669533,0
2.52000427246094,-1.83663880825043,2.3029613494873,2.02669930458069,-1.55205376834272,2.29801100328223,2.10365230735988,1287.378,1336.56,3206.53,3216.595,-0.08816608,0.03481491,0.07866332,-1.08664345741272,-0.446289539337158,0.685216903686523,-1.10235882472314,-0.474314205938057,0.682412625136718,0
2.54000091552734,-1.85835206508636,2.29403138160706,2.04042172431946,-1.57409348237975,2.28852793005043,2.11729594024597,1286.523,1336.482,3201.231,3214.241,-0.0873421,0.03496151,0.07767677,-1.08566534519196,-0.446498572826385,0.686119437217712,-1.10193556692257,-0.474132089930926,0.682150608395601,0
2.56000518798828,-1.88004112243652,2.28509879112244,2.05415964126587,-1.59613031531826,2.27904609647483,2.13093778959484,1284.69,1335.844,3198.993,3210.499,-0.08647657,0.03510959,0.07669183,-1.08445727825165,-0.446630716323853,0.686895608901978,-1.10123006676374,-0.473828532921971,0.681713870189648,0
2.58000183105469,-1.9017014503479,2.2761652469635,2.06790852546692,-1.61814182127198,2.26957516039323,2.14456396033363,1282.266,1335.353,3194.46,3209.165,-0.08557589,0.0352609,0.07570916,-1.08301091194153,-0.446675926446915,0.687445044517517,-1.10024313330221,-0.473403883025206,0.681102911362804,0
2.59999847412109,-1.92332804203033,2.2672324180603,2.08166575431824,-1.64013077892511,2.26011392621545,2.15817617260023,1279.965,1334.363,3192.527,3205.597,-0.08462514,0.03541779,0.07472259,-1.08133769035339,-0.446633756160736,0.687862038612366,-1.09897493039424,-0.472858210743393,0.680317833349887,0
2.62000274658203,-1.94491672515869,2.25830268859863,2.0954270362854,-1.66209994121933,2.25066120942759,2.17177613059669,1277.065,1333.444,3188.915,3203.908,-0.08362113,0.03558226,0.07373421,-1.07942950725555,-0.446494668722153,0.688064694404602,-1.09742530100382,-0.472191448508328,0.679358538938131,0
2.63999938964844,-1.96646237373352,2.24937772750854,2.10918807983398,-1.68402693989188,2.24122663446822,2.18534998730279,1279.559,1332.808,3183.311,3198.705,-0.08256758,0.03576179,0.07272259,-1.07728743553162,-0.446248292922974,0.68804794549942,-1.09559602313537,-0.471404361345641,0.67822612879697,0
2.66000366210938,-1.98796105384827,2.24045991897583,2.12294673919678,-1.70592290617745,2.23180541187802,2.19890463348308,1277.106,1331.758,3181.444,3195.239,-0.08148581,0.03594683,0.07171156,-1.07491946220398,-0.445896327495575,0.687936127185822,-1.09348640563071,-0.470496651869278,0.67692017506657,0
2.68000030517578,-2.00940704345703,2.2315514087677,2.13669872283936,-1.72776555581996,2.22240712994983,2.2124262741215,1274.344,1330.481,3177.49,3193.889,-0.08036994,0.03614043,0.07069877,-1.07231616973877,-0.445431560277939,0.687604427337646,-1.09109887036509,-0.469469362144494,0.675442177003072,0
2.70000457763672,-2.03079676628113,2.22265434265137,2.15044140815735,-1.74956598821573,2.2130270129235,2.22592178027309,1273.244,1328.859,3175.462,3189.283,-0.07920135,0.03634689,0.06967446,-1.06948709487915,-0.444853782653809,0.687135100364685,-1.08843251702753,-0.468322104792631,0.6737915772711,0
2.72000122070313,-2.05212545394897,2.2137713432312,2.16417002677917,-1.77130202882336,2.20367460188472,2.23937742484041,1273.01,1327.579,3170.493,3186.246,-0.07798854,0.03656686,0.06863968,-1.06642293930054,-0.44415220618248,0.686435222625732,-1.08549040888332,-0.467056197851165,0.671970272177789,0
2.74000549316406,-2.07338809967041,2.20490455627441,2.17788219451904,-1.79298473688851,2.19434513834902,2.25280005402337,1272.348,1325.856,3167.883,3181.843,-0.07673366,0.03679921,0.0675941,-1.06313276290894,-0.443326264619827,0.685609459877014,-1.08227143928024,-0.465671165158559,0.669977576652695,0
2.76000213623047,-2.09458017349243,2.19605731964111,2.19157361984253,-1.81459207318004,2.18504810518187,2.26617602448799,1271.607,1324.311,3163.155,3179.21,-0.07544682,0.03704436,0.06653716,-1.0596090555191,-0.442368626594543,0.684574842453003,-1.07877930973132,-0.464168599372462,0.667815782108711,0
2.77999877929688,-2.11569738388062,2.18723177909851,2.20524215698242,-1.83612684690458,2.17578229366013,2.27950707526701,1270.181,1322.366,3160.883,3175.198,-0.0741227,0.03730254,0.06546608,-1.05585980415344,-0.441281199455261,0.683421611785889,-1.07501419914593,-0.462548577472581,0.665484999299265,0
2.80000305175781,-2.13673496246338,2.17843055725098,2.21888375282288,-1.85759178470316,2.16654653058634,2.29279489428112,1267.903,1320.438,3157.39,3172.885,-0.07275703,0.03757445,0.06438199,-1.05187821388245,-0.440059214830399,0.68207722902298,-1.07097597819164,-0.460811043810786,0.662985148161422,0
2.81999969482422,-2.15768814086914,2.16965627670288,2.23249435424805,-1.87896509797278,2.15735019098767,2.30602599334712,1270.84,1318.745,3152.16,3166.955,-0.07134928,0.03786674,0.06326485,-1.04766345024109,-0.438697189092636,0.680530726909637,-1.06666929835407,-0.458957999791384,0.660319108186353,0
2.84000396728516,-2.1785523891449,2.16091251373291,2.2460720539093,-1.90025771011236,2.14818857483073,2.3192071345693,1269.313,1316.85,3150.041,3162.672,-0.06992129,0.03816999,0.06213829,-1.04321992397308,-0.43719819188118,0.678889751434326,-1.06209255378819,-0.456988754464129,0.657485885279497,0
2.86000061035156,-2.19932317733765,2.15220141410828,2.2596127986908,-1.9214480311499,2.13907097167731,2.33232495272651,1267.792,1314.729,3145.649,3160.425,-0.06847094,0.03848597,0.06099952,-1.03853976726532,-0.435558408498764,0.677033960819244,-1.05725102347782,-0.454905579228273,0.654488747383304,0
2.8800048828125,-2.21999573707581,2.14352583885193,2.27311396598816,-1.94254691640495,2.12999271078668,2.34538616777867,1267.379,1312.342,3143.486,3155.132,-0.06698383,0.03881677,0.05984101,-1.03363168239594,-0.433781355619431,0.67505931854248,-1.0521429102862,-0.45270770082608,0.651326581984514,0
2.90000152587891,-2.24056577682495,2.13488864898682,2.28657126426697,-1.96353299953007,2.12096298550123,2.3583775529389,1267.219,1310.265,3138.608,3151.762,-0.06546956,0.03916187,0.05866536,-1.02848708629608,-0.431861490011215,0.672868371009827,-1.04677411523767,-0.450397658303471,0.648003042098304,0
2.91999816894531,-2.26102805137634,2.12629270553589,2.29998230934143,-1.98440911693069,2.11198057539494,2.37130086407726,1267.036,1307.865,3135.896,3146.658,-0.06392599,0.03952023,0.05747052,-1.023113489151,-0.429801613092422,0.670557618141174,-1.04114485287423,-0.447975543971863,0.644518260536375,0
2.94000244140625,-2.28137803077698,2.11774063110352,2.31334352493286,-2.00517798053537,2.10304431360073,2.38415778000673,1265.316,1305.518,3131.942,3143.981,-0.06235738,0.03989047,0.05626114,-1.01750516891479,-0.427599728107452,0.668061554431915,-1.03525504859546,-0.445441325732794,0.640872191117535,0
2.95999908447266,-2.30161094665527,2.1092357635498,2.32665109634399,-2.02581860575671,2.0941632292003,2.39693531026807,1268.095,1303.323,3126.795,3137.915,-0.06076481,0.04027756,0.05501786,-1.01166355609894,-0.42525452375412,0.665380001068115,-1.02911152474823,-0.442797939051516,0.637069057199471,0
2.98000335693359,-2.32172298431396,2.10078001022339,2.3399031162262,-2.04634164528706,2.08533273863774,2.40964004938531,1266.153,1301.096,3124.484,3133.783,-0.05916638,0.04067291,0.05376218,-1.00559210777283,-0.422771781682968,0.662606298923492,-1.02271203275434,-0.440044416427654,0.633107466805174,0
3,-2.34170866012573,2.09237670898438,2.3530957698822,-2.06672639957428,2.07656174835205,2.42225918334961,1264.666,1298.643,3120.409,3130.739,-0.05755357,0.04107886,0.05248989,-0.999285578727722,-0.420152068138123,0.6596320271492,-1.01606400046349,-0.437183953857422,0.628992018127441,0
3.02000427246094,-2.36156368255615,2.08402895927429,2.36622619628906,-2.0869834279768,2.06784571494631,2.43479924890685,1264.464,1296.085,3117.719,3125.147,-0.05591307,0.04149684,0.05119552,-0.992749989032745,-0.417399108409882,0.656525373458862,-1.00916501115878,-0.434215511495054,0.624721215103391,0
3.04000091552734,-2.38128328323364,2.07573866844177,2.37929034233093,-2.10709234004513,2.05919341186127,2.44724762339747,1265.158,1293.82,3112.331,3120.946,-0.05425658,0.04192607,0.04987995,-0.985979437828064,-0.41451022028923,0.653204381465912,-1.00202309041976,-0.43114254252322,0.620300025949072,0
3.06000518798828,-2.40086269378662,2.06750893592834,2.39228582382202,-2.12706359523793,2.05060033868409,2.45961078172463,1265.155,1291.358,3109.489,3115.229,-0.05258891,0.04236385,0.04854625,-0.97898131608963,-0.411490559577942,0.649779260158539,-0.994635661494588,-0.427963938237592,0.615726855532351,0
3.08000183105469,-2.42029762268066,2.05934190750122,2.40520906448364,-2.14687713595163,2.04207512564123,2.47187630727625,1264.127,1289.008,3104.644,3112.132,-0.05091964,0.04280844,0.04719855,-0.971751034259796,-0.408340662717819,0.646157085895538,-0.987011339258122,-0.424683405378145,0.611007036871143,0
3.09999847412109,-2.43958353996277,2.05124092102051,2.41805744171143,-2.16653584520328,2.033616532251,2.4840459847772,1263.333,1286.437,3102.083,3106.744,-0.04923812,0.04326001,0.04583227,-0.964296400547028,-0.405066967010498,0.642425000667572,-0.979150439632689,-0.421301079877433,0.606140765536421,0
3.12000274658203,-2.45871591567993,2.0432071685791,2.43082737922668,-2.18604243256806,2.0252233926589,2.49612149158362,1261.336,1284.007,3097.855,3103.786,-0.04754488,0.043718,0.04445183,-0.956613481044769,-0.401670336723328,0.638502180576324,-0.971053025860989,-0.417816988947023,0.601128080678429,0
3.13999938964844,-2.47768998146057,2.03524446487427,2.44351530075073,-2.20537738341953,2.01690410346351,2.50809074721212,1264.567,1281.702,3092.65,3096.613,-0.0458362,0.04418676,0.04303866,-0.948705315589905,-0.398152142763138,0.634400308132172,-0.962728579444533,-0.414235212212131,0.595974851798267,0
3.16000366210938,-2.49650144577026,2.02735376358032,2.45611929893494,-2.22455088103183,2.00865428308644,2.51996005559448,1262.736,1279.583,3089.577,3092.263,-0.04413817,0.04465671,0.04161855,-0.940574467182159,-0.39451789855957,0.630198836326599,-0.954174163352092,-0.410554485950274,0.590679260733698,0
3.18000030517578,-2.51514577865601,2.01953864097595,2.46863555908203,-2.24354380138856,2.00048216005771,2.53171757805356,1261.37,1277.127,3085.263,3088.666,-0.04244386,0.04512928,0.04018732,-0.932220876216888,-0.390771627426147,0.625810980796814,-0.94539982440085,-0.406779133026206,0.58524752694315,0
3.20000457763672,-2.53361868858337,2.01180028915405,2.48106145858765,-2.26236620771476,1.99238340445271,2.54336954420504,1260.409,1274.675,3082.219,3083.403,-0.0407421,0.045605,0.03874183,-0.923651099205017,-0.386918842792511,0.62129670381546,-0.936402499096495,-0.402907835303912,0.579677753977713,0
3.22000122070313,-2.55191612243652,2.00414109230042,2.49339318275452,-2.28099938900442,1.98436606709459,2.55490437104486,1260.519,1272.442,3077.131,3078.786,-0.03903715,0.04608417,0.03728165,-0.91486394405365,-0.382960736751556,0.616586804389954,-0.927192788821982,-0.398945154262308,0.573976504598449,0
3.23999786376953,-2.57003307342529,1.99656319618225,2.50562834739685,-2.29944628156995,1.97642888457015,2.56632387629027,1259.947,1270.171,3073.809,3073.259,-0.03733166,0.04656383,0.03581084,-0.905865609645844,-0.378902286291122,0.611763417720795,-0.917771149318993,-0.394891285994308,0.568144060931169,0
3.26000213623047,-2.58796620368958,1.98906803131104,2.51776361465454,-2.31770961544581,1.96857068222185,2.57762974996267,1258.022,1267.906,3069.383,3069.964,-0.03562937,0.04704286,0.03433421,-0.896656334400177,-0.374746143817902,0.606765925884247,-0.90813782126959,-0.39074633405868,0.562180571969535,0
3.27999877929688,-2.60571098327637,1.98165822029114,2.52979564666748,-2.33577134012187,1.96079922667992,2.58881081793642,1259.985,1265.707,3064.26,3063.533,-0.03392601,0.04752449,0.03283643,-0.887241005897522,-0.370495498180389,0.601602494716644,-0.898304216251578,-0.386515208538549,0.556093102023818,0
3.30000305175781,-2.6232635974884,1.97433495521545,2.54172253608704,-2.35364119854729,1.95311032582551,2.59987311156116,1257.663,1263.78,3061.142,3059.179,-0.03224076,0.04800185,0.03133791,-0.877623617649078,-0.366156399250031,0.596345245838165,-0.888267004546666,-0.382196476749158,0.549879589839776,0
3.31999969482422,-2.64061975479126,1.9671003818512,2.55354070663452,-2.37130160722417,1.94551154534655,2.61080574581408,1255.989,1261.559,3056.562,3055.633,-0.03056297,0.04847658,0.02983384,-0.867806553840637,-0.361733078956604,0.590903580188751,-0.878038122530657,-0.377795274579551,0.543547424602645,0
3.34000396728516,-2.65777540206909,1.95995593070984,2.56524753570557,-2.38876217417054,1.9379987511813,2.62161466851603,1255.376,1259.428,3053.239,3049.801,-0.02888251,0.04894964,0.02832055,-0.857796788215637,-0.357230752706528,0.585344672203064,-0.867614155697521,-0.373310132863173,0.537094492570531,0
3.36000061035156,-2.67472743988037,1.95290279388428,2.57683944702148,-2.406005803634,1.93057929915441,2.6322892965819,1255.141,1257.491,3047.937,3045.33,-0.02720898,0.0494202,0.02680196,-0.847594857215881,-0.352650910615921,0.57960057258606,-0.857007552155826,-0.36874640767338,0.530528499715627,0
3.3800048828125,-2.69147157669067,1.94594287872314,2.58831453323364,-2.42304196557559,1.92324911460621,2.64283549236868,1254.404,1255.507,3044.531,3039.695,-0.02554344,0.04988597,0.0252816,-0.837207973003387,-0.347998559474945,0.573756456375122,-0.846214826007803,-0.364102599125748,0.523847288101157,0
3.40000152587891,-2.70800399780273,1.93907737731934,2.59966921806335,-2.43985407218584,1.9160153348077,2.65324298723213,1253.06,1253.561,3039.415,3036.193,-0.02389335,0.0503459,0.02376276,-0.826638519763947,-0.343276530504227,0.567736446857452,-0.835248923368004,-0.359384277571698,0.517058871988738,0
3.41999816894531,-2.7243218421936,1.93230772018433,2.61090159416199,-2.45644516534361,1.90887665092339,2.66351366424015,1252.111,1251.596,3036.11,3030.642,-0.02225124,0.05080032,0.02224224,-0.815894722938538,-0.33849036693573,0.561619281768799,-0.824110582941664,-0.354591760855451,0.510163708672097,0
3.44000244140625,-2.74042177200317,1.92563486099243,2.62200856208801,-2.47281804716281,1.90183185728196,2.67364925803476,1249.484,1249.752,3031.722,3027.578,-0.02061873,0.0512479,0.02072703,-0.804979503154755,-0.333643108606339,0.555345714092255,-0.812800388649434,-0.349725300221754,0.503162159625937,0
3.45999908447266,-2.7562997341156,1.91905999183655,2.6329870223999,-2.48895692832918,1.89488774758421,2.68363999427827,1251.117,1247.841,3026.62,3021.215,-0.0189894,0.05169266,0.01920129,-0.79389899969101,-0.328737616539001,0.548918306827545,-0.801332006385299,-0.344790775723006,0.496062684689628,0
3.48000335693359,-2.77195310592651,1.91258430480957,2.6438353061676,-2.50487092366784,1.88804039997555,2.69349151548162,1249.308,1246.367,3023.16,3016.402,-0.01738085,0.05212848,0.01768486,-0.782657444477081,-0.323777854442596,0.542409181594849,-0.78970183472369,-0.339786637766397,0.488863054409187,0
3.5,-2.78737783432007,1.90620899200439,2.65455007553101,-2.5205447997813,1.88129636896134,2.70319439144611,1247.342,1244.522,3018.418,3013.212,-0.01579041,0.05255591,0.01617718,-0.771260201931,-0.318767845630646,0.535737216472626,-0.777924000354857,-0.334718964672089,0.481572013878822,0
3.52000427246094,-2.80257248878479,1.89993476867676,2.66512942314148,-2.53598752699493,1.87465179486116,2.71275417523047,1246.63,1242.745,3015.008,3007.546,-0.01420796,0.0529762,0.01467299,-0.759715497493744,-0.313712149858475,0.528970658779144,-0.765994882555673,-0.32958619854407,0.474187321698442,0
3.54000091552734,-2.81753301620483,1.89376258850098,2.67557048797607,-2.55118444594166,1.86811298519115,2.72216179198813,1245.322,1241.141,3010.065,3003.827,-0.01264043,0.05338817,0.01317827,-0.748027145862579,-0.308612942695618,0.52205091714859,-0.753929052770513,-0.324394609067776,0.466717998286246,0
3.56000518798828,-2.83225703239441,1.88769316673279,2.68587136268616,-2.56614438200044,1.86167614263729,2.7314227050491,1244.454,1239.477,3006.51,2998.534,-0.01108461,0.05379184,0.01169145,-0.736202776432037,-0.303473949432373,0.515041708946228,-0.741722887351597,-0.319142637088802,0.459161800431646,0
3.58000183105469,-2.84674191474915,1.88172698020935,2.69602918624878,-2.58085326729328,1.85534732021446,2.74052820572674,1243.299,1237.908,3001.582,2994.803,-0.009546367,0.05418662,0.01021594,-0.724247217178345,-0.298297494649887,0.507888317108154,-0.729391385793765,-0.313836736470737,0.451528013536464,0
3.59999847412109,-2.86098527908325,1.87586569786072,2.70604228973389,-2.59531431270705,1.84912513636775,2.74948028171299,1242.169,1236.352,2998.194,2989.691,-0.008021974,0.05457204,0.008751662,-0.712168037891388,-0.293087303638458,0.500657737255096,-0.716935713767317,-0.308477408768949,0.443817359206151,0
3.62000274658203,-2.87498450279236,1.87010848522186,2.71590828895569,-2.60953046793176,1.84300832192796,2.75828075900647,1239.737,1234.822,2993.699,2986.902,-0.006514625,0.05494762,0.007303145,-0.699970722198486,-0.287846058607101,0.493294537067413,-0.704356955827444,-0.303065120637236,0.436030508832034,0
3.63999938964844,-2.88873791694641,1.86445677280426,2.72562479972839,-2.6234885835008,1.83700253474321,2.76692149746096,1241.182,1233.231,2989.189,2980.567,-0.005016863,0.05531703,0.005857186,-0.687662661075592,-0.282576471567154,0.485822141170502,-0.691670720740692,-0.297606588091786,0.428177124984152,0
3.66000366210938,-2.90224266052246,1.85891139507294,2.73519039154053,-2.63719712493647,1.83110413233575,2.77540773763803,1238.643,1232.092,2985.69,2976.925,-0.003547331,0.05567415,0.004434707,-0.675248324871063,-0.277281165122986,0.478283166885376,-0.678873453515702,-0.29210028151913,0.420255006953505,0
3.68000030517578,-2.91549754142761,1.85347199440002,2.7446026802063,-2.65064357486757,1.82531850058072,2.78373173068862,1237.254,1230.448,2981.158,2973.599,-0.002097506,0.05602152,0.003028455,-0.662736177444458,-0.271963864564896,0.47061288356781,-0.665981146317811,-0.286553081901244,0.412274054652249,0
3.70000457763672,-2.92850017547607,1.84813964366913,2.75386047363281,-2.66383625774188,1.8196420577008,2.79189862984245,1236.45,1229.076,2977.993,2968.318,-0.0006620619,0.05635967,0.001637455,-0.650133490562439,-0.266627699136734,0.4628846347332,-0.652990303744022,-0.280963485263868,0.404232104259425,0
3.72000122070313,-2.94124937057495,1.84291362762451,2.7629611492157,-2.6767633032417,1.81407991116207,2.79990108680742,1234.947,1227.719,2973.292,2965.269,0.0007523408,0.05668742,0.0002673014,-0.637446165084839,-0.261274546384811,0.455032140016556,-0.639917282339434,-0.275338529371411,0.396139281255611,0
3.73999786376953,-2.95374298095703,1.83779561519623,2.77190375328064,-2.68942811570037,1.808630596175,2.80774120902801,1234.501,1226.333,2970.088,2959.977,0.002151619,0.05700586,-0.001085504,-0.624681830406189,-0.25590717792511,0.447126299142838,-0.626763698705669,-0.269678909802388,0.38799658639423,0
3.76000213623047,-2.96597957611084,1.8327853679657,2.78068614006042,-2.70183383146282,1.803292763258,2.81542093805117,1232.315,1225.037,2965.717,2957.519,0.003527349,0.05731329,-0.002412824,-0.611846745014191,-0.25052747130394,0.439115345478058,-0.613531154887639,-0.263985315871967,0.379805011417393,0
3.77999877929688,-2.97795820236206,1.82788240909576,2.789306640625,-2.7139695770734,1.79807109095524,2.82293354268985,1233.615,1223.561,2961.437,2951.953,0.004885776,0.05761304,-0.003728958,-0.598948895931244,-0.245138004422188,0.431023776531219,-0.60023651686137,-0.258265004538452,0.371574997167698,0
3.80000305175781,-2.98967814445496,1.82308769226074,2.79776477813721,-2.72584333814708,1.79296214327972,2.83028396642013,1231.332,1222.641,2958.415,2948.363,0.006210184,0.05790026,-0.005014732,-0.58599317073822,-0.239741191267967,0.422902971506119,-0.586876524285838,-0.252516572968186,0.363304525338741,0
3.81999969482422,-3.00113821029663,1.81840062141418,2.80605840682983,-2.73744492223163,1.78797030575888,2.83746589962856,1229.203,1221.192,2954.392,2946.072,0.007508728,0.05817647,-0.006273875,-0.572989284992218,-0.234340876340866,0.414680749177933,-0.573468357077023,-0.246747413199059,0.355004231116903,0
3.84000396728516,-3.01233720779419,1.81382203102112,2.81418681144714,-2.74878218705843,1.78309219743042,2.84448420662517,1229.093,1219.901,2951.389,2940.891,0.008793048,0.05844431,-0.007514375,-0.559944689273834,-0.228939414024353,0.406419098377228,-0.560008885098766,-0.240956178420931,0.346672176798797,0
3.86000061035156,-3.02327442169189,1.80935120582581,2.8221480846405,-2.75984563331209,1.77833190558438,2.85133300688122,1228.178,1218.768,2946.977,2937.9,0.01005067,0.05870179,-0.008727712,-0.546865403652191,-0.223538383841515,0.398069381713867,-0.546515580872635,-0.235150386571708,0.338319178707605,0
3.8800048828125,-3.03394937515259,1.80498826503754,2.82994198799133,-2.77064299647982,1.77368610185671,2.85801708903178,1227.994,1217.571,2943.939,2933.178,0.01128309,0.05894916,-0.009916547,-0.533758461475372,-0.218139976263046,0.38969486951828,-0.532985466132484,-0.229328756186666,0.329943393154704,0
3.90000152587891,-3.04436230659485,1.8007333278656,2.83756709098816,-2.78116548164984,1.76915857045225,2.8645310086075,1226.486,1216.443,2940.046,2930.644,0.0124811,0.05918495,-0.01107342,-0.520631432533264,-0.212746903300285,0.381254553794861,-0.519436284009554,-0.223498921639498,0.32155580398356,0
3.91999816894531,-3.05451226234436,1.79658627510071,2.84502291679382,-2.79141684911929,1.7647476934202,2.87087709341145,1225.522,1215.229,2937.179,2926.856,0.01365167,0.05941042,-0.0122026,-0.507492482662201,-0.207362025976181,0.3727907538414,-0.505870408491346,-0.2176619043907,0.313157880805522,0
