t,x_s1,x_s2,x_s3,x_s_d1,x_s_d2,x_s_d3,propellers_rpms1,propellers_rpms2,propellers_rpms3,propellers_rpms4,rollRad,pitchRad,yawRad,v_s1,v_s2,v_s3,v_s_d1,v_s_d2,v_s_d3,insideCount
0,-0.0599999986588955,2.94000005722046,1.17999994754791,-0.0599999986588955,2.94000005722046,1.17999994754791,0,0,0,0,0,0,0,0,0,0,-1.06581410364015E-15,4.44089209850063E-16,4.44089209850063E-16,0
0.0200042724609375,-0.0599999986588955,2.94000005722046,1.17811644077301,-0.0600018701838461,2.93999925195556,1.18000110611101,0,0,0,0,-0.01635288,0.0001297794,-0.01587137,-1.10653664009419E-09,-7.76775763711157E-08,-0.0941759571433067,-0.000280105751305916,-0.000120521679537258,0.00017339880334547,5
0.0400009155273438,-0.0599999986588955,2.94000005722046,1.17242503166199,-0.0600148724204753,2.93999365745638,1.18000915511487,0,0,0,0,-0.03270202,0.0005238493,-0.03175127,-1.08383135799528E-09,-7.60859677484405E-08,-0.284568399190903,-0.00111101934050116,-0.00047804058392963,0.00068777389696065,5
0.0600051879882813,-0.0599058829247952,2.93990302085876,1.16596508026123,-0.0600499046557519,2.93997858406422,1.18003084173732,1868.045,3252.776,3183.965,1722.467,-0.04942134,0.0003294761,-0.01369451,0.00470573361963034,-0.0048492681235075,-0.322995036840439,-0.00247998555168399,-0.00106706850011317,0.00153522919458695,5
0.0800018310546875,-0.059820368885994,2.93960738182068,1.16000306606293,-0.0601175574246769,2.93994947496775,1.18007272202403,1925.605,2314.388,3251.986,2829.434,-0.07543138,-0.002135855,0.02094779,0.00427578017115593,-0.0147782657295465,-0.29810032248497,-0.00437268608126799,-0.00188144466206175,0.00270690098422899,5
0.100006103515625,-0.0599374435842037,2.93904495239258,1.15498650074005,-0.0602282404704493,2.93990185114529,1.18014124010193,980.1481,1498.819,3915.03,3896.608,-0.1031943,-0.008062987,0.06330775,-0.00585371907800436,-0.0281163863837719,-0.250825673341751,-0.00677739276378709,-0.00291612276782231,0.00419552897277328,4
0.120002746582031,-0.0604638382792473,2.93818354606628,1.15081310272217,-0.0603919599823235,2.93983140721312,1.18024259027882,346.5067,980.4406,4172.759,4613.324,-0.1214316,-0.01542077,0.104001,-0.0263197124004364,-0.0430678725242615,-0.208670139312744,-0.00967921398219614,-0.00416469537060396,0.00599189453988277,4
0.140007019042969,-0.0615636073052883,2.93704128265381,1.14728283882141,-0.0606186764367049,2.93973385745652,1.18038293856409,352.83,747.0342,3975.524,4854.942,-0.1254008,-0.0211668,0.1351054,-0.054988406598568,-0.0571135953068733,-0.176515623927116,-0.0130674084335593,-0.00562254078783065,0.00808934830736095,4
0.160003662109375,-0.0633408427238464,2.93568110466003,1.14427495002747,-0.0609177895434042,2.93960515744296,1.18056810382587,821.017,815.0298,3462.603,4692.375,-0.1184595,-0.02352423,0.1522695,-0.0888616368174553,-0.0680144280195236,-0.15039587020874,-0.0169265510445065,-0.00728302204135792,0.0104783414199936,3
0.180000305175781,-0.0658468753099442,2.93417239189148,1.14182543754578,-0.0612986871007165,2.9394412678651,1.18080389755851,1348.646,1083.299,3006.842,4255.26,-0.1079816,-0.02277961,0.1557782,-0.125301867723465,-0.0754305571317673,-0.122477538883686,-0.0212451141043368,-0.00914117907931815,0.0131517376757159,3
0.200004577636719,-0.0690849423408508,2.93255400657654,1.14006173610687,-0.0617706280683152,2.93923820485124,1.18109605149912,1636.37,1381.118,2918.566,3666.347,-0.09982699,-0.02030128,0.1501569,-0.161903351545334,-0.0809155330061913,-0.0881868228316307,-0.026012379510746,-0.0111924002017188,0.0161029020586274,3
0.220001220703125,-0.0730102509260178,2.93082618713379,1.139035820961,-0.0623420644491781,2.93899233174064,1.18144979784016,1641.56,1580.8,3147.94,3113.116,-0.09583918,-0.01735475,0.1421888,-0.196265682578087,-0.0863860547542572,-0.0512981936335564,-0.03121219533433,-0.0134297356845702,0.019321835755004,3
0.240005493164063,-0.0775499790906906,2.92897367477417,1.13863337039948,-0.0630219993990999,2.93869977472688,1.18187070996396,1524.064,1624.16,3417.907,2777.443,-0.09475687,-0.01467775,0.1377334,-0.226986452937126,-0.0926246419548988,-0.0201203171163797,-0.0368361158647881,-0.0158495515746756,0.0228033104678445,3
0.260002136230469,-0.0826388597488403,2.92699241638184,1.13863575458527,-0.0638182299684225,2.938357178957,1.18236361461609,1439.035,1500.914,3533.117,2744.21,-0.09439148,-0.01258823,0.1393018,-0.254444241523743,-0.0990577414631844,0.000117694959044456,-0.0428675524613532,-0.0184447102433459,0.0265370570382875,3
0.280006408691406,-0.0882447361946106,2.92490077018738,1.13885247707367,-0.0647394386306903,2.93796080860522,1.18293388666129,1400.42,1275.906,3476.861,2977.625,-0.09321223,-0.01110591,0.1456841,-0.280294090509415,-0.104584813117981,0.0108360340818763,-0.0492989108318322,-0.0212119440788105,0.0305183742376993,3
0.300003051757813,-0.094370499253273,2.92273259162903,1.13920724391937,-0.0657927507678135,2.93750759781875,1.18358593705038,1350.681,1061.646,3344.966,3324.827,-0.09053416,-0.009935189,0.1533107,-0.306287825107574,-0.108407348394394,0.0177411772310734,-0.0561132031658829,-0.0241439437008635,0.0347367458022363,3
0.319999694824219,-0.101035803556442,2.92052578926086,1.13972532749176,-0.0669860785243584,2.93699414222283,1.18432466377777,1280.869,941.0741,3237.68,3590.5,-0.08597963,-0.008523713,0.1583608,-0.333265721797943,-0.110343210399151,0.0259069427847862,-0.0633008373176985,-0.0272365818771378,0.0391862337367069,3
0.340003967285156,-0.108251392841339,2.91831207275391,1.14046192169189,-0.0683273092598492,2.93641704810699,1.18515494949472,1252.941,944.0496,3171.213,3649.938,-0.07944529,-0.006292517,0.1584788,-0.360779494047165,-0.110681004822254,0.0368317365646362,-0.0708528993697216,-0.0304860231979345,0.0438613199015142,4
0.360000610351563,-0.116002924740314,2.91611480712891,1.14145290851593,-0.0698225328270578,2.93577369517774,1.1860805641102,1320.001,1047.389,3120.227,3498.107,-0.07154742,-0.002963033,0.153474,-0.387576758861542,-0.109858833253384,0.0495466664433479,-0.0787518717320621,-0.0338847303337087,0.0487511600740379,4
0.3800048828125,-0.124251306056976,2.91394972801208,1.14270794391632,-0.0714797725314022,2.93506063123087,1.18710647443246,1455.322,1181.584,3090.971,3231.267,-0.0636144,0.001258681,0.1450386,-0.412418991327286,-0.108256861567497,0.0627503916621208,-0.0869921272359981,-0.0374302820709642,0.0538522707687797,4
0.400001525878906,-0.132943093776703,2.91182637214661,1.1442174911499,-0.0733044112230977,2.93427554017634,1.18823601270221,1579.537,1273.703,3104.669,2981.828,-0.05701988,0.005826079,0.1357472,-0.434590250253677,-0.106165327131748,0.0754783004522324,-0.0955558400788823,-0.0411150084648172,0.0591536169647403,4
0.420005798339844,-0.142023488879204,2.90975022315979,1.14595818519592,-0.0753042617149609,2.93341506037905,1.18947401542277,1631.129,1288.555,3159.289,2844.686,-0.05244084,0.01017531,0.1278566,-0.454020142555237,-0.103802748024464,0.087034247815609,-0.104438107169167,-0.0449367998519515,0.0646521634146853,4
0.44000244140625,-0.151445910334587,2.90772438049316,1.14789593219757,-0.077483988232608,2.93247718495301,1.19082336997196,1607.02,1238.16,3219.196,2842.951,-0.0496589,0.01397502,0.1224617,-0.471121460199356,-0.101291574537754,0.0968901962041855,-0.113620829717891,-0.048887868829098,0.0703367061060819,4
0.460006713867188,-0.161176636815071,2.9057514667511,1.14999735355377,-0.0798512213598696,2.93145863067119,1.19228880004469,1541.447,1158.165,3252.964,2938.169,-0.04788737,0.01718564,0.1193419,-0.486536622047424,-0.0986403897404671,0.105070322751999,-0.123099793815011,-0.0529664022684887,0.0762046364278779,4
0.480003356933594,-0.171193495392799,2.90383577346802,1.15223932266235,-0.0824098964715798,2.93035770425173,1.19387274182544,1474.481,1086.232,3247.998,3067.03,-0.04629053,0.01998683,0.1173791,-0.500842273235321,-0.0957793146371841,0.112101279199123,-0.132856662250146,-0.057164510180779,0.0822446027733248,5
0.5,-0.181480959057808,2.90198302268982,1.15461611747742,-0.085166398670376,2.92917165836334,1.1955791479969,1431.594,1046.227,3216.712,3169.594,-0.0443363,0.02264312,0.115226,-0.514374136924744,-0.0926408320665359,0.118838988244534,-0.142884000065179,-0.0614789935111996,0.0884520025491718,5
0.520004272460938,-0.192024201154709,2.90019845962524,1.15713512897491,-0.088127196023106,2.92789770997757,1.19741202260058,1423.073,1044.867,3177.684,3210.787,-0.04191869,0.02537757,0.1118909,-0.527162373065948,-0.0892295241355896,0.125951513648033,-0.153174893518032,-0.065906877469682,0.0948225558197254,5
0.540000915527344,-0.202804505825043,2.89848566055298,1.15981006622314,-0.0912951145137283,2.92653464315245,1.19937311505516,1446.333,1073.612,3148.086,3184.361,-0.03929015,0.02828936,0.1070502,-0.539015531539917,-0.0856402516365051,0.133747607469559,-0.163710711144578,-0.0704401454577151,0.101344728821151,5
0.560005187988281,-0.213797867298126,2.89684510231018,1.16265320777893,-0.0946774438086223,2.9250793213482,1.20146693801139,1484.281,1113.892,3138.861,3113.938,-0.03688531,0.03132805,0.1010577,-0.549667298793793,-0.0820320025086403,0.142155587673187,-0.174488813605259,-0.0750776618412222,0.108016887676534,5
0.580001831054688,-0.224976196885109,2.89527368545532,1.16566824913025,-0.0982762614093182,2.92353085067394,1.20369477754168,1520.853,1148.795,3145.739,3035.207,-0.03513029,0.0343451,0.09465457,-0.558916330337524,-0.0785765573382378,0.150754556059837,-0.185490414529404,-0.0798113433697334,0.11482740272751,5
0.600006103515625,-0.236310914158821,2.89376521110535,1.16885197162628,-0.102098762959148,2.92188613504538,1.20606108809202,1540.378,1167.012,3163.692,2979.013,-0.03429299,0.03716069,0.08861626,-0.566736817359924,-0.0754197314381599,0.159185215830803,-0.196713446836865,-0.0846403006364086,0.121774994352997,5
0.620002746582031,-0.24777626991272,2.89231181144714,1.17219495773315,-0.106146271928021,2.92014460501038,1.20856668895334,1535.062,1167.359,3181.875,2964.007,-0.03442189,0.03963227,0.08345697,-0.573267996311188,-0.0726665258407593,0.167150214314461,-0.208139001499973,-0.0895563976148993,0.128847956964108,5
0.639999389648438,-0.259351581335068,2.89090418815613,1.17568755149841,-0.110424235525481,2.91830391678686,1.21121495220784,1506.7,1156.351,3195.144,2986.707,-0.03534707,0.04169819,0.07929663,-0.578765213489532,-0.0703817754983902,0.174631088972092,-0.219761081350814,-0.0945570538913933,0.136042578028218,5
0.660003662109375,-0.271021395921707,2.88953232765198,1.17932105064392,-0.114938248900541,2.91636166293851,1.21400934151928,1466.214,1144.165,3197.856,3031.751,-0.03678038,0.04338425,0.07590935,-0.583491504192352,-0.0685979947447777,0.181677266955376,-0.231574097577923,-0.0996398647564507,0.143355397804799,5
0.680000305175781,-0.282774418592453,2.88818573951721,1.18308997154236,-0.119688496929273,2.91431776391831,1.21694997133476,1430.207,1139.768,3189.813,3074.889,-0.0384422,0.04477706,0.07288397,-0.587650775909424,-0.0673261806368828,0.188444510102272,-0.243559016194652,-0.104796640417365,0.150774633349401,5
0.700004577636719,-0.29460147023201,2.88685417175293,1.18699276447296,-0.124682034788652,2.91216918408072,1.22004120914491,1404.337,1146.248,3177.629,3101.853,-0.04016792,0.04596718,0.06985774,-0.591353118419647,-0.0665750727057457,0.195142179727554,-0.255715062526221,-0.110027047553219,0.158299805101433,5
0.720001220703125,-0.306493788957596,2.88552689552307,1.19102907180786,-0.129918284978346,2.90991617190799,1.22328269744952,1393.278,1162.883,3163.271,3107.276,-0.0419352,0.04702026,0.06663005,-0.594616711139679,-0.0663602128624916,0.201813414692879,-0.268023157655716,-0.11532287703907,0.16591910230247,5
0.740005493164063,-0.318442285060883,2.88419270515442,1.19520008563995,-0.13540428105644,2.90755570105657,1.22667879035609,1392.171,1185.098,3154.002,3093.737,-0.0438335,0.04795193,0.06321865,-0.597425401210785,-0.0667105093598366,0.208549231290817,-0.280482990349159,-0.120683994959631,0.173632332283853,5
0.760002136230469,-0.330437451601028,2.88283944129944,1.19950520992279,-0.14113868194985,2.90508834855275,1.23022865767651,1392.626,1207.638,3149.361,3074.656,-0.04600291,0.04873425,0.05981031,-0.599758863449097,-0.0676628053188324,0.215253502130508,-0.293075466693575,-0.12610218573757,0.181427675003881,5
0.780006408691406,-0.34247037768364,2.88145422935486,1.20394313335419,-0.147128517541541,2.90251108963428,1.2339366512432,1387.582,1226.545,3151.16,3058.656,-0.04854197,0.04931838,0.05664933,-0.60164487361908,-0.069256991147995,0.221894323825836,-0.305800709292355,-0.131577502125703,0.189305206359895,5
0.800003051757813,-0.354533404111862,2.88002371788025,1.20850944519043,-0.153371683173492,2.89982482987671,1.2378014681726,1374.048,1240.617,3153.746,3054.747,-0.05147784,0.04966026,0.05393605,-0.60315215587616,-0.0715211853384972,0.228314578533173,-0.318639638509124,-0.13710173468952,0.197253115148089,5
0.819999694824219,-0.366621315479279,2.8785343170166,1.21319961547852,-0.159872691993147,2.89702762739878,1.24182590231796,1352.574,1250.807,3156.754,3061.763,-0.05475033,0.04973844,0.05176206,-0.604395270347595,-0.0744705349206924,0.234509617090225,-0.331587821991737,-0.142672976311719,0.205268657531342,4
0.840003967285156,-0.378731161355972,2.87697219848633,1.21800792217255,-0.166636266402775,2.89411745028271,1.24601287707125,1325.698,1259.424,3155.966,3078.994,-0.05825398,0.04955808,0.05010834,-0.605493664741516,-0.0781005173921585,0.240416437387466,-0.344641102544584,-0.148289438267168,0.213349260007538,4
0.860000610351563,-0.390862345695496,2.87532424926758,1.22292935848236,-0.173659158941841,2.89109569582005,1.2503603820997,1301.606,1269.179,3150.969,3096.668,-0.06186896,0.04915192,0.04886233,-0.606558740139008,-0.0823929831385612,0.246069684624672,-0.357780475378537,-0.153942943326036,0.221483157706883,4
0.8800048828125,-0.403015851974487,2.87357783317566,1.22796106338501,-0.180948461186242,2.88795931270381,1.25487280742661,1277.535,1281.036,3145.728,3113.052,-0.06551056,0.04855464,0.04791809,-0.607674419879913,-0.0873259231448174,0.2515829205513,-0.371007022483504,-0.159633957038354,0.229671020432672,4
0.900001525878906,-0.415193617343903,2.87172055244446,1.2330995798111,-0.188500167066783,2.88471002463366,1.2595476731043,1259.188,1295.211,3138.233,3124.343,-0.06911808,0.04780598,0.04717937,-0.608887791633606,-0.0928692221641541,0.256924986839294,-0.384301823631742,-0.165354338558695,0.237901135662636,4
0.920005798339844,-0.427398204803467,2.8697407245636,1.23834347724915,-0.196321418238714,2.88134475875484,1.26438940015758,1246.271,1310.88,3133.037,3127.652,-0.07266914,0.04693351,0.04660896,-0.610231578350067,-0.0989965721964836,0.262196451425552,-0.397666296250757,-0.171104697766516,0.246174380851924,4
0.94000244140625,-0.439632594585419,2.86762714385986,1.24369025230408,-0.204407453948074,2.87786556348678,1.26939504145298,1236.543,1326.65,3127.888,3128.634,-0.07618345,0.04594882,0.04623126,-0.611719369888306,-0.105675309896469,0.267340034246445,-0.411081631631503,-0.176876941799768,0.254479112513653,4
0.960006713867188,-0.45190018415451,2.86536955833435,1.249138712883,-0.212765478812529,2.87426933888379,1.27456905699201,1227.301,1341,3126.362,3127.989,-0.07967485,0.04485305,0.04610078,-0.613378942012787,-0.112879022955894,0.272424817085266,-0.424549556012544,-0.182671813410681,0.262816399271726,3
0.980003356933594,-0.464204967021942,2.86295819282532,1.25468611717224,-0.221389982382338,2.87055845593844,1.2799080355438,1216.957,1353.377,3124.615,3131.218,-0.08315454,0.04364439,0.0462735,-0.615238845348358,-0.120572343468666,0.27737095952034,-0.438051398499298,-0.18848127903492,0.271174682952979,3
1,-0.476551920175552,2.86038374900818,1.26033103466034,-0.230284798736574,2.86673126495361,1.28541435058594,1204.844,1363.581,3125.248,3136.659,-0.08659747,0.0423252,0.04677776,-0.617348074913025,-0.128723651170731,0.282244384288788,-0.451584000205995,-0.194303979492187,0.279552008056641,3
1.02000427246094,-0.488946914672852,2.85763788223267,1.26607084274292,-0.239454009753966,2.86278600961093,1.2910905289958,1190.907,1372.198,3124.787,3146.931,-0.08996478,0.04090518,0.04761138,-0.619749903678894,-0.137289762496948,0.286990195512772,-0.465144357597929,-0.200138622445408,0.287946515251652,3
1.04000091552734,-0.501396715641022,2.85471343994141,1.27190327644348,-0.24889099213045,2.8587255397331,1.29693247063265,1181.314,1380.143,3122.692,3155.926,-0.09320798,0.03940788,0.04872331,-0.62248957157135,-0.146223798394203,0.291622877120972,-0.478714054341683,-0.205977283860805,0.296346803950333,3
1.06000518798828,-0.513908743858337,2.85160374641418,1.27782809734344,-0.258603157406353,2.85454666634136,1.30294476359303,1169.844,1387.651,3122.341,3166.366,-0.0962999,0.03785007,0.05008019,-0.625604271888733,-0.155482679605484,0.296241939067841,-0.492295476531527,-0.211820990408084,0.304754351258706,3
1.08000183105469,-0.526490986347198,2.84830355644226,1.28384399414063,-0.268583149539609,2.85025255453512,1.30912285413647,1161.674,1394.879,3120.374,3176.05,-0.09920541,0.03625835,0.05162739,-0.629111409187317,-0.165013745427132,0.300792425870895,-0.50587040849135,-0.217661904390701,0.313157880805523,3
1.10000610351563,-0.539151549339294,2.84480810165405,1.28995144367218,-0.278838480013141,2.84583997233313,1.31547139222872,1156.529,1401.783,3120.414,3182.093,-0.1019027,0.03465443,0.05332574,-0.633028268814087,-0.1747727394104,0.305371820926666,-0.519441457145546,-0.223501147495394,0.321559006401169,3
1.12000274658203,-0.551898598670959,2.84111404418945,1.29615008831024,-0.289361068555186,2.84131239645058,1.32198537579665,1154.349,1408.295,3119.348,3187.527,-0.1043954,0.03305558,0.05515631,-0.637352347373962,-0.184706300497055,0.309931546449661,-0.532990631455731,-0.229330978680957,0.329946590735853,3
1.13999938964844,-0.564740478992462,2.83721852302551,1.30244135856628,-0.300154365346813,2.83666834237095,1.3286669406667,1153.195,1413.645,3121.072,3191.306,-0.1066889,0.0314717,0.05711443,-0.642090439796448,-0.194773107767105,0.314563870429993,-0.546515580872639,-0.235150386571708,0.338319178707607,3
1.16000366210938,-0.577685177326202,2.83312010765076,1.30882585048676,-0.311222084148811,2.83190621216671,1.33551838583369,1151.912,1417.766,3122.854,3196.94,-0.108788,0.02991069,0.05920228,-0.64723789691925,-0.204924955964088,0.319226890802383,-0.560014026276883,-0.240958390526247,0.34667535943296,3
1.18000030517578,-0.590741157531738,2.82881784439087,1.31530439853668,-0.322555076427271,2.82702994219644,1.34253404791935,1154.792,1420.905,3124.06,3200.724,-0.1106954,0.02838529,0.06140003,-0.652797043323517,-0.215115815401077,0.323924690485001,-0.573468357077025,-0.246747413199059,0.355004231116904,3
1.20000457763672,-0.603916645050049,2.82431173324585,1.32187938690186,-0.334161138043845,2.82203617811866,1.3497187529334,1154.17,1422.723,3128.327,3206.892,-0.1124216,0.02689657,0.06371246,-0.658773958683014,-0.225310549139977,0.328750222921371,-0.586881630238192,-0.252518769916838,0.363307686166476,3
1.22000122070313,-0.617219805717468,2.81960248947144,1.32855176925659,-0.346030421585499,2.81692915700008,1.35706640485806,1154.987,1423.608,3131.022,3214.301,-0.1139529,0.02545833,0.06611247,-0.665160834789276,-0.23546290397644,0.33361890912056,-0.600236516861372,-0.258265004538453,0.371574997167698,3
1.24000549316406,-0.63065904378891,2.81469178199768,1.33532404899597,-0.358170848086624,2.8117054706409,1.36458190719098,1157.322,1423.716,3135.389,3219.839,-0.1152749,0.02408177,0.06856908,-0.671960532665253,-0.245538145303726,0.338613122701645,-0.613536214864368,-0.263987493038594,0.379808143784027,2
1.26000213623047,-0.644242227077484,2.80958199501038,1.34219753742218,-0.370571882958536,2.80636965178032,1.3722587385199,1161.678,1423.672,3137.668,3225.945,-0.1163935,0.02277915,0.07105371,-0.679156184196472,-0.255491137504578,0.343673437833786,-0.626763698705669,-0.269678909802388,0.38799658639423,2
1.28000640869141,-0.657976925373077,2.80427622795105,1.34917545318604,-0.3832415776177,2.80091823611877,1.38010188305518,1166.421,1422.906,3142.293,3230.57,-0.1173138,0.02155764,0.0735431,-0.68674224615097,-0.265292584896088,0.348897486925125,-0.63992228592145,-0.275340682272968,0.396142378711234,2
1.30000305175781,-0.671870827674866,2.79877805709839,1.35625994205475,-0.396168722856641,2.79535604666509,1.38810440176341,1172.487,1421.957,3145.558,3235.588,-0.1180505,0.02042536,0.07601698,-0.694693326950073,-0.274904936552048,0.35422471165657,-0.652995275331231,-0.280965624398954,0.404235181908735,2
1.31999969482422,-0.685930788516998,2.7930920124054,1.3634546995163,-0.409356423791328,2.7896817473746,1.39626821685929,1178.523,1420.182,3151.46,3239.117,-0.1186076,0.01938602,0.07846259,-0.702996850013733,-0.284305810928345,0.359736770391464,-0.665981146317813,-0.286553081901244,0.412274054652251,2
1.34000396728516,-0.700163185596466,2.78722262382507,1.37076210975647,-0.422808053134535,2.78389388706324,1.40459541621271,1184.719,1417.956,3156.486,3243.718,-0.1189938,0.01844312,0.08087137,-0.711623013019562,-0.29346439242363,0.365368217229843,-0.678878353700697,-0.292102389931837,0.420258040401443,2
1.36000061035156,-0.714574158191681,2.78117561340332,1.37818443775177,-0.436511415158101,2.77799771321212,1.41307845008695,1195.511,1415.682,3160.175,3245.349,-0.1192233,0.01760369,0.08321944,-0.720550179481506,-0.302353590726852,0.371116667985916,-0.691670720740693,-0.297606588091785,0.42817712498415,2
1.3800048828125,-0.729169428348541,2.77495646476746,1.38572585582733,-0.450474904562636,2.77198961381608,1.4217225152016,1202.041,1412.472,3167.047,3249.071,-0.1193245,0.01685901,0.08551881,-0.729762494564056,-0.310960590839386,0.377071559429169,-0.704361775018035,-0.303067194200314,0.436033492140578,2
1.40000152587891,-0.743954002857208,2.76857113838196,1.39338862895966,-0.464685685951852,2.76587511158757,1.43051966583492,1209.312,1408.937,3172.275,3253.583,-0.119299,0.01621227,0.08775423,-0.739227652549744,-0.319263517856598,0.383137136697769,-0.716935713767318,-0.308477408768949,0.443817359206152,2
1.42000579833984,-0.758932590484619,2.76202607154846,1.40117621421814,-0.479152296198309,2.75965053334882,1.43947518671769,1216.942,1404.869,3179.255,3256.382,-0.119144,0.01566476,0.08991134,-0.748930156230927,-0.327252715826035,0.389377027750015,-0.729396114728537,-0.313838771199258,0.451530940972358,2
1.44000244140625,-0.774109303951263,2.75532793998718,1.40909039974213,-0.493861275572861,2.75332167044526,1.4485807456364,1226.069,1401.128,3183.561,3259.714,-0.1188729,0.01521827,0.09197619,-0.758834660053253,-0.334907859563828,0.39570677280426,-0.741727567798258,-0.319144650954242,0.459164697851088,2
1.45999908447266,-0.789487838745117,2.74848341941833,1.41713464260101,-0.508815552717244,2.74688726276417,1.45783815555978,1234.526,1396.889,3190.008,3261.962,-0.1184973,0.01486959,0.09394012,-0.76892501115799,-0.342224657535553,0.402211934328079,-0.753929052770513,-0.324394609067776,0.466717998286247,2
1.48000335693359,-0.805071175098419,2.74149966239929,1.42531132698059,-0.524018315758597,2.74034593854351,1.46724939009041,1241.903,1392.618,3195.643,3265.592,-0.1180276,0.0146162,0.09579804,-0.779166281223297,-0.349193334579468,0.408833354711533,-0.765999459475408,-0.329588167864767,0.474190155029787,2
1.5,-0.820861756801605,2.73438358306885,1.43362236022949,-0.539455198877605,2.73370387899399,1.4768055561018,1253.017,1388.838,3199.618,3266.397,-0.1174779,0.01446122,0.09752756,-0.789530098438263,-0.355806291103363,0.415552377700806,-0.777924000354858,-0.334718964672088,0.481572013878822,1
1.52000427246094,-0.836861670017242,2.7271420955658,1.44207143783569,-0.555135099954955,2.72695725560613,1.48651216180595,1260.136,1384.393,3206.94,3268.166,-0.1168686,0.01439304,0.09914342,-0.799996435642242,-0.362070798873901,0.422452807426453,-0.789706299681991,-0.339788558913217,0.48886581843107,1
1.54000091552734,-0.853072106838226,2.71978235244751,1.45065975189209,-0.571043070329722,2.72011250037111,1.49635995326965,1267.954,1380.148,3211.995,3270.502,-0.1162028,0.01441051,0.1006408,-0.810525059700012,-0.367982566356659,0.429417759180069,-0.801332006385301,-0.344790775723006,0.496062684689629,1
1.56000518798828,-0.869494140148163,2.71231150627136,1.45938980579376,-0.587188152687502,2.71316572247394,1.50635452834604,1276.006,1375.568,3218.475,3271.085,-0.1154795,0.01450943,0.1020165,-0.821097910404205,-0.373548299074173,0.436503022909164,-0.812804733542556,-0.349727169707881,0.503164849321754,1
1.58000183105469,-0.886127769947052,2.70473623275757,1.46826219558716,-0.60355483331529,2.70612359703193,1.51648628330776,1284.852,1371.564,3222.067,3272.59,-0.1147178,0.01468575,0.1032683,-0.831678688526154,-0.378764897584915,0.443622142076492,-0.824110582941666,-0.354591760855452,0.510163708672098,0
1.60000610351563,-0.902972757816315,2.69706344604492,1.47727942466736,-0.620152298932711,2.69898217125626,1.52676090517188,1292.028,1367.088,3228.128,3273.336,-0.1139279,0.01493159,0.1043978,-0.842254340648651,-0.383645117282867,0.450862228870392,-0.835253140422976,-0.35938609205264,0.51706148254665,0
1.62000274658203,-0.920028686523438,2.68929958343506,1.48644196987152,-0.636964489205914,2.69174835545992,1.53716845182668,1298.983,1363.142,3231.927,3275.234,-0.1131215,0.01524283,0.1054026,-0.852789282798767,-0.38819283246994,0.458128809928894,-0.846218976345106,-0.364104384899943,0.523849857357655,0
1.63999938964844,-0.937293946743011,2.68145108222961,1.49575173854828,-0.653994195024907,2.68442094880091,1.54771065096602,1304.982,1358.858,3237.949,3275.629,-0.1122954,0.01561439,0.1062815,-0.863269567489624,-0.392424136400223,0.465488314628601,-0.857007552155828,-0.368746407673381,0.530528499715628,0
1.66000366210938,-0.954767167568207,2.67352414131165,1.50520884990692,-0.671244443874359,2.67699864863716,1.55838937674714,1310.488,1354.961,3242.16,3277.079,-0.1114501,0.01604163,0.1070368,-0.873660862445831,-0.396345794200897,0.472853392362595,-0.867618167158098,-0.373311858882592,0.53709697585572,0
1.68000030517578,-0.972446084022522,2.66552495956421,1.51481294631958,-0.688698391434734,2.66948870260877,1.56919420173384,1319.959,1351.97,3243.935,3275.701,-0.1106016,0.016525,0.1076541,-0.88394021987915,-0.399964541196823,0.480204820632935,-0.878038122530658,-0.377795274579551,0.543547424602645,0
1.70000457763672,-0.990327894687653,2.65745902061462,1.52456569671631,-0.706365577065784,2.66188700619576,1.58013103124422,1324.375,1348.32,3249.363,3275.884,-0.1097712,0.01704832,0.1081574,-0.894097030162811,-0.403302371501923,0.487639784812927,-0.888270870184447,-0.382198140025102,0.549881982853708,0
1.72000122070313,-1.00840985774994,2.64933156967163,1.53446638584137,-0.724228658537036,2.6542010212754,1.5911891296115,1328.615,1345.108,3252.522,3277.051,-0.1089579,0.01760845,0.1085478,-0.904098153114319,-0.406371146440506,0.495037376880646,-0.898304216251578,-0.386515208538549,0.556093102023817,0
1.74000549316406,-1.02668857574463,2.64114785194397,1.54451537132263,-0.742297311768984,2.64642658456943,1.60237448669139,1332.829,1341.69,3257.294,3276.219,-0.1081488,0.01820173,0.1088264,-0.913934469223022,-0.40919041633606,0.502450823783875,-0.908141534469281,-0.390747931744771,0.562182870617028,0
1.76000213623047,-1.04516005516052,2.63291239738464,1.55471086502075,-0.76055371708895,2.63857136338517,1.61367607125764,1338.158,1339.161,3258.514,3276.22,-0.1073552,0.01882453,0.108995,-0.9235759973526,-0.411767423152924,0.509775340557098,-0.917771149318994,-0.394891285994308,0.568144060931169,0
1.78000640869141,-1.06382060050964,2.62462997436523,1.56505298614502,-0.779007683587635,2.63063113714492,1.62509995560466,1342.154,1336.327,3262.037,3275.134,-0.1065824,0.01946841,0.1090596,-0.933020174503326,-0.414122253656387,0.517104506492615,-0.927196343299057,-0.398946683654493,0.573978704989082,0
1.80000305175781,-1.08266544342041,2.61630463600159,1.5755398273468,-0.797640935141499,2.62261376955408,1.63663482594136,1345.402,1334.165,3263.092,3275.799,-0.1058431,0.0201286,0.1090247,-0.942241013050079,-0.416266560554504,0.524344086647034,-0.936405971974637,-0.402909329586356,0.579679903854719,0
1.81999969482422,-1.10169005393982,2.60794019699097,1.58617126941681,-0.816456197270346,2.61451808789761,1.64828236949435,1347.448,1331.7,3266.669,3274.878,-0.1051288,0.02080026,0.1088931,-0.95123690366745,-0.418223261833191,0.531570672988892,-0.945399824400851,-0.406779133026206,0.585247526943151,0
1.84000396728516,-1.12088990211487,2.59953999519348,1.59694516658783,-0.835456397410825,2.6063428325813,1.66004439848636,1348.532,1329.672,3268.479,3275.375,-0.1044337,0.02147974,0.1086719,-0.959983944892883,-0.420005202293396,0.5386922955513,-0.95417746870157,-0.410555908149813,0.59068130690248,0
1.86000061035156,-1.14025926589966,2.59110736846924,1.60785889625549,-0.854622615239374,2.59809614449182,1.6719092003358,1353.988,1328.652,3267.645,3272.784,-0.1037653,0.02216904,0.1083482,-0.968469977378845,-0.421622514724731,0.545685648918152,-0.962728579444532,-0.414235212212131,0.595974851798267,0
1.8800048828125,-1.15979313850403,2.58264565467834,1.61891198158264,-0.873964974649439,2.58977366760063,1.68388304221498,1354.543,1327.038,3270.452,3271.655,-0.1031405,0.02285361,0.1079498,-0.976696133613586,-0.423098266124725,0.552653670310974,-0.971056158224177,-0.417818336715394,0.601130019760457,0
1.90000152587891,-1.17948579788208,2.57415676116943,1.63010144233704,-0.893464153455626,2.58138371570432,1.69595396277071,1354.694,1325.902,3270.639,3272.162,-0.1025551,0.02353163,0.1074808,-0.98464024066925,-0.424444884061813,0.559470355510712,-0.979150439632688,-0.421301079877433,0.606140765536421,0
1.92000579833984,-1.19933187961578,2.5656430721283,1.64142560958862,-0.913130393017452,2.572921882232,1.70812830189239,1355.036,1324.555,3272.847,3270.196,-0.1019927,0.02420163,0.1069425,-0.992307245731354,-0.425681948661804,0.566208720207214,-0.98701429350817,-0.424684676509409,0.611008865692653,0
1.94000244140625,-1.21932554244995,2.55710649490356,1.65288078784943,-0.932943991899774,2.5643966441608,1.72039386345315,1356.003,1324.05,3271.551,3269.652,-0.1014584,0.02486108,0.1063404,-0.999677419662476,-0.426815986633301,0.572758555412292,-0.994638524886308,-0.427965170275055,0.615728628108227,0
1.95999908447266,-1.23946058750153,2.54854941368103,1.66446506977081,-0.952907658613767,2.55580683609405,1.73275232415044,1356.077,1323.243,3272.541,3267.737,-0.1009503,0.02550552,0.1056797,-1.00675940513611,-0.427863985300064,0.579216182231903,-1.00202309041976,-0.431142542523221,0.620300025949072,0
1.98000335693359,-1.25973153114319,2.53997278213501,1.67617511749268,-0.973024270010337,2.54715122020317,1.74520546489201,1354.218,1322.754,3272.007,3268.265,-0.1004699,0.02613134,0.1049697,-1.01353979110718,-0.428835332393646,0.58550500869751,-1.00916768936771,-0.434216663853535,0.624722873042297,0
2,-1.28013169765472,2.53137803077698,1.68800747394562,-0.993273599084619,2.53843849960327,1.7577407641983,1356.331,1323.104,3269.596,3265.595,-0.1000171,0.0267429,0.1041945,-1.02001702785492,-0.429738730192184,0.591616749763489,-1.01606400046349,-0.437183953857422,0.628992018127441,0
2.02000427246094,-1.30065560340881,2.52276611328125,1.69996047019958,-1.01366615605493,2.52966415204104,1.77036472839513,1353.453,1322.874,3271.008,3264.332,-0.09959903,0.02732914,0.1033809,-1.02619826793671,-0.430593401193619,0.597647130489349,-1.02271452148052,-0.440045487257004,0.633109007445237,0
2.04000091552734,-1.32129693031311,2.51413798332214,1.71202969551086,-1.0341813929022,2.52083701875502,1.78306463727984,1351.22,1323.12,3269.423,3264.164,-0.09920435,0.02789242,0.1025304,-1.03206717967987,-0.431405454874039,0.603458523750305,-1.02911152474823,-0.442797939051516,0.637069057199471,0
2.06000518798828,-1.34204971790314,2.5054943561554,1.72421228885651,-1.05482991650149,2.51195253590321,1.79584705701339,1349.881,1323.182,3269.424,3261.474,-0.09881606,0.02843296,0.1016437,-1.03763437271118,-0.432186454534531,0.609127163887024,-1.03525734386973,-0.445442313325188,0.640873612001644,0
2.08000183105469,-1.36290740966797,2.49683570861816,1.73650348186493,-1.07559088172821,2.50301967256038,1.80869908347065,1349.116,1323.957,3266.151,3260.394,-0.09844588,0.02894961,0.1007269,-1.04288828372955,-0.432936519384384,0.614560663700104,-1.04114485287423,-0.447975543971863,0.644518260536375,0
2.10000610351563,-1.383864402771,2.48816227912903,1.74890089035034,-1.09647498538954,2.49403382618922,1.82162733848484,1346.85,1324.265,3265.735,3258.278,-0.09809274,0.02943836,0.0997868,-1.04784405231476,-0.433667689561844,0.619868159294128,-1.04677621342161,-0.450398561093403,0.648004340974112,0
2.12000274658203,-1.40491414070129,2.47947454452515,1.76139986515045,-1.11746110947495,2.48500408327971,1.83461874900143,1344.037,1325.071,3262.916,3258.078,-0.09775825,0.02989952,0.09882754,-1.05249214172363,-0.434382170438766,0.62495082616806,-1.05214490868305,-0.452708560680417,0.651327819087362,0
2.13999938964844,-1.42605102062225,2.4707727432251,1.7739976644516,-1.138551967509,2.47592927627801,1.8476749948214,1340.768,1325.503,3262.55,3256.017,-0.09742536,0.03033351,0.09784978,-1.05684590339661,-0.435090273618698,0.629891455173492,-1.05725102347782,-0.454905579228273,0.654488747383304,0
2.16000366210938,-1.44726896286011,2.46205687522888,1.78668975830078,-1.15975039167652,2.46680818657414,1.86079782920208,1336.874,1326.223,3260.259,3255.708,-0.0970866,0.03074149,0.09685934,-1.06089687347412,-0.435791611671448,0.634602844715118,-1.0620943502576,-0.456989527434725,0.657486997379635,0
2.18000030517578,-1.46856188774109,2.45332717895508,1.79947137832642,-1.18103490068612,2.45765005696766,1.87397395420079,1338.004,1327.667,3255.64,3252.005,-0.09674465,0.03112998,0.09583967,-1.06464827060699,-0.436483383178711,0.639078855514526,-1.06666929835407,-0.458957999791384,0.660319108186354,0
2.20000457763672,-1.48992419242859,2.44458365440369,1.81234014034271,-1.20241638486008,2.44845020165711,1.88721011144582,1333.769,1328.447,3255.048,3250.247,-0.09641495,0.03148834,0.09481928,-1.06811356544495,-0.437175184488297,0.643438458442688,-1.07097756992209,-0.460811728687929,0.662986133518392,0
2.22000122070313,-1.51134979724884,2.43582630157471,1.8252911567688,-1.22387315175433,2.43921795429519,1.90049287228091,1329.468,1329.376,3252.021,3250.205,-0.09608738,0.0318201,0.09379848,-1.0712833404541,-0.437865555286407,0.647553265094757,-1.07501419914593,-0.462548577472581,0.665484999299265,0
2.24000549316406,-1.53283321857452,2.42705512046814,1.83832120895386,-1.24541615591711,2.42994860144581,1.91382901809327,1326.192,1329.976,3250.949,3247.38,-0.09573851,0.0321288,0.09277351,-1.07417237758636,-0.43855893611908,0.651502668857574,-1.07878069424208,-0.464169195088763,0.667816639186824,0
2.26000213623047,-1.55436873435974,2.41827011108398,1.85142493247986,-1.26702351885107,2.42065155681516,1.92720500505083,1324.085,1331.161,3246.466,3245.955,-0.09537366,0.03241644,0.09174641,-1.07677221298218,-0.439246416091919,0.655185520648956,-1.08227271937422,-0.465671715947234,0.669978369091845,0
2.27999877929688,-1.57595074176788,2.40947151184082,1.86459922790527,-1.28869796983554,2.41132564607061,1.9406225227075,1321.24,1331.859,3244.605,3243.192,-0.09499069,0.03268211,0.09072048,-1.07909965515137,-0.439930558204651,0.658714652061462,-1.08549040888332,-0.467056197851165,0.67197027217779,0
2.30000305175781,-1.59757375717163,2.40065932273865,1.8778395652771,-1.31044231452835,2.40196966201596,1.95408330789913,1316.423,1332.58,3241.541,3243.163,-0.09458803,0.03292577,0.0897027,-1.08115017414093,-0.44060617685318,0.662018835544586,-1.08843358680109,-0.468322565086307,0.673792239511894,0
2.31999969482422,-1.61923229694366,2.39183402061462,1.89114129543304,-1.33223444283894,2.39259311800549,1.96757367342642,1316.395,1333.774,3236.681,3239.677,-0.09416245,0.03315618,0.0886717,-1.08292865753174,-0.441267073154449,0.665089666843414,-1.09109887036509,-0.469469362144493,0.675442177003072,0
2.34000396728516,-1.64092111587524,2.38299560546875,1.90450203418732,-1.35408543512393,2.38319124647132,1.98110047855794,1311.664,1334.411,3235.547,3237.701,-0.09372196,0.03336608,0.08765038,-1.08444738388062,-0.441917538642883,0.66803503036499,-1.09348726343002,-0.470497020956358,0.676920706085208,0
2.36000061035156,-1.66263508796692,2.37414455413818,1.91791653633118,-1.37597305876702,2.37377361348711,1.99464996024512,1307.816,1335.133,3231.764,3236.897,-0.09325538,0.03356098,0.08663555,-1.08569717407227,-0.442549616098404,0.670725762844086,-1.09559602313537,-0.471404361345641,0.678226128796969,0
2.3800048828125,-1.68436920642853,2.36528134346008,1.93138146400452,-1.39790843013262,2.36433543599182,2.00822900004707,1305.133,1335.484,3229.861,3233.445,-0.09274512,0.03374402,0.08562354,-1.08669185638428,-0.443162024021149,0.673248469829559,-1.09742594550583,-0.472191725819537,0.679358937915576,0
2.40000152587891,-1.7061173915863,2.35640645027161,1.94489169120789,-1.4198692197338,2.35488632173988,2.02182377494768,1303.351,1336.246,3224.833,3231.646,-0.09220237,0.03391714,0.08461625,-1.0874240398407,-0.443741947412491,0.675511062145233,-1.09897493039424,-0.472858210743393,0.680317833349887,0
2.42000579833984,-1.72787570953369,2.34752082824707,1.95844423770905,-1.44186657157751,2.34542147577639,2.03544118361812,1300.736,1336.449,3222.644,3228.497,-0.09162553,0.03407969,0.08361565,-1.08790934085846,-0.44428887963295,0.67762953042984,-1.10024356351463,-0.47340406813359,0.681103177684783,0
2.44000244140625,-1.74963855743408,2.33862471580505,1.9720344543457,-1.46387808506052,2.33595053645515,2.04906735901791,1297.619,1336.866,3218.145,3227.635,-0.09102046,0.0342334,0.0826225,-1.08814096450806,-0.444792896509171,0.679509103298187,-1.10123038958312,-0.473828671822132,0.681714070030222,0
2.45999908447266,-1.77140116691589,2.32971954345703,1.98565936088562,-1.48590651627916,2.32647231790489,2.06270400730194,1294.401,1336.754,3216.49,3224.528,-0.09037171,0.03438104,0.08163272,-1.08813297748566,-0.445254355669022,0.681248307228088,-1.10193556692257,-0.474132089930926,0.682150608395601,0
2.48000335693359,-1.79315865039825,2.32080626487732,1.99931442737579,-1.50795464064698,2.31698562594271,2.07635284658344,1290.434,1336.719,3212.934,3223.629,-0.08967343,0.03452459,0.08064947,-1.08787751197815,-0.445662707090378,0.682755172252655,-1.10235893238473,-0.47431425226183,0.68241269178437,0
2.5,-1.81490612030029,2.31188607215881,2.01299500465393,-1.52999999932945,2.30750012397766,2.08999997377396,1292.329,1337.061,3207.319,3218.741,-0.08892721,0.03467328,0.07964991,-1.08737778663635,-0.446006625890732,0.684029638767242,-1.10250000050292,-0.474374949932098,0.682500019669533,0
2.52000427246094,-1.83663904666901,2.30296039581299,2.02669882774353,-1.55205376834272,2.29801100328223,2.10365230735988,1288.873,1336.876,3205.556,3215.994,-0.08815382,0.03481717,0.07866038,-1.08664405345917,-0.446287035942078,0.685196042060852,-1.10235882472314,-0.474314205938057,0.682412625136718,0
2.54000091552734,-1.85835242271423,2.29403042793274,2.04042148590088,-1.57409348237975,2.28852793005043,2.11729594024597,1285.371,1336.505,3201.623,3215.138,-0.08734689,0.03496058,0.0776776,-1.08566772937775,-0.446495115756989,0.686129212379456,-1.10193556692257,-0.474132089930926,0.682150608395601,0
2.56000518798828,-1.88004183769226,2.28509759902954,2.05415987968445,-1.59613031531826,2.27904609647483,2.13093778959484,1283.216,1335.728,3199.78,3211.236,-0.08648402,0.03510788,0.07669308,-1.08446073532104,-0.446629375219345,0.686914622783661,-1.10123006676374,-0.473828532921971,0.681713870189648,0
2.58000183105469,-1.90170192718506,2.27616429328918,2.06790900230408,-1.61814182127198,2.26957516039323,2.14456396033363,1282.239,1335.332,3194.771,3208.774,-0.08557323,0.03526116,0.07570661,-1.08301365375519,-0.446676313877106,0.687453269958496,-1.10024313330221,-0.473403883025206,0.681102911362804,0
2.60000610351563,-1.92332863807678,2.26723170280457,2.08166599273682,-1.64013916343638,2.26011031859448,2.15818136301212,1281.021,1334.464,3192.054,3204.881,-0.08461555,0.03542034,0.07471719,-1.08133792877197,-0.446633219718933,0.687852203845978,-1.09897439291323,-0.472857979480329,0.680317500623536,0
2.62000274658203,-1.94491708278656,2.2583019733429,2.09542679786682,-1.66209994121933,2.25066120942759,2.17177613059669,1279.545,1333.772,3187.374,3202.817,-0.08362272,0.03558607,0.07372486,-1.07942676544189,-0.446490556001663,0.688035368919373,-1.09742530100382,-0.472191448508328,0.679358538938131,0
2.63999938964844,-1.96646285057068,2.24937725067139,2.10918879508972,-1.68402693989188,2.24122663446822,2.18534998730279,1277.104,1332.56,3185.479,3199.415,-0.08258569,0.03575907,0.07272828,-1.07729017734528,-0.446248799562454,0.688095092773438,-1.09559602313537,-0.471404361345641,0.67822612879697,0
2.66000366210938,-1.98796153068542,2.24045896530151,2.12294769287109,-1.70592290617745,2.23180541187802,2.19890463348308,1274.1,1331.343,3181.982,3197.801,-0.08149645,0.03594162,0.07172738,-1.07492029666901,-0.445899546146393,0.687944710254669,-1.09348640563071,-0.470496651869278,0.67692017506657,0
2.68000030517578,-2.00940799713135,2.2315502166748,2.13669943809509,-1.72776555581996,2.22240712994983,2.2124262741215,1276.864,1330.422,3176.685,3192.084,-0.08035556,0.03614153,0.07070039,-1.07231795787811,-0.445433884859085,0.687582552433014,-1.09109887036509,-0.469469362144494,0.675442177003072,0
2.70000457763672,-2.03079771995544,2.22265315055847,2.15044164657593,-1.74956598821573,2.2130270129235,2.22592178027309,1274.626,1329.156,3174.528,3188.676,-0.07918643,0.03634914,0.06967234,-1.06948864459991,-0.444852262735367,0.687115609645844,-1.08843251702753,-0.468322104792631,0.6737915772711,0
2.72000122070313,-2.05212593078613,2.21377015113831,2.16417026519775,-1.77130202882336,2.20367460188472,2.23937742484041,1272.735,1327.665,3170.363,3186.71,-0.07798535,0.03656755,0.06863831,-1.06642472743988,-0.444148242473602,0.686433136463165,-1.08549040888332,-0.467056197851165,0.671970272177789,0
2.74000549316406,-2.07338857650757,2.2049036026001,2.1778826713562,-1.79298473688851,2.19434513834902,2.25280005402337,1271.487,1325.84,3168.375,3182.249,-0.07673739,0.03679902,0.06759252,-1.06313526630402,-0.44332280755043,0.685622692108154,-1.08227143928024,-0.465671165158559,0.669977576652695,0
2.76000213623047,-2.09458112716675,2.1960563659668,2.19157433509827,-1.81459207318004,2.18504810518187,2.26617602448799,1271.063,1324.295,3163.552,3179.294,-0.07544895,0.03704466,0.06653426,-1.05961108207703,-0.442366659641266,0.684586107730865,-1.07877930973132,-0.464168599372462,0.667815782108711,0
2.77999877929688,-2.11569809913635,2.18723082542419,2.20524287223816,-1.83612684690458,2.17578229366013,2.27950707526701,1270.542,1322.375,3160.925,3174.723,-0.07411844,0.03730421,0.06546143,-1.05586051940918,-0.441279858350754,0.683423280715942,-1.07501419914593,-0.462548577472581,0.665484999299265,0
2.80000305175781,-2.13673567771912,2.17842960357666,2.21888422966003,-1.85759178470316,2.16654653058634,2.29279489428112,1268.623,1320.471,3157.117,3172.416,-0.07275064,0.03757669,0.06437788,-1.05187702178955,-0.440057188272476,0.682070970535278,-1.07097597819164,-0.460811043810786,0.662985148161422,0
2.81999969482422,-2.15768909454346,2.16965579986572,2.23249483108521,-1.87896509797278,2.15735019098767,2.30602599334712,1271.075,1318.733,3152.012,3166.939,-0.07134768,0.03786813,0.06326409,-1.04766142368317,-0.438694179058075,0.680526733398438,-1.06666929835407,-0.458957999791384,0.660319108186353,0
2.84000396728516,-2.17855310440063,2.16091203689575,2.24607253074646,-1.90025771011236,2.14818857483073,2.3192071345693,1268.807,1316.775,3150.061,3163.253,-0.06992503,0.03816961,0.06214068,-1.04321813583374,-0.437194883823395,0.678889632225037,-1.06209255378819,-0.456988754464129,0.657485885279497,0
2.86000061035156,-2.19932413101196,2.15220069885254,2.25961327552795,-1.9214480311499,2.13907097167731,2.33232495272651,1267.43,1314.663,3145.895,3160.581,-0.06847519,0.03848547,0.0610016,-1.03853917121887,-0.435555905103683,0.677039623260498,-1.05725102347782,-0.454905579228273,0.654488747383304,0
2.8800048828125,-2.21999669075012,2.14352512359619,2.27311444282532,-1.94254691640495,2.12999271078668,2.34538616777867,1267.105,1312.335,3143.64,3155.203,-0.06698489,0.03881634,0.05984233,-1.03363156318665,-0.433779656887054,0.67506343126297,-1.0521429102862,-0.45270770082608,0.651326581984514,0
2.90000152587891,-2.24056625366211,2.13488793373108,2.28657174110413,-1.96353299953007,2.12096298550123,2.3583775529389,1267.522,1310.289,3138.432,3151.575,-0.06546582,0.03916247,0.05866449,-1.02848660945892,-0.431859642267227,0.672864317893982,-1.04677411523767,-0.450397658303471,0.648003042098304,0
2.92000579833984,-2.26102876663208,2.12629199028015,2.29998278617859,-1.98441706022716,2.11197715761638,2.37130578135616,1267.6,1307.929,3135.662,3146.292,-0.06392173,0.03952137,0.05746802,-1.02311253547668,-0.429799020290375,0.670552492141724,-1.0411426556922,-0.44797459858582,0.644516900376034,0
2.94000244140625,-2.28137874603271,2.11774015426636,2.31334376335144,-2.00517798053537,2.10304431360073,2.38415778000673,1266.738,1305.717,3130.976,3143.433,-0.06236324,0.03989208,0.05625571,-1.017502784729,-0.427595555782318,0.668043553829193,-1.03525504859546,-0.445441325732794,0.640872191117535,0
2.95999908447266,-2.30161213874817,2.10923480987549,2.32665228843689,-2.02581860575671,2.0941632292003,2.39693531026807,1265.81,1303.212,3128.632,3138.556,-0.06078079,0.04027482,0.05502293,-1.01166474819183,-0.425254285335541,0.665422022342682,-1.02911152474823,-0.442797939051516,0.637069057199471,0
2.98000335693359,-2.3217236995697,2.10077929496765,2.33990454673767,-2.04634164528706,2.08533273863774,2.40964004938531,1263.933,1300.806,3124.9,3135.583,-0.05917171,0.04066933,0.05377345,-1.00559234619141,-0.422774106264114,0.662612438201904,-1.02271203275434,-0.440044416427654,0.633107466805174,0
3,-2.34170961380005,2.09237623214722,2.35309672355652,-2.06672639957428,2.07656174835205,2.42225918334961,1267.319,1298.584,3119.383,3129.064,-0.05753653,0.0410809,0.05248785,-0.999285995960236,-0.420152992010117,0.659603297710419,-1.01606400046349,-0.437183953857422,0.628992018127441,0
3.02000427246094,-2.36156463623047,2.08402848243713,2.3662269115448,-2.0869834279768,2.06784571494631,2.43479924890685,1266.032,1296.372,3116.845,3124.354,-0.05589975,0.04149964,0.0511899,-0.992749810218811,-0.417396605014801,0.656506478786469,-1.00916501115878,-0.434215511495054,0.624721215103391,0
3.04000091552734,-2.38128423690796,2.07573843002319,2.37929105758667,-2.10709234004513,2.05919341186127,2.44724762339747,1264.33,1293.896,3112.528,3121.644,-0.05425871,0.04192648,0.04987827,-0.985978960990906,-0.414506316184998,0.653210163116455,-1.00202309041976,-0.43114254252322,0.620300025949072,0
3.06000518798828,-2.40086364746094,2.06750869750977,2.39228701591492,-2.12706359523793,2.05060033868409,2.45961078172463,1263.861,1291.281,3110.074,3115.975,-0.05259636,0.04236314,0.0485459,-0.978981256484985,-0.411487817764282,0.649793565273285,-0.994635661494588,-0.427963938237592,0.615726855532351,0
3.08000183105469,-2.42029857635498,2.05934190750122,2.40521025657654,-2.14687713595163,2.04207512564123,2.47187630727625,1263.93,1288.971,3104.982,3111.917,-0.05092071,0.04280885,0.04719542,-0.971750915050507,-0.408339619636536,0.646165311336517,-0.987011339258122,-0.424683405378145,0.611007036871143,0
3.09999847412109,-2.43958473205566,2.05124092102051,2.41805863380432,-2.16653584520328,2.033616532251,2.4840459847772,1264.009,1286.482,3101.858,3106.196,-0.04923332,0.04326198,0.04582701,-0.964294970035553,-0.405066192150116,0.642419457435608,-0.979150439632689,-0.421301079877433,0.606140765536421,0
3.12000274658203,-2.45871686935425,2.04320740699768,2.43082857131958,-2.18604243256806,2.0252233926589,2.49612149158362,1262.035,1284.041,3097.601,3103.351,-0.04753955,0.04371987,0.04444741,-0.95661073923111,-0.401668876409531,0.638494729995728,-0.971053025860989,-0.417816988947023,0.601128080678429,0
3.13999938964844,-2.47769069671631,2.03524446487427,2.44351649284363,-2.20537738341953,2.01690410346351,2.50809074721212,1264.495,1281.686,3092.552,3096.85,-0.04583726,0.04418742,0.04303779,-0.948701739311218,-0.398150086402893,0.634396493434906,-0.962728579444533,-0.414235212212131,0.595974851798267,0
3.16000366210938,-2.496502161026,2.02735424041748,2.45612049102783,-2.22455088103183,2.00865428308644,2.51996005559448,1262.297,1279.519,3089.824,3092.521,-0.04414296,0.04465598,0.04162041,-0.940571248531342,-0.394516348838806,0.630203068256378,-0.954174163352092,-0.410554485950274,0.590679260733698,0
3.18000030517578,-2.51514673233032,2.01953887939453,2.46863675117493,-2.24354380138856,2.00048216005771,2.53171757805356,1260.842,1277.079,3085.292,3089.155,-0.04244866,0.04512824,0.04018978,-0.932218074798584,-0.390770733356476,0.625810503959656,-0.94539982440085,-0.406779133026206,0.58524752694315,0
3.20000457763672,-2.53361940383911,2.01180028915405,2.48106265068054,-2.26236620771476,1.99238340445271,2.54336954420504,1260.598,1274.668,3082.302,3083.101,-0.04074264,0.04560464,0.03874156,-0.923649191856384,-0.386918663978577,0.621297121047974,-0.936402499096495,-0.402907835303912,0.579677753977713,0
3.22000122070313,-2.55191683769226,2.00414133071899,2.49339437484741,-2.28099938900442,1.98436606709459,2.55490437104486,1260.652,1272.503,3077.038,3078.667,-0.03903555,0.04608398,0.03728079,-0.914861857891083,-0.382960587739944,0.61658388376236,-0.927192788821982,-0.398945154262308,0.573976504598449,0
3.24000549316406,-2.57003402709961,1.99656331539154,2.50562953948975,-2.29945328359428,1.9764258717947,2.56632821087688,1260.185,1270.191,3073.597,3073.22,-0.03733006,0.04656412,0.03580926,-0.905863106250763,-0.378901690244675,0.611756443977356,-0.91776751470058,-0.394889722119544,0.568141810929231,0
3.26000213623047,-2.58796715736389,1.98906850814819,2.51776456832886,-2.31770961544581,1.96857068222185,2.57762974996267,1259.404,1268.005,3068.666,3069.279,-0.03563363,0.04704366,0.03432892,-0.896653175354004,-0.374744832515717,0.606749534606934,-0.90813782126959,-0.39074633405868,0.562180571969535,0
3.27999877929688,-2.60571193695068,1.98165845870972,2.52979731559753,-2.33577134012187,1.96079922667992,2.58881081793642,1258.01,1265.754,3065.62,3064.171,-0.03394039,0.04752194,0.0328401,-0.887239336967468,-0.370496422052383,0.601634919643402,-0.898304216251578,-0.386515208538549,0.556093102023818,0
3.30000305175781,-2.62326431274414,1.97433519363403,2.54172420501709,-2.35364119854729,1.95311032582551,2.59987311156116,1255.845,1263.562,3061.388,3060.73,-0.03224662,0.04799865,0.03134577,-0.877622306346893,-0.366159379482269,0.596346735954285,-0.888267004546666,-0.382196476749158,0.549879589839776,0
3.31999969482422,-2.640620470047,1.96710050106049,2.55354189872742,-2.37130160722417,1.94551154534655,2.61080574581408,1258.219,1261.453,3055.956,3054.04,-0.03055019,0.04847753,0.02983044,-0.867806196212769,-0.361735969781876,0.590882420539856,-0.878038122530657,-0.377795274579551,0.543547424602645,0
3.34000396728516,-2.65777635574341,1.95995593070984,2.56524848937988,-2.38876217417054,1.9379987511813,2.62161466851603,1256.549,1259.664,3052.653,3049.115,-0.02887239,0.04895116,0.028316,-0.857795238494873,-0.357231467962265,0.585330545902252,-0.867614155697521,-0.373310132863173,0.537094492570531,0
3.36000061035156,-2.67472791671753,1.95290315151215,2.5768404006958,-2.406005803634,1.93057929915441,2.6322892965819,1254.519,1257.54,3047.985,3045.958,-0.02721058,0.04941958,0.02680195,-0.847592353820801,-0.352650374174118,0.579600214958191,-0.857007552155826,-0.36874640767338,0.530528499715627,0
3.3800048828125,-2.69147229194641,1.94594299793243,2.58831572532654,-2.42304196557559,1.92324911460621,2.64283549236868,1253.629,1255.439,3044.803,3040.25,-0.02554983,0.04988462,0.02528251,-0.837205767631531,-0.347998410463333,0.57376092672348,-0.846214826007803,-0.364102599125748,0.523847288101157,0
3.40000152587891,-2.70800495147705,1.93907749652863,2.59967064857483,-2.43985407218584,1.9160153348077,2.65324298723213,1252.722,1253.552,3039.771,3036.123,-0.02389708,0.05034496,0.02376225,-0.826637029647827,-0.343277603387833,0.567743718624115,-0.835248923368004,-0.359384277571698,0.517058871988738,0
3.42000579833984,-2.72432255744934,1.93230772018433,2.61090302467346,-2.45645145279205,1.90887394560998,2.66351755647025,1252.167,1251.609,3036.066,3030.551,-0.02224964,0.05080023,0.02224067,-0.815893173217773,-0.338492065668106,0.561616361141205,-0.82410630100448,-0.354589918457504,0.510161057949003,0
3.44000244140625,-2.74042201042175,1.92563474178314,2.62200951576233,-2.47281804716281,1.90183185728196,2.67364925803476,1251.406,1249.788,3030.891,3026.497,-0.02061713,0.05124936,0.02072086,-0.804977118968964,-0.333644211292267,0.555323719978333,-0.812800388649434,-0.349725300221754,0.503162159625937,0
3.45999908447266,-2.75630021095276,1.91905999183655,2.6329882144928,-2.48895692832918,1.89488774758421,2.68363999427827,1250.023,1247.967,3027.569,3021.353,-0.01899739,0.05169113,0.01920433,-0.793896555900574,-0.328739315271378,0.548940896987915,-0.801332006385299,-0.344790775723006,0.496062684689628,0
3.48000335693359,-2.77195310592651,1.91258454322815,2.64383625984192,-2.50487092366784,1.88804039997555,2.69349151548162,1247.268,1246.162,3023.228,3018.418,-0.01738884,0.05212485,0.01769537,-0.782655596733093,-0.323780596256256,0.54240608215332,-0.78970183472369,-0.339786637766397,0.488863054409187,0
3.5,-2.78737854957581,1.90620899200439,2.65455079078674,-2.5205447997813,1.88129636896134,2.70319439144611,1249.035,1244.328,3018.105,3011.969,-0.01578402,0.05255565,0.01617742,-0.771260499954224,-0.318770885467529,0.535721898078918,-0.777924000354857,-0.334718964672089,0.481572013878822,0
3.52000427246094,-2.80257296562195,1.89993488788605,2.66513013839722,-2.53598752699493,1.87465179486116,2.71275417523047,1247.051,1242.97,3014.746,3007.246,-0.01420211,0.05297612,0.01467206,-0.759715557098389,-0.313714027404785,0.52896511554718,-0.765994882555673,-0.32958619854407,0.474187321698442,0
3.54000091552734,-2.81753349304199,1.8937623500824,2.67557096481323,-2.55118444594166,1.86811298519115,2.72216179198813,1244.972,1241.176,3009.984,3004.259,-0.0126399,0.05338757,0.01317816,-0.748026669025421,-0.308613896369934,0.522047221660614,-0.753929052770513,-0.324394609067776,0.466717998286246,0
3.56000518798828,-2.83225774765015,1.88769292831421,2.68587183952332,-2.56614438200044,1.86167614263729,2.7314227050491,1244.41,1239.475,3006.74,2998.365,-0.01108461,0.05379131,0.01169012,-0.736202299594879,-0.303474754095078,0.51504522562027,-0.741722887351597,-0.319142637088802,0.459161800431646,0
3.58000183105469,-2.84674215316772,1.88172698020935,2.69602966308594,-2.58085326729328,1.85534732021446,2.74052820572674,1242.987,1237.937,3001.647,2995.001,-0.009546367,0.05418615,0.01021511,-0.724246442317963,-0.298298388719559,0.507889032363892,-0.729391385793765,-0.313836736470737,0.451528013536464,0
3.59999847412109,-2.86098575592041,1.87586522102356,2.70604276657104,-2.59531431270705,1.84912513636775,2.74948028171299,1242.552,1236.325,2998.12,2989.401,-0.008020376,0.05457219,0.008749333,-0.712167084217072,-0.293088287115097,0.500653505325317,-0.716935713767317,-0.308477408768949,0.443817359206151,0
3.62000274658203,-2.8749852180481,1.87010836601257,2.71590876579285,-2.60953046793176,1.84300832192796,2.75828075900647,1239.88,1234.858,2993.807,2986.642,-0.006513559,0.05494763,0.007302254,-0.699969351291656,-0.287846863269806,0.493295818567276,-0.704356955827444,-0.303065120637236,0.436030508832034,0
3.63999938964844,-2.88873839378357,1.86445665359497,2.72562503814697,-2.6234885835008,1.83700253474321,2.76692149746096,1240.839,1233.19,2989.064,2981.07,-0.005017928,0.05531631,0.005858812,-0.687661051750183,-0.282577067613602,0.485816836357117,-0.691670720740692,-0.297606588091786,0.428177124984152,0
3.66000366210938,-2.9022433757782,1.85891115665436,2.73519062995911,-2.63719712493647,1.83110413233575,2.77540773763803,1238.964,1232.033,2985.731,2976.637,-0.003547331,0.05567368,0.004435024,-0.675247073173523,-0.277281761169434,0.478281229734421,-0.678873453515702,-0.29210028151913,0.420255006953505,0
3.68000030517578,-2.91549777984619,1.85347187519073,2.74460291862488,-2.65064357486757,1.82531850058072,2.78373173068862,1236.926,1230.49,2981.215,2973.833,-0.002098571,0.05602075,0.003030135,-0.662734985351563,-0.271964430809021,0.470614016056061,-0.665981146317811,-0.286553081901244,0.412274054652249,0
3.70000457763672,-2.92850065231323,1.84813928604126,2.75386047363281,-2.66383625774188,1.8196420577008,2.79189862984245,1236.456,1229.04,2977.957,2968.366,-0.0006620619,0.05635907,0.001638398,-0.650132656097412,-0.266628354787827,0.462881952524185,-0.652990303744022,-0.280963485263868,0.404232104259425,0
3.72000122070313,-2.94124960899353,1.84291362762451,2.7629611492157,-2.6767633032417,1.81407991116207,2.79990108680742,1235.109,1227.737,2973.337,2965.053,0.0007535036,0.05668718,0.0002674656,-0.637445509433746,-0.261275172233582,0.455032259225845,-0.639917282339434,-0.275338529371411,0.396139281255611,0
3.74000549316406,-2.95374321937561,1.83779549598694,2.77190351486206,-2.6894328975087,1.80862853869646,2.80774416919516,1234.454,1226.343,2969.947,2960.158,0.002151929,0.05700574,-0.001084972,-0.624681115150452,-0.255907595157623,0.447122156620026,-0.626758665639204,-0.269676744214497,0.387993470686332,0
3.76000213623047,-2.965980052948,1.83278501033783,2.78068566322327,-2.70183383146282,1.803292763258,2.81542093805117,1233.307,1225.018,2965.419,2956.894,0.003525668,0.0573137,-0.002415487,-0.611846029758453,-0.250527858734131,0.439107090234756,-0.613531154887639,-0.263985315871967,0.379805011417393,0
3.77999877929688,-2.9779589176178,1.82788228988647,2.789306640625,-2.7139695770734,1.79807109095524,2.82293354268985,1232.335,1223.717,2962.204,2952.358,0.004877832,0.05761151,-0.003724697,-0.598947763442993,-0.245138764381409,0.431045383214951,-0.60023651686137,-0.258265004538452,0.371574997167698,0
3.80000305175781,-2.98967885971069,1.82308733463287,2.79776453971863,-2.72584333814708,1.79296214327972,2.83028396642013,1230.124,1222.466,2958.343,2949.677,0.006206354,0.05789845,-0.005008341,-0.585993468761444,-0.239742919802666,0.422898381948471,-0.586876524285838,-0.252516572968186,0.363304525338741,0
3.81999969482422,-3.00113844871521,1.81840062141418,2.80605792999268,-2.73744492223163,1.78797030575888,2.83746589962856,1230.934,1221.064,2954.239,2944.616,0.00751813,0.05817745,-0.006276538,-0.572990894317627,-0.234342679381371,0.414672195911407,-0.573468357077023,-0.246747413199059,0.355004231116903,0
3.84000396728516,-3.01233768463135,1.81382179260254,2.81418609619141,-2.74878218705843,1.78309219743042,2.84448420662517,1229.502,1220.09,2950.932,2940.833,0.008798844,0.05844494,-0.007515973,-0.559945166110992,-0.228939935564995,0.406410872936249,-0.560008885098766,-0.240956178420931,0.346672176798797,0
3.86000061035156,-3.02327489852905,1.80935096740723,2.82214760780334,-2.75984563331209,1.77833190558438,2.85133300688122,1228.002,1218.777,2947.123,2937.994,0.01005047,0.05870173,-0.008727712,-0.546865046024323,-0.22353807091713,0.398072957992554,-0.546515580872635,-0.235150386571708,0.338319178707605,0
3.8800048828125,-3.03394985198975,1.80498814582825,2.82994151115417,-2.77064299647982,1.77368610185671,2.85801708903178,1227.264,1217.558,2944.123,2933.727,0.01127934,0.05894835,-0.009914416,-0.533758103847504,-0.218139693140984,0.389700472354889,-0.532985466132484,-0.229328756186666,0.329943393154704,0
3.90000152587891,-3.04436302185059,1.80073320865631,2.837566614151,-2.78116548164984,1.76915857045225,2.8645310086075,1226.446,1216.39,2940.148,2930.597,0.01248025,0.05918478,-0.01107289,-0.520631730556488,-0.212746992707253,0.381256997585297,-0.519436284009554,-0.223498921639498,0.32155580398356,0
3.92000579833984,-3.05451250076294,1.79658603668213,2.84502243995667,-2.79142070858447,1.76474603280016,2.87087948260424,1225.743,1215.253,2937.153,2926.628,0.01365375,0.05941076,-0.01220367,-0.507492899894714,-0.207362294197083,0.372791171073914,-0.505865230434379,-0.217659676417445,0.313154675341593,0
