t,x_s1,x_s2,x_s3,x_s_d1,x_s_d2,x_s_d3,propellers_rpms1,propellers_rpms2,propellers_rpms3,propellers_rpms4,rollRad,pitchRad,yawRad,v_s1,v_s2,v_s3,v_s_d1,v_s_d2,v_s_d3,insideCount
0,-0.0599999986588955,2.94000005722046,1.17999994754791,-0.0599999986588955,2.94000005722046,1.17999994754791,0,0,0,0,0,0,0,0,0,0,-1.06581410364015E-15,4.44089209850063E-16,4.44089209850063E-16,0
0.0199966430664063,-0.0599999986588955,2.94000005722046,1.1771354675293,-0.0600018680476204,2.93999925287472,1.18000110478858,0,0,0,0,0.0163538,-0.002474609,-2.024222E-05,3.71994488546079E-08,3.50004931704007E-08,-0.143225952982903,-0.000279892991557604,-0.000120430134961378,0.000173267094926113,5
0.0400009155273438,-0.0599999986588955,2.94000005722046,1.17048275470734,-0.0600148724204753,2.93999365745638,1.18000915511487,0,0,0,0,0.03270752,-0.004950816,-5.430172E-05,3.62924410524101E-08,3.44428769949445E-08,-0.332637369632721,-0.00111101934050116,-0.00047804058392963,0.00068777389696065,6
0.05999755859375,-0.0600004345178604,2.94013261795044,1.16416561603546,-0.0600498857373401,2.93997859220429,1.18003083002592,3185.473,2835.817,1501.023,2767.634,0.03127922,-0.00494336,-0.01646952,-2.17786164284917E-05,0.00662230560556054,-0.315859228372574,-0.00247936261166862,-0.00106680046642749,0.00153484356504269,6
0.0800018310546875,-0.0599162243306637,2.94038772583008,1.15857720375061,-0.0601175574246769,2.93994947496775,1.18007272202403,3065.683,3067.238,2155.073,2024.076,0.01897327,-0.004310593,-0.04351445,0.00421056058257818,0.0127498283982277,-0.279422104358673,-0.00437268608126799,-0.00188144466206175,0.00270690098422899,6
0.0999984741210938,-0.0596375651657581,2.94068765640259,1.15374851226807,-0.0602281887669101,2.93990187339187,1.18014120809498,2640.358,3831.805,2620.274,1134.709,-0.005856291,-0.002888465,-0.07014393,0.013932996429503,0.0149971758946776,-0.241433456540108,-0.00677637982016689,-0.00291568692648091,0.00419490191241918,6
0.1199951171875,-0.0590849220752716,2.94089889526367,1.14957022666931,-0.0603918861403606,2.93983143898525,1.18024254456713,2091.985,4101.928,3169.514,756.0473,-0.04012159,-0.0004506069,-0.08993389,0.0276321992278099,0.0105603206902742,-0.208914533257484,-0.00967801353495435,-0.00416417885169243,0.00599115140585487,5
0.139999389648438,-0.0582315213978291,2.94085621833801,1.14596676826477,-0.0606185767455666,2.93973390035084,1.18038287685052,1510.247,4074.739,3735.879,702.039,-0.07649238,0.002388714,-0.09949623,0.0426700264215469,-0.00213205069303513,-0.18017490208149,-0.0130660253322238,-0.00562194567796536,0.00808849210174802,4
0.159996032714844,-0.0570995099842548,2.94039487838745,1.14297819137573,-0.0609176604100223,2.93960521300545,1.18056802388615,1135.45,3846.961,4069.674,879.868,-0.1062772,0.004335469,-0.09869941,0.0566006824374199,-0.023070527240634,-0.149428978562355,-0.0169249902365933,-0.00728235046931681,0.0104773752055438,4
0.180000305175781,-0.0557378083467484,2.93938803672791,1.14071130752563,-0.0612986871007165,2.9394412678651,1.18080389755851,1100.817,3565.35,4009.966,1148.999,-0.1236271,0.004492334,-0.0899994,0.0680850744247437,-0.0503413081169128,-0.113342367112637,-0.0212451141043368,-0.00914117907931815,0.0131517376757159,3
0.199996948242188,-0.0541965737938881,2.9377772808075,1.13924872875214,-0.0617704296168641,2.93923829023936,1.18109592864822,1373.567,3339.624,3594.703,1386.24,-0.1278743,0.003023113,-0.07725032,0.0770618319511414,-0.0805370137095451,-0.0731295049190521,-0.0260104776919234,-0.0111915819022102,0.0161017247421801,3
0.220001220703125,-0.0525143444538116,2.93557620048523,1.1385840177536,-0.0623420644491781,2.93899233174064,1.18144979784016,1790.593,3212.988,3017.054,1527.092,-0.1229757,0.0008616328,-0.06426101,0.0841115266084671,-0.110051080584526,-0.0332343205809593,-0.03121219533433,-0.0134297356845702,0.019321835755004,3
0.239997863769531,-0.0507196933031082,2.93284702301025,1.13860702514648,-0.0630217183703222,2.93869989564571,1.18187053599376,2159.469,3168.444,2517.229,1558.447,-0.1149671,-0.0009875001,-0.05362381,0.0897326022386551,-0.136453628540039,0.0011528953909874,-0.0368338920540454,-0.0158485947310391,0.02280193382306,3
0.259994506835938,-0.0488373823463917,2.92966485023499,1.13913774490356,-0.0638179029240226,2.93835731967507,1.18236341216003,2351.588,3159.244,2274.124,1495.748,-0.1090538,-0.001903628,-0.04623674,0.0941155925393105,-0.159107491374016,0.0265344679355621,-0.0428651747123285,-0.0184436871643672,0.0265355850983733,3
0.279998779296875,-0.046891875565052,2.92608761787415,1.13999593257904,-0.0647390625194898,2.93796097043536,1.18293365383054,2352.544,3152.022,2324.344,1363.857,-0.1078149,-0.001744371,-0.04152241,0.09727543592453,-0.17886258661747,0.0429102927446365,-0.0492963837173861,-0.0212108567320638,0.030516809833474,3
0.299995422363281,-0.0449088737368584,2.92214369773865,1.14106202125549,-0.0657923226682404,2.93750778201804,1.18358567203635,2229.622,3144.139,2572.488,1194.259,-0.1110868,-0.000737163,-0.03798626,0.0991502031683922,-0.19719272851944,0.053303986787796,-0.0561105313314725,-0.0241427940851591,0.0347350918094591,3
0.319999694824219,-0.0429170504212379,2.91783547401428,1.14229393005371,-0.0669860785243584,2.93699414222283,1.18432466377777,2073.767,3132.727,2873.349,1032.532,-0.1169309,0.0006861853,-0.03397874,0.0995911285281181,-0.21540679037571,0.0615951344370842,-0.0633008373176985,-0.0272365818771378,0.0391862337367069,3
0.339996337890625,-0.0409490615129471,2.91315102577209,1.14370739459991,-0.068326768706371,2.93641728069206,1.18515461486636,1955.528,3107.115,3109.038,921.8307,-0.122841,0.002069661,-0.02837598,0.0983992964029312,-0.234225526452065,0.0706738382577896,-0.0708499516420146,-0.0304847548730522,0.0438594951176439,3
0.360000610351563,-0.0390402972698212,2.90807723999023,1.14534330368042,-0.0698225328270578,2.93577369517774,1.1860805641102,1904.371,3065.96,3222.517,880.5408,-0.1267084,0.00309287,-0.02087013,0.0954384356737137,-0.253692448139191,0.081795759499073,-0.0787518717320621,-0.0338847303337087,0.0487511600740379,3
0.379997253417969,-0.0372258275747299,2.90261030197144,1.14724349975586,-0.0714791088463715,2.935060916796,1.18710606357981,1924.153,3020.956,3206.875,896.2917,-0.1274189,0.003642232,-0.01188675,0.0907236114144325,-0.273343652486801,0.0950104892253876,-0.0869889214763108,-0.0374289027221294,0.0538502862508218,3
0.400001525878906,-0.0355373844504356,2.89676117897034,1.14943134784698,-0.0733044112230977,2.93427554017634,1.18823601270221,1990.901,2989.486,3099.144,938.8336,-0.1250423,0.003791133,-0.00220776,0.0844221785664558,-0.292450368404388,0.109393574297428,-0.0955558400788823,-0.0411150084648172,0.0591536169647403,3
0.419998168945313,-0.0340020954608917,2.89055466651917,1.15190577507019,-0.0753034649285836,2.93341540321397,1.18947352217404,2072.567,2974.123,2953.088,987.1699,-0.1205027,0.00370773,0.007335853,0.076764352619648,-0.310326457023621,0.123724073171616,-0.104434660908044,-0.0449353170220673,0.0646500300148815,3
0.439994812011719,-0.0326426476240158,2.88402462005615,1.1546413898468,-0.0774831213880516,2.93247755793201,1.19082283335389,2136.203,2973.297,2825.665,1022.443,-0.1150805,0.003564307,0.01615201,0.0679724365472794,-0.326507568359375,0.136782497167587,-0.11361726969793,-0.0488863370519643,0.070334502284139,4
0.459999084472656,-0.0314785093069077,2.8772075176239,1.15760123729706,-0.0798502821969742,2.93145903476675,1.19228821865812,2168.132,2977.099,2748.871,1039.974,-0.1098639,0.003475307,0.02394393,0.0582070574164391,-0.340851664543152,0.147994294762611,-0.123096124252221,-0.0529648233581361,0.0762023647937057,4
0.479995727539063,-0.0305268783122301,2.87013840675354,1.16074764728546,-0.0824088828700873,2.93035814037613,1.19387211435783,2168.809,2984.545,2732.173,1032.18,-0.1055384,0.003481692,0.03074694,0.0475813522934914,-0.35346046090126,0.157320439815521,-0.132852887402757,-0.0571628859694044,0.0822422659629699,4
0.5,-0.0298037249594927,2.86284685134888,1.16405177116394,-0.085166398670376,2.92917165836334,1.1955791479969,2146.367,2989.555,2763.273,1009.092,-0.102268,0.003568954,0.03679846,0.0361577346920967,-0.364581435918808,0.165207266807556,-0.142884000065179,-0.0614789935111996,0.0884520025491718,4
0.519996643066406,-0.0293244700878859,2.8553569316864,1.16749906539917,-0.0881260274065667,2.92789821280061,1.19741129917127,2117.03,2992.19,2816.406,978.6037,-0.09983445,0.003686121,0.04240805,0.0239627286791801,-0.374495923519135,0.17236652970314,-0.153170920546857,-0.0659051680111775,0.0948200963613094,4
0.540000915527344,-0.0291041471064091,2.84768843650818,1.17108523845673,-0.0912951145137283,2.92653464315245,1.19937311505516,2088.815,2992.456,2871.7,949.9908,-0.09783015,0.003777009,0.04786125,0.0110162924975157,-0.383422136306763,0.179309040307999,-0.163710711144578,-0.0704401454577151,0.101344728821151,4
0.55999755859375,-0.0291576571762562,2.83985829353333,1.1748161315918,-0.094676112580471,2.92507989413848,1.20146611391775,2070.96,2988.357,2907.961,935.813,-0.09578325,0.003795655,0.05329079,-0.00267591420561075,-0.391505569219589,0.186541959643364,-0.17448465888317,-0.0750758741803766,0.108014315705644,5
0.579994201660156,-0.0294990092515945,2.83188271522522,1.17869794368744,-0.0982748462459366,2.92353145957921,1.20369390148813,2063.707,2986.507,2923.02,929.4855,-0.09339759,0.003716774,0.05874223,-0.0170673616230488,-0.398779511451721,0.194091841578484,-0.185486174984119,-0.0798095192118365,0.114824778247021,5
0.599998474121094,-0.0301412530243397,2.82377815246582,1.18273901939392,-0.102097262171133,2.92188678079254,1.20606015903275,2066.227,2983.379,2912.134,940.3021,-0.09049422,0.003538933,0.06410956,-0.0321123749017715,-0.40523362159729,0.202053248882294,-0.196709126405959,-0.0846384416756885,0.121772319800455,5
0.6199951171875,-0.0310955420136452,2.8155620098114,1.18694174289703,-0.106144683970236,2.92014528826426,1.20856570593183,2075.494,2987.55,2886.811,950.5001,-0.08717591,0.003271969,0.06929141,-0.0477144122123718,-0.410806357860565,0.210134655237198,-0.208134604141382,-0.0895545055543457,0.128845234789665,5
0.639999389648438,-0.0323712378740311,2.80725288391113,1.19130444526672,-0.110424235525481,2.91830391678686,1.21121495220784,2082.223,2991.271,2855.661,969.3768,-0.08359662,0.002940712,0.07414979,-0.0637842267751694,-0.415456384420395,0.21813577413559,-0.219761081350814,-0.0945570538913933,0.136042578028218,5
0.659996032714844,-0.0339757762849331,2.79886937141418,1.1958224773407,-0.114936482147704,2.9163624231229,1.21400824781511,2088.325,2999.126,2825.979,983.5683,-0.07999923,0.002566393,0.07859754,-0.0802280232310295,-0.419170320034027,0.225899487733841,-0.231569557951997,-0.0996379114822372,0.143352587560098,5
0.680000305175781,-0.0359147973358631,2.79043006896973,1.20048677921295,-0.119688496929273,2.91431776391831,1.21694997133476,2087.584,3007.693,2807.631,992.9953,-0.07661009,0.002168062,0.08261375,-0.0969500094652176,-0.421968251466751,0.233213990926743,-0.243559016194652,-0.104796640417365,0.150774633349401,6
0.699996948242188,-0.0381927080452442,2.7819516658783,1.20529103279114,-0.124680083855354,2.91217002351282,1.22004000142426,2083.321,3014.33,2796.239,1002.182,-0.07353786,0.001759328,0.08618908,-0.113895528018475,-0.423921972513199,0.240214928984642,-0.255710395848158,-0.11002503961202,0.158296916205407,6
0.720001220703125,-0.0408123917877674,2.77344965934753,1.21022582054138,-0.129918284978346,2.90991617190799,1.22328269744952,2075.178,3022.642,2799.376,999.4166,-0.07089015,0.001343973,0.08940969,-0.130984887480736,-0.425105541944504,0.246740952134132,-0.268023157655716,-0.11532287703907,0.16591910230247,6
0.739997863769531,-0.043776597827673,2.76493692398071,1.21528923511505,-0.135402141159277,2.90755662179454,1.22667746565781,2065.717,3025.092,2802.087,1005.687,-0.0685748,0.0009289858,0.09229111,-0.1482103317976,-0.425631403923035,0.253172636032104,-0.280478211503383,-0.120681938755799,0.173629373950669,6
0.759994506835938,-0.0470865778625011,2.75642538070679,1.22047448158264,-0.14113644597991,2.90508931062815,1.2302272735046,2057.586,3031.918,2814.825,995.8224,-0.06661897,0.0005063473,0.09495386,-0.16549851000309,-0.425573647022247,0.259261518716812,-0.293070637251543,-0.126100107763583,0.181424685349205,6
0.779998779296875,-0.0507440455257893,2.7479248046875,1.22578454017639,-0.147126184485884,2.90251209348295,1.23393520697061,2049.046,3030.277,2817.323,1006.308,-0.06481388,8.572965E-05,0.09736746,-0.182874441146851,-0.425034612417221,0.265503197908401,-0.305795832832518,-0.131575403921268,0.189302187598958,6
0.799995422363281,-0.0547492392361164,2.73944354057312,1.23121523857117,-0.153369252164744,2.89982587587186,1.23779996326238,2047.627,3037.851,2824.145,995.0272,-0.06323623,-0.0003478088,0.09963189,-0.200258687138557,-0.424059450626373,0.271536707878113,-0.318634718604462,-0.13709961779199,0.197250069492735,6
0.819999694824219,-0.0591026209294796,2.73098921775818,1.23676943778992,-0.159872691993147,2.89702762739878,1.24182590231796,2041.153,3035.303,2820.997,1009.726,-0.06170704,-0.0007771104,0.1016799,-0.217669755220413,-0.422719717025757,0.277710556983948,-0.331587821991737,-0.142672976311719,0.205268657531342,6
0.839996337890625,-0.0638033747673035,2.72256827354431,1.2424441576004,-0.166633637018892,2.89411858163313,1.24601124935738,2043.349,3042.308,2819.649,1003.527,-0.06033551,-0.001213336,0.1035637,-0.235037505626678,-0.421043574810028,0.283734947443008,-0.344636106234817,-0.148287288494656,0.213346167053785,6
0.860000610351563,-0.0688505321741104,2.714186668396,1.24823975563049,-0.173659158941841,2.89109569582005,1.2503603820997,2039.802,3042.286,2813.189,1015.718,-0.05904867,-0.001639975,0.1052288,-0.252358227968216,-0.419081687927246,0.289782822132111,-0.357780475378537,-0.153942943326036,0.221483157706883,6
0.879997253417969,-0.0742420703172684,2.70584940910339,1.25415337085724,-0.180945630646592,2.88796053060595,1.25487105518773,2041.82,3048.437,2809.001,1013.525,-0.05795358,-0.002061287,0.1067034,-0.269577085971832,-0.416865587234497,0.295678734779358,-0.371001963495383,-0.159631780297098,0.229667888678032,6
0.900001525878906,-0.0799755454063416,2.69756054878235,1.26018261909485,-0.188500167066783,2.88471002463366,1.2595476731043,2038.617,3050.092,2805.86,1020.381,-0.05703958,-0.00246662,0.1079701,-0.286674469709396,-0.414442390203476,0.301463425159454,-0.384301823631742,-0.165354338558695,0.237901135662636,7
0.919998168945313,-0.0860480219125748,2.68932342529297,1.2663254737854,-0.196318384305134,2.8813460641717,1.26438752200817,2038.842,3054.308,2803.8,1020.407,-0.05635515,-0.002853843,0.1090457,-0.303623765707016,-0.411857306957245,0.307145625352859,-0.397661187980262,-0.171102499820431,0.246171218589148,7
0.939994812011719,-0.0924558639526367,2.68114018440247,1.27257800102234,-0.204404317663683,2.87786691294234,1.26939309994354,2035.824,3056.824,2807.519,1019.714,-0.05591786,-0.003219762,0.1099588,-0.32039201259613,-0.40915659070015,0.312623828649521,-0.4110765036434,-0.176874735369747,0.254475938044738,7
0.959999084472656,-0.0991956442594528,2.67301225662231,1.27894020080566,-0.212762239776093,2.87427073255068,1.27456705187416,2033.9,3057.752,2808.733,1022.794,-0.05567764,-0.003557451,0.1107048,-0.33698770403862,-0.406394720077515,0.318109691143036,-0.424544411524882,-0.18266959988136,0.262813214588797,7
0.979995727539063,-0.10626308619976,2.66494011878967,1.28540897369385,-0.22138664033507,2.87055989392801,1.27990596665734,2034.534,3061.834,2814.637,1015.298,-0.05568989,-0.003874899,0.1113406,-0.353373438119888,-0.403612345457077,0.323435872793198,-0.438046240701377,-0.188479059778567,0.271171490030365,7
1,-0.113654315471649,2.65692281723022,1.29198396205902,-0.230284798736574,2.86673126495361,1.28541435058594,2030.826,3060.563,2819.665,1019.077,-0.0558614,-0.00416039,0.1118567,-0.36956113576889,-0.400859266519547,0.328748494386673,-0.451584000205995,-0.194303979492187,0.279552008056641,7
1.01999664306641,-0.121365070343018,2.64895939826965,1.29866468906403,-0.239450461003889,2.86278753653895,1.29108833215045,2032.976,3063.068,2824.495,1013.589,-0.05620655,-0.00442138,0.1122841,-0.385538458824158,-0.398170351982117,0.334036976099014,-0.465139182559269,-0.200136395770846,0.2879433116562,7
1.04000091552734,-0.129390999674797,2.64104795455933,1.30544984340668,-0.24889099213045,2.8587255397331,1.29693247063265,2031.993,3063.141,2831.145,1012.046,-0.05668965,-0.00465414,0.1126365,-0.401296526193619,-0.395578116178513,0.339260309934616,-0.478714054341683,-0.205977283860805,0.296346803950333,7
1.05999755859375,-0.137728035449982,2.63318562507629,1.31234169006348,-0.258599401509697,2.85454828239877,1.30294243851408,2034.399,3063.78,2832.563,1012.389,-0.05727181,-0.004858139,0.1129031,-0.416852176189423,-0.393114984035492,0.344594955444336,-0.492290296490434,-0.211818761581115,0.30475114456651,7
1.07999420166016,-0.146371304988861,2.62536978721619,1.31933641433716,-0.268579290074434,2.85025421515517,1.30912046494367,2036.018,3065.954,2841.569,1004.004,-0.05800631,-0.005038701,0.1131328,-0.432163268327713,-0.390794366598129,0.34973731637001,-0.50586523043438,-0.217659676417445,0.313154675341593,7
1.09999847412109,-0.155317023396492,2.61759686470032,1.32643890380859,-0.278834517009062,2.84584167750307,1.31546893894041,2036.771,3063.708,2840.381,1012.39,-0.05876744,-0.005183044,0.1132652,-0.447285652160645,-0.388651341199875,0.355126261711121,-0.519436284009554,-0.223498921639497,0.321555803983559,7
1.1199951171875,-0.164559990167618,2.60986328125,1.33364415168762,-0.289357002179081,2.84131414609862,1.32198285851614,2043.384,3069.571,2849.662,995.4061,-0.05972086,-0.005311409,0.1133905,-0.462148547172546,-0.386684834957123,0.360265046358109,-0.532985466132485,-0.229328756186667,0.329943393154705,8
1.13999938964844,-0.17409636080265,2.60216474533081,1.34095668792725,-0.300154365346813,2.83666834237095,1.3286669406667,2040.672,3064.898,2850.272,1008.501,-0.06068119,-0.00539876,0.113428,-0.476820528507233,-0.384931862354279,0.365629136562347,-0.546515580872639,-0.235150386571708,0.338319178707607,8
1.15999603271484,-0.183921158313751,2.59449696540833,1.34837234020233,-0.311217811600473,2.8319080505249,1.33551574092274,2048.64,3070.721,2860.482,990.0321,-0.06181516,-0.005469067,0.1134694,-0.491238355636597,-0.383385896682739,0.370780378580093,-0.560008885098767,-0.240956178420931,0.346672176798798,8
1.18000030517578,-0.194030493497849,2.58685541152954,1.35589528083801,-0.322555076427271,2.82702994219644,1.34253404791935,2046.646,3066.423,2862.957,1000.77,-0.06294861,-0.00549996,0.1134456,-0.505466759204865,-0.382079273462296,0.376148194074631,-0.573468357077025,-0.246747413199059,0.355004231116904,8
1.19999694824219,-0.204419538378716,2.57923531532288,1.36352241039276,-0.334156660511822,2.8220381046756,1.34971598112778,2054.716,3071.531,2873.379,983.4039,-0.06422426,-0.005513809,0.1134387,-0.519453465938568,-0.381003618240356,0.38135552406311,-0.58687652428584,-0.252516572968185,0.36330452533874,8
1.22000122070313,-0.215084612369537,2.57163166999817,1.37125754356384,-0.346030421585499,2.81692915700008,1.35706640485806,2053.57,3067.647,2877.403,991.8041,-0.065485,-0.005491438,0.1133904,-0.533255577087402,-0.380184322595596,0.386757344007492,-0.600236516861372,-0.258265004538453,0.371574997167698,8
1.23999786376953,-0.226021334528923,2.56403946876526,1.37909889221191,-0.358166167196084,2.81170748469733,1.36457900949675,2061.689,3071.87,2887.018,976.7151,-0.06684428,-0.005452023,0.113366,-0.546834647655487,-0.379610747098923,0.392064601182938,-0.613531154887641,-0.263985315871967,0.379805011417393,8
1.25999450683594,-0.237225979566574,2.55645346641541,1.38704931735992,-0.3705671011502,2.80637170925886,1.37225577835275,2061.741,3068.81,2892.377,982.0755,-0.06817852,-0.005381716,0.113322,-0.560233891010284,-0.379298567771912,0.39752122759819,-0.626758665639206,-0.269676744214496,0.387993470686331,8
1.27999877929688,-0.248694598674774,2.54886865615845,1.39510786533356,-0.383236695417198,2.80092033679326,1.3800988607405,2068.785,3071.533,2901.657,970.3945,-0.06955857,-0.005293832,0.1133032,-0.573429226875305,-0.379234880208969,0.402929842472076,-0.639917282339435,-0.275338529371412,0.396139281255613,8
1.29999542236328,-0.260423868894577,2.54128003120422,1.40327906608582,-0.396163740917024,2.79535819025452,1.38810131770546,2072.656,3070.577,2903.65,973.5882,-0.07090666,-0.005180381,0.1132696,-0.586464285850525,-0.379431873559952,0.408562570810318,-0.652990303744023,-0.280963485263868,0.404232104259424,8
1.31999969482422,-0.272409558296204,2.53368282318115,1.41155827045441,-0.409356423791328,2.7896817473746,1.39626821685929,2077.609,3073.165,2917.393,959.5465,-0.0723208,-0.005054147,0.1132884,-0.59928423166275,-0.379863649606705,0.413960993289948,-0.665981146317813,-0.286553081901244,0.412274054652251,8
1.33999633789063,-0.28464937210083,2.52607178688049,1.41995453834534,-0.422802873722428,2.78389611561957,1.40459220990988,2080.442,3069.519,2914.44,972.2142,-0.07361723,-0.004896488,0.1132595,-0.611989498138428,-0.380557388067245,0.419814586639404,-0.678873453515705,-0.29210028151913,0.420255006953505,8
1.36000061035156,-0.297138422727585,2.51844263076782,1.42845785617828,-0.436511415158101,2.77799771321212,1.41307845008695,2088.948,3076.315,2934.348,943.7825,-0.07505214,-0.004738829,0.1133326,-0.62445330619812,-0.381456911563873,0.425165086984634,-0.691670720740693,-0.297606588091785,0.42817712498415,9
1.37999725341797,-0.309875667095184,2.5107901096344,1.43708395957947,-0.450469530727146,2.77199192602736,1.42171918854144,2087.826,3067.845,2923.797,973.7087,-0.07625269,-0.00454069,0.1133081,-0.636862874031067,-0.382621973752975,0.431303530931473,-0.704356955827446,-0.303065120637236,0.436030508832034,9
1.39999389648438,-0.322855293750763,2.5031111240387,1.44581460952759,-0.464680216184654,2.76587746507559,1.43051627978847,2101.222,3080.581,2952.883,924.3417,-0.07770678,-0.00436066,0.1134564,-0.648984432220459,-0.383950620889664,0.436529725790024,-0.716930938559026,-0.308475354130225,0.443814403124744,9
1.41999816894531,-0.336077988147736,2.49540019035339,1.45467472076416,-0.47914673136562,2.75965292774086,1.43947174182117,2093.105,3064.301,2932.403,980.0689,-0.07875021,-0.004123106,0.1134312,-0.661132037639618,-0.38555184006691,0.443003684282303,-0.729391385793766,-0.313836736470737,0.451528013536465,9
1.43999481201172,-0.349536657333374,2.4876549243927,1.46363711357117,-0.493855616658466,2.75332410531803,1.44857724249882,2116.562,3086.774,2969.609,901.5328,-0.08021282,-0.003930826,0.1136623,-0.672934472560883,-0.38726481795311,0.448120325803757,-0.7417228873516,-0.319142637088802,0.459161800431646,9
1.45999908447266,-0.363233476877213,2.4798698425293,1.47273528575897,-0.508815552717244,2.74688726276417,1.45783815555978,2097.925,3061.073,2939.56,987.6561,-0.08109592,-0.003661314,0.113641,-0.684839963912964,-0.389257788658142,0.454907596111298,-0.753929052770513,-0.324394609067776,0.466717998286247,9
1.47999572753906,-0.377160131931305,2.47204375267029,1.48193144798279,-0.524012471663969,2.74034845309416,1.46724577231745,2129.5,3091.876,2988.696,879.3279,-0.08255373,-0.003461044,0.1139624,-0.696332991123199,-0.391301542520523,0.459810733795166,-0.765994882555672,-0.329586198544069,0.474187321698441,9
1.5,-0.391320765018463,2.46417093276978,1.49127209186554,-0.539455198877605,2.73370387899399,1.4768055561018,2102.681,3056.9,2943.418,999.3859,-0.08321632,-0.003161705,0.1139248,-0.708035349845886,-0.393641620874405,0.46703377366066,-0.777924000354858,-0.334718964672088,0.481572013878822,9
1.51999664306641,-0.405705094337463,2.45625185966492,1.50070345401764,-0.555129074991064,2.72695984797977,1.48650843206629,2144.193,3099.39,3010.173,849.5739,-0.08469971,-0.002965163,0.1143611,-0.7192143201828,-0.39595091342926,0.471567511558533,-0.789701834723693,-0.339786637766398,0.488863054409188,9
1.54000091552734,-0.420320212841034,2.44828009605408,1.51029133796692,-0.571043070329722,2.72011250037111,1.49635995326965,2104.585,3050.151,2941.967,1021.476,-0.08506829,-0.002634399,0.1142755,-0.730756282806396,-0.398593962192535,0.479391574859619,-0.801332006385301,-0.344790775723006,0.496062684689629,9
1.55999755859375,-0.435152232646942,2.44025826454163,1.51995754241943,-0.587181951496087,2.71316839067337,1.50635068951315,2161.205,3110.135,3035.597,808.8707,-0.08663476,-0.002457032,0.1148596,-0.741600096225739,-0.401094675064087,0.483309298753738,-0.812800388649436,-0.349725300221754,0.503162159625937,9
1.57999420166016,-0.450212895870209,2.43217825889587,1.52979731559753,-0.603548545866849,2.70612630234534,1.51648239107766,2102.318,3039.478,2932.839,1058.962,-0.08660973,-0.002088984,0.1146744,-0.753035187721252,-0.404000461101532,0.49199116230011,-0.824106301004481,-0.354589918457504,0.510161057949003,9
1.59999847412109,-0.465482771396637,2.42404627799988,1.53969490528107,-0.620145926473056,2.69898491314762,1.52675696031579,2180.99,3125.37,3069.505,750.3987,-0.08835516,-0.001948901,0.1154613,-0.763494491577148,-0.406604170799255,0.494877189397812,-0.835248923368005,-0.359384277571697,0.517058871988737,9
1.6199951171875,-0.480981081724167,2.41585111618042,1.54979419708252,-0.636958033083316,2.69175113334911,1.53716445517924,2095.358,3023.062,2908.275,1122.346,-0.08777086,-0.001530252,0.1150827,-0.774913668632507,-0.409749567508698,0.50496643781662,-0.846214826007804,-0.364102599125749,0.523847288101157,9
1.63999938964844,-0.496678709983826,2.40760445594788,1.5599160194397,-0.653994195024907,2.68442094880091,1.54771065096602,2208.29,3150.805,3116.981,657.631,-0.08993229,-0.001459945,0.1161811,-0.784885168075562,-0.412349909543991,0.506089627742767,-0.857007552155828,-0.368746407673381,0.530528499715628,9
1.65999603271484,-0.512606978416443,2.39928984642029,1.57028245925903,-0.671237824488362,2.67700149677403,1.55838527903188,2073.727,2993.483,2865.85,1231.912,-0.08851868,-0.0009576727,0.1154691,-0.796412289142609,-0.415732562541962,0.518319249153137,-0.867614155697522,-0.373310132863173,0.537094492570531,9
1.68000030517578,-0.528722167015076,2.39092564582825,1.58061695098877,-0.688698391434734,2.66948870260877,1.56919420173384,2248.35,3190.471,3184.802,513.957,-0.0913885,-0.0009981528,0.1170278,-0.805756211280823,-0.418206751346588,0.516727685928345,-0.878038122530658,-0.377795274579551,0.543547424602645,9
1.69999694824219,-0.545073628425598,2.382488489151,1.59126198291779,-0.706358800111611,2.66188992212981,1.58012683598675,2035.5,2948.084,2794.655,1403.888,-0.08876582,-0.0003659183,0.115789,-0.81757515668869,-0.42185366153717,0.532253682613373,-0.888267004546665,-0.382196476749158,0.549879589839776,9
1.72000122070313,-0.561595022678375,2.3740074634552,1.60179114341736,-0.724228658537036,2.6542010212754,1.5911891296115,2305.531,3251.231,3284.147,295.5294,-0.09280051,-0.0005752428,0.118048,-0.82606828212738,-0.424047857522964,0.526457726955414,-0.898304216251578,-0.386515208538549,0.556093102023817,9
1.73999786376953,-0.578364372253418,2.36544680595398,1.61273324489594,-0.742290383213093,2.64642956573347,1.60237019758524,1971.11,2878.261,2678.034,1674.493,-0.08837221,0.0002671352,0.1159843,-0.838469088077545,-0.428037405014038,0.547105193138123,-0.908137821269591,-0.39074633405868,0.562180571969536,9
1.75999450683594,-0.595281302928925,2.35685062408447,1.62344336509705,-0.760546715064628,2.63857437616062,1.61367173667103,2357.844,3369.404,3401.754,0,-0.09402557,-6.496498E-05,0.1193855,-0.845848321914673,-0.42981368303299,0.535505354404449,-0.917767514700581,-0.394889722119545,0.568141810929231,9
1.77999877929688,-0.61246383190155,2.34816646575928,1.63470220565796,-0.779000609654483,2.63063418086074,1.62509557650306,1885.835,2765.146,2508.473,2064.002,-0.0871136,0.001172609,0.1161655,-0.859125852584839,-0.434206902980804,0.562942206859589,-0.927192788821983,-0.398945154262308,0.57397650459845,9
1.79999542236328,-0.629782378673553,2.33944654464722,1.64571630954742,-0.797633790944145,2.62261684350262,1.63663040334288,2121.756,3760.249,3240.852,0,-0.09238932,0.002056044,0.1215691,-0.865933001041412,-0.436000972986221,0.550705254077911,-0.936402499096495,-0.402907835303912,0.579677753977713,9
1.81999969482422,-0.647358298301697,2.33064794540405,1.65722393989563,-0.816456197270346,2.61451808789761,1.64828236949435,1996.99,2554.758,2448.695,2217.342,-0.08501396,0.004347581,0.1178759,-0.87879353761673,-0.4399334192276,0.575380325317383,-0.945399824400851,-0.406779133026206,0.585247526943151,9
1.83999633789063,-0.665063381195068,2.32182550430298,1.66845369338989,-0.835449117627072,2.60634596486888,1.66003989195343,2229.099,3651.203,3247.405,0,-0.09030353,0.005975806,0.1217062,-0.885251462459564,-0.44112691283226,0.561489045619965,-0.954174163352093,-0.410554485950274,0.590679260733698,9
1.86000061035156,-0.683014571666718,2.31293988227844,1.68015122413635,-0.854622615239374,2.59809614449182,1.6719092003358,2089.499,2530.033,2509.753,2094.162,-0.08393911,0.008652692,0.1165341,-0.897558689117432,-0.444284111261368,0.584875643253326,-0.962728579444532,-0.414235212212131,0.595974851798267,9
1.87999725341797,-0.701088130474091,2.30403614044189,1.69160842895508,-0.873957566090845,2.58977685529642,1.6838784559643,2189.977,3717.688,3225.508,0,-0.08991151,0.01077546,0.1194157,-0.903679311275482,-0.445175588130951,0.572858154773712,-0.971053025860989,-0.417816988947023,0.601128080678429,9
1.89999389648438,-0.719380617141724,2.29508018493652,1.70344030857086,-0.893456683142228,2.58138692997148,1.69594933829086,2152.688,2524.469,2673.291,1861.299,-0.08598122,0.01351528,0.1142412,-0.914625346660614,-0.447814673185349,0.591596603393555,-0.979147395688901,-0.421299770153459,0.606138881190213,9
1.91999816894531,-0.737788021564484,2.2861065864563,1.7150536775589,-0.913122862707269,2.57292512231409,1.70812364027167,2261.508,3535.533,3340.287,0,-0.09253792,0.01538871,0.115844,-0.920374929904938,-0.448680371046066,0.580669105052948,-0.987011339258123,-0.424683405378145,0.611007036871143,9
1.93999481201172,-0.756396353244781,2.27707719802856,1.72701728343964,-0.932936403420974,2.56439990927123,1.72038916582329,2146.22,2598.692,2831.814,1630.052,-0.08991098,0.01763177,0.1110881,-0.930415272712708,-0.451456665992737,0.59818172454834,-0.994635661494588,-0.427963938237592,0.615726855532351,9
1.95999908447266,-0.775113761425018,2.26802158355713,1.73880386352539,-0.952907658613767,2.55580683609405,1.73275232415044,2244.199,3490.884,3401.248,0,-0.0962035,0.01899929,0.1129855,-0.935875058174133,-0.452798515558243,0.589326798915863,-1.00202309041976,-0.431142542523221,0.620300025949072,9
1.97999572753906,-0.794019222259521,2.25889992713928,1.75092589855194,-0.973016570682103,2.54715453300902,1.74520069864106,2124.72,2640.224,2907.209,1524.432,-0.09350944,0.02066603,0.1094366,-0.945272505283356,-0.456082165241241,0.606100976467133,-1.00916501115878,-0.434215511495054,0.624721215103391,9
2,-0.813028573989868,2.24974298477173,1.76287829875946,-0.993273599084619,2.53843849960327,1.7577407641983,2290.138,3394.293,3446.374,0,-0.09888104,0.02130185,0.1118343,-0.950471818447113,-0.457843631505966,0.59762305021286,-1.01606400046349,-0.437183953857422,0.628992018127441,9
2.01999664306641,-0.832224249839783,2.2405104637146,1.77519822120667,-1.01365835337184,2.52966750931758,1.77035989816261,2088.328,2682.444,2869.668,1552.268,-0.09478297,0.0223732,0.1090347,-0.959778785705566,-0.461620599031448,0.61599737405777,-1.02271203275434,-0.440044416427654,0.633107466805174,9
2.04000091552734,-0.851517379283905,2.23123931884766,1.7873420715332,-1.0341813929022,2.52083701875502,1.78306463727984,2283.851,3433.126,3404.601,0,-0.09921021,0.02249047,0.1124157,-0.964659929275513,-0.463555216789246,0.607192695140839,-1.02911152474823,-0.442797939051516,0.637069057199471,9
2.05999755859375,-0.870996415615082,2.22189044952393,1.79987490177155,-1.05482201812353,2.5119559343546,1.79584216754118,2063.194,2678.88,2766.453,1679.255,-0.0936426,0.02326229,0.1100025,-0.973949611186981,-0.467442840337753,0.626641452312469,-1.03525504859546,-0.445441325732794,0.640872191117535,9
2.07999420166016,-0.890565037727356,2.21250820159912,1.81219840049744,-1.07558293843174,2.50302309033894,1.80869416619175,2289.774,3466.821,3355.766,0,-0.09761391,0.02312326,0.1139072,-0.978431940078735,-0.46910759806633,0.616174042224884,-1.0411426556922,-0.447974598585819,0.644516900376035,9
2.09999847412109,-0.910320281982422,2.20305442810059,1.82493054866791,-1.09646699912883,2.4940372624541,1.82162239460902,2042.699,2658.543,2665.177,1820.227,-0.09098743,0.02384646,0.1112313,-0.987758219242096,-0.472689181566238,0.636609375476837,-1.04677411523768,-0.450397658303471,0.648003042098304,8
2.1199951171875,-0.930157363414764,2.1935772895813,1.83742666244507,-1.11745308225396,2.48500753716864,1.83461377976925,2261.693,3545.452,3298.363,0,-0.09495394,0.02378193,0.1154053,-0.991856753826141,-0.473852634429932,0.624807059764862,-1.0521429102862,-0.45270770082608,0.651326581984514,8
2.13999938964844,-0.950177371501923,2.18404102325439,1.85032427310944,-1.138551967509,2.47592927627801,1.8476749948214,2042.833,2620.642,2613.917,1906.161,-0.08810802,0.02465869,0.1123237,-1.00100350379944,-0.476818531751633,0.644878327846527,-1.05725102347782,-0.454905579228273,0.654488747383304,8
2.15999603271484,-0.970272600650787,2.17449331283569,1.86296415328979,-1.15974228854654,2.4668116731246,1.86079281297862,2251.182,3565.893,3284.033,0,-0.09231102,0.02476229,0.1162399,-1.00476038455963,-0.477368533611298,0.631994307041168,-1.06209255378819,-0.456988754464129,0.657485885279498,8
2.18000030517578,-0.990544974803925,2.16490054130554,1.87599515914917,-1.18103490068612,2.45765005696766,1.87397395420079,2050.25,2598.305,2613.911,1917.683,-0.08568028,0.02577723,0.1126825,-1.01361835002899,-0.479652732610703,0.651551783084869,-1.06666929835407,-0.458957999791384,0.660319108186354,8
2.19999694824219,-1.01088643074036,2.15530705451965,1.88876497745514,-1.20240821395574,2.44845371736898,1.88720505326679,2231.913,3581.792,3282.769,0,-0.09008408,0.02603589,0.1162938,-1.01707434654236,-0.479674011468887,0.638490200042725,-1.07097597819164,-0.460811043810786,0.662985148161421,7
2.21999359130859,-1.03139591217041,2.14567995071411,1.90190637111664,-1.22386495005255,2.43922148325834,1.90048779503681,2061.746,2586.037,2643.575,1880.649,-0.0838688,0.02710938,0.1125148,-1.02547514438629,-0.481349527835846,0.657071530818939,-1.07501271071614,-0.462547937042828,0.665484077890325,6
2.23999786376953,-1.05196833610535,2.13606119155884,1.91478657722473,-1.24540792547886,2.42995214277345,1.91382392305993,2233.422,3553.907,3301.932,0,-0.08832267,0.02736555,0.1157512,-1.02861714363098,-0.480933576822281,0.644007742404938,-1.07877930973132,-0.464168599372462,0.667815782108711,5
2.25999450683594,-1.07269954681396,2.1264181137085,1.92803013324738,-1.26701526177039,2.4206551096063,1.92719989352455,2065.434,2593.561,2667.4,1834.967,-0.0823231,0.02835448,0.1118696,-1.03655982017517,-0.482148498296738,0.662179052829742,-1.08227143928024,-0.465671165158559,0.669977576652695,5
2.27999877929688,-1.09348618984222,2.11678981781006,1.94101357460022,-1.28869796983554,2.41132564607061,1.9406225227075,2224.93,3543.912,3308.794,0,-0.08671412,0.02850605,0.1149926,-1.03933227062225,-0.481403768062592,0.649173676967621,-1.08549040888332,-0.467056197851165,0.67197027217779,1
2.29999542236328,-1.11442196369171,2.10714483261108,1.95435333251953,-1.31043401044317,2.40197323503182,1.95407816727483,2058.144,2598.304,2673.19,1817.281,-0.08068419,0.02936231,0.1111565,-1.04679429531097,-0.482259452342987,0.666987955570221,-1.08843251702753,-0.468322104792631,0.6737915772711,0
2.31999969482422,-1.13540482521057,2.09752058982849,1.96742749214172,-1.33223444283894,2.39259311800549,1.96757367342642,2225.498,3527.932,3309.128,0,-0.08492342,0.02934367,0.114238,-1.04914605617523,-0.481209427118301,0.653707921504974,-1.09109887036509,-0.469469362144493,0.675442177003072,0
2.33999633789063,-1.15652823448181,2.08788585662842,1.98085784912109,-1.35407709248145,2.38319483607731,1.98109531406483,2044.287,2603.773,2656.396,1826.78,-0.07864688,0.03004861,0.110406,-1.05616807937622,-0.481736689805984,0.671518325805664,-1.09348640563071,-0.470496651869278,0.67692017506657,0
2.36000061035156,-1.17768931388855,2.07827854156494,1.99401223659515,-1.37597305876702,2.37377361348711,1.99464996024512,2216.353,3533.117,3295.391,0,-0.08275454,0.02988116,0.11356,-1.05804824829102,-0.480369567871094,0.657721221446991,-1.09559602313537,-0.471404361345641,0.678226128796969,0
2.37999725341797,-1.19898176193237,2.06866765022278,2.00752282142639,-1.39790005743958,2.36433903852774,2.00822381695123,2028.756,2600.427,2624.981,1860.025,-0.07617652,0.03048253,0.1096782,-1.06462836265564,-0.480542153120041,0.675523638725281,-1.09742530100382,-0.472191448508328,0.679358538938131,0
2.39999389648438,-1.22030186653137,2.05909109115601,2.02074193954468,-1.41986083522252,2.35488992936084,2.02181858453579,2206.074,3542.145,3277.555,0,-0.0802272,0.03021847,0.1128748,-1.06600058078766,-0.478816539049149,0.660952627658844,-1.09897439291323,-0.472857979480329,0.680317500623536,0
2.41999816894531,-1.24174427986145,2.04951953887939,2.03431558609009,-1.44185817738692,2.34542508756209,2.03543598721428,2013.13,2590.891,2592.557,1900.047,-0.073385,0.03076898,0.1088454,-1.07212233543396,-0.478585869073868,0.678686022758484,-1.10024313330221,-0.473403883025206,0.681102911362803,0
2.43999481201172,-1.26320397853851,2.03998994827271,2.04758429527283,-1.46386968334064,2.3359541514805,2.04906215795307,2194.971,3556.186,3255.168,0,-0.07744686,0.03046496,0.1120157,-1.07298243045807,-0.476479440927505,0.663435697555542,-1.10123006676374,-0.473828532921971,0.681713870189648,0
2.45999908447266,-1.28477549552917,2.03047370910645,2.06120038032532,-1.48590651627916,2.32647231790489,2.06270400730194,2001.832,2580.059,2568.298,1927.68,-0.07052796,0.03099498,0.1078103,-1.07857716083527,-0.475810170173645,0.68080472946167,-1.10193556692257,-0.474132089930926,0.682150608395601,0
2.47999572753906,-1.30635356903076,2.02100729942322,2.07449722290039,-1.50794623031618,2.31698924467309,2.07634764018804,2185.947,3557.382,3243.287,0,-0.07466971,0.03066212,0.1108502,-1.07890737056732,-0.473318606615067,0.664839565753937,-1.10235882472314,-0.474314205938057,0.682412625136718,0
2.5,-1.3280326128006,2.01156258583069,2.0881359577179,-1.52999999932945,2.30750012397766,2.08999997377396,1990.544,2572.77,2551.222,1944.314,-0.06774123,0.03116625,0.1064446,-1.08394920825958,-0.472228914499283,0.681941032409668,-1.10250000050292,-0.474374949932098,0.682500019669533,0
2.51999664306641,-1.34970736503601,2.00217485427856,2.10144472122192,-1.55204535801192,2.29801462201262,2.10364710096447,2170.607,3564.275,3231.341,0,-0.07196873,0.03081544,0.1093913,-1.08373939990997,-0.469393372535706,0.665434241294861,-1.10235893238473,-0.47431425226183,0.68241269178437,0
2.54000091552734,-1.37147080898285,1.99281632900238,2.11508774757385,-1.57409348237975,2.28852793005043,2.11729594024597,1979.922,2564.235,2538.858,1955.396,-0.06506316,0.03129274,0.1048445,-1.08818125724792,-0.467923521995544,0.682146608829498,-1.10193556692257,-0.474132089930926,0.682150608395601,0
2.55999755859375,-1.3932192325592,1.98352062702179,2.12839007377625,-1.59612191359838,2.27904971150017,2.13093258853001,2161.534,3560.103,3223.458,0,-0.06934978,0.03090212,0.1076698,-1.0874228477478,-0.46478059887886,0.66511595249176,-1.10123038958312,-0.473828671822132,0.681714070030222,0
2.57999420166016,-1.41504454612732,1.97426128387451,2.14202094078064,-1.61813342708139,2.26957877217893,2.14455876392979,1967.918,2559.292,2526.433,1963.743,-0.06243515,0.03133023,0.1029949,-1.09125196933746,-0.462975591421127,0.681540906429291,-1.10024356351463,-0.47340406813359,0.681103177684783,0
2.59999847412109,-1.43684303760529,1.96507000923157,2.15530109405518,-1.64013077892511,2.26011392621545,2.15817617260023,2149.263,3559.092,3214.645,0,-0.06674787,0.0308873,0.1057444,-1.08992969989777,-0.459562093019485,0.664002537727356,-1.09897493039424,-0.472858210743393,0.680317833349887,0
2.6199951171875,-1.45870590209961,1.95592069625854,2.16890692710876,-1.66209156852628,2.2506648119635,2.17177094750084,1956.9,2554.728,2506.733,1977.307,-0.05977891,0.03125774,0.1009563,-1.09314465522766,-0.457463383674622,0.68028724193573,-1.09742594550583,-0.472191725819537,0.679358937915576,0
2.63999938964844,-1.48053061962128,1.94684433937073,2.18214988708496,-1.68402693989188,2.24122663446822,2.18534998730279,2135.047,3562.525,3202.216,0,-0.0641417,0.03076499,0.1036777,-1.09123802185059,-0.45380711555481,0.662146329879761,-1.09559602313537,-0.471404361345641,0.67822612879697,0
2.65999603271484,-1.50240731239319,1.93781566619873,2.19571471214294,-1.70591456353497,2.23180900148401,2.19889946898997,1942.206,2545.863,2485.938,1999.37,-0.05708113,0.03109236,0.09877467,-1.09382665157318,-0.451439172029495,0.67823588848114,-1.09348726343002,-0.470497020956359,0.676920706085208,0
2.68000030517578,-1.52423393726349,1.92886471748352,2.20890522003174,-1.72776555581996,2.22240712994983,2.2124262741215,2123.675,3565.045,3187.66,0,-0.06147747,0.03055962,0.1014477,-1.09133887290955,-0.447556376457214,0.659527957439423,-1.09109887036509,-0.469469362144494,0.675442177003072,0
2.69999694824219,-1.54609954357147,1.91996610164642,2.22241258621216,-1.74955768413056,2.21303058593937,2.22591663964878,1929.36,2537.819,2465.917,2017.648,-0.05435938,0.03084614,0.09642553,-1.09328269958496,-0.444928884506226,0.675365030765533,-1.08843358680109,-0.468322565086308,0.673792239511893,0
2.71999359130859,-1.56790375709534,1.91114926338196,2.23553466796875,-1.77129374718429,2.20367816524265,2.23937229811132,2113.887,3565.015,3173.961,0,-0.05881325,0.0302706,0.09902521,-1.09021258354187,-0.44083359837532,0.65610271692276,-1.08549158402443,-0.467056703481556,0.671970999646117,0
2.73999786376953,-1.58973360061646,1.90238988399506,2.24896717071533,-1.79297647980783,2.19434869114016,2.25279494249708,1914.386,2530.954,2449.883,2032.671,-0.05166799,0.03051154,0.09389447,-1.09149253368378,-0.437963157892227,0.671628177165985,-1.08227271937422,-0.465671715947234,0.669978369091845,0
2.75999450683594,-1.61149060726166,1.89371657371521,2.26200604438782,-1.81458384274179,2.18505164650952,2.26617092945464,2107.689,3562.676,3159.152,0,-0.05618524,0.02988061,0.09640174,-1.0878518819809,-0.433678537607193,0.651949346065521,-1.07878069424208,-0.464169195088763,0.667816639186824,0
2.77999877929688,-1.63325929641724,1.88510477542877,2.27534747123718,-1.83612684690458,2.17578229366013,2.27950707526701,1898.839,2527.913,2436.905,2041.035,-0.04908099,0.03005859,0.09120298,-1.08844697475433,-0.430591613054276,0.667074859142303,-1.07501419914593,-0.462548577472581,0.665484999299265,0
2.79999542236328,-1.65494418144226,1.87658166885376,2.28828549385071,-1.85758361379882,2.16655004629821,2.2927898361021,2102.117,3552.829,3151.216,0,-0.05366962,0.02934732,0.09361739,-1.08423399925232,-0.426143407821655,0.646907091140747,-1.07097756992209,-0.460811728687929,0.662986133518392,0
2.81999969482422,-1.67662739753723,1.86812424659729,2.30152297019958,-1.87896509797278,2.15735019098767,2.30602599334712,1880.351,2527.549,2421.651,2052.552,-0.04654247,0.02944562,0.08836247,-1.08416974544525,-0.422880709171295,0.661872625350952,-1.06666929835407,-0.458957999791384,0.660319108186353,0
2.83999633789063,-1.69821536540985,1.85975813865662,2.31434798240662,-1.90024960698239,2.14819206138118,2.31920211834584,2090.575,3552.465,3139.542,0,-0.05117371,0.02865867,0.09077527,-1.07939231395721,-0.418299198150635,0.641256153583527,-1.06209435025759,-0.456989527434725,0.657486997379635,0
2.86000061035156,-1.71978902816772,1.85146045684814,2.32746958732605,-1.9214480311499,2.13907097167731,2.33232495272651,1861.919,2523.485,2401.987,2071.974,-0.04396186,0.02868922,0.0854936,-1.07868504524231,-0.414884448051453,0.656083524227142,-1.05725102347782,-0.454905579228273,0.654488747383304,0
2.87999725341797,-1.74125611782074,1.84325695037842,2.34016823768616,-1.94253888918396,2.12999616467562,2.34538119854648,2082.431,3549.029,3127.459,0,-0.04861121,0.02783226,0.08790124,-1.07335615158081,-0.41017547249794,0.634934067726135,-1.05214490868305,-0.452708560680416,0.651327819087361,0
2.89999389648438,-1.76269674301147,1.83512473106384,2.35316276550293,-1.96352501326936,2.1209664217661,2.35837260906308,1844.148,2518.707,2378.103,2096.119,-0.04126728,0.02780409,0.08255724,-1.07203030586243,-0.406609654426575,0.649732232093811,-1.04677621342161,-0.450398561093403,0.648004340974112,0
2.91999816894531,-1.78401982784271,1.82708954811096,2.36572313308716,-1.98440911693069,2.11198057539494,2.37130086407726,2070.593,3551.76,3112.818,0,-0.04593261,0.02689987,0.08497458,-1.06615829467773,-0.401769816875458,0.628019630908966,-1.04114485287423,-0.447975543971863,0.644518260536375,0
2.93999481201172,-1.80530452728271,1.8191282749176,2.37858009338379,-2.00517008215741,2.10304771205211,2.38415289053452,1829.975,2511.688,2349.864,2123.378,-0.03846617,0.02683142,0.0795368,-1.06422555446625,-0.398045033216476,0.642843067646027,-1.03525734386973,-0.445442313325187,0.640873612001643,0
2.95999908447266,-1.82646083831787,1.81126713752747,2.39099025726318,-2.02581860575671,2.0941632292003,2.39693531026807,2057.249,3557.588,3096.47,0,-0.0432002,0.02590634,0.08195616,-1.05781519412994,-0.393071174621582,0.620513141155243,-1.02911152474823,-0.442797939051516,0.637069057199471,0
2.97999572753906,-1.84756600856781,1.80348348617554,2.40369486808777,-2.04633384260397,2.08533609591429,2.40963521915279,1814.615,2501.27,2326.194,2150.617,-0.03565227,0.02582236,0.0764064,-1.05526697635651,-0.389183074235916,0.635227382183075,-1.02271452148052,-0.440045487257004,0.633109007445237,0
3,-1.86853265762329,1.79580211639404,2.41594266891479,-2.06672639957428,2.07656174835205,2.42225918334961,2047.09,3559.945,3080.958,0,-0.04045981,0.02489115,0.07877597,-1.04833722114563,-0.384079664945602,0.612390995025635,-1.01606400046349,-0.437183953857422,0.628992018127441,0
3.01999664306641,-1.88943576812744,1.78820109367371,2.42848014831543,-2.08697572864857,2.06784902775215,2.4347944826559,1801.264,2493.482,2309.052,2166.605,-0.03291507,0.02478959,0.07312752,-1.04515659809113,-0.380033224821091,0.626874804496765,-1.00916768936771,-0.434216663853534,0.624722873042298,0
3.03999328613281,-1.91019010543823,1.78070473670959,2.44055223464966,-2.10708469520508,2.05919670122237,2.4472428908773,2039.707,3555.734,3069.644,0,-0.03780943,0.02383818,0.07541317,-1.0377197265625,-0.37481689453125,0.603607356548309,-1.00202586176059,-0.431143734953757,0.620301741541063,0
3.05999755859375,-1.930868268013,1.77329206466675,2.45290923118591,-2.12705600675913,2.05060360379452,2.45960608409476,1785.41,2489.528,2297.365,2175.867,-0.03029239,0.023701,0.06970173,-1.03390073776245,-0.370636910200119,0.617844581604004,-0.994638524886308,-0.427965170275055,0.615728628108227,0
3.07999420166016,-1.95138788223267,1.76598525047302,2.46479511260986,-2.14686960564145,2.04207836572333,2.47187164565552,2035.412,3549.09,3057.965,0,-0.03525865,0.02270342,0.07191153,-1.02597570419312,-0.365334212779999,0.594297468662262,-0.987014293508169,-0.424684676509408,0.611008865692653,0
3.09999847412109,-1.97181820869446,1.75876450538635,2.47696018218994,-2.16653584520328,2.033616532251,2.4840459847772,1767.834,2489.779,2286.836,2181.289,-0.02779222,0.02250663,0.06619705,-1.02152001857758,-0.361051738262177,0.608256161212921,-0.979150439632689,-0.421301079877433,0.606140765536421,0
3.1199951171875,-1.99208045005798,1.75165057182312,2.48864698410034,-2.18603502400946,2.02522658035469,2.49611690533293,2032.273,3535.941,3051.615,0,-0.03281494,0.02143165,0.06835192,-1.01311898231506,-0.355686128139496,0.584340870380402,-0.971056158224178,-0.417818336715394,0.601130019760458,0
3.13999938964844,-2.01224207878113,1.74462413787842,2.50061273574829,-2.20537738341953,2.01690410346351,2.50809074721212,1747.504,2492.175,2270.937,2193.433,-0.02530163,0.02115531,0.06264503,-1.00806605815887,-0.351330190896988,0.598292410373688,-0.962728579444533,-0.414235212212131,0.595974851798267,0
3.15999603271484,-2.03222632408142,1.73770558834076,2.51209259033203,-2.22454360124808,2.00865741537402,2.51995554906156,2023.298,3533.276,3040.356,0,-0.03035098,0.02000734,0.06484006,-0.999207198619843,-0.345915257930756,0.573996543884277,-0.95417746870157,-0.410555908149813,0.590681306902481,0
3.18000030517578,-2.0520977973938,1.73087596893311,2.52385210990906,-2.24354380138856,2.00048216005771,2.53171757805356,1727.453,2489.837,2248.632,2216.462,-0.02271623,0.01966724,0.05915137,-0.993590712547302,-0.341489255428314,0.587978959083557,-0.94539982440085,-0.406779133026206,0.58524752694315,0
3.19999694824219,-2.07178378105164,1.72415578365326,2.53511619567871,-2.2623590635174,1.99238647840124,2.54336512160655,2017.122,3529.799,3027.075,0,-0.0277773,0.01846031,0.06137851,-0.984299778938293,-0.336014360189438,0.563204050064087,-0.936405971974636,-0.402909329586355,0.579679903854719,0
3.21999359130859,-2.09134674072266,1.7175258398056,2.5466616153717,-2.28099231507127,1.9843691108104,2.55489999194326,1708.948,2485.726,2222.638,2243.87,-0.01999714,0.01807293,0.05565958,-0.978149056434631,-0.331498682498932,0.577271103858948,-0.927196343299057,-0.398946683654493,0.573978704989081,0
3.23999786376953,-2.11071562767029,1.71100687980652,2.55770111083984,-2.29944628156995,1.97642888457015,2.56632387629027,2008.084,3530.836,3012.256,0,-0.02508378,0.01683458,0.0579085,-0.968444526195526,-0.325946986675262,0.551974713802338,-0.917771149318993,-0.394891285994308,0.568144060931169,0
3.25999450683594,-2.1299512386322,1.70458030700684,2.56902408599854,-2.31770268688992,1.96857366338589,2.57762546085652,1694.367,2479.778,2194.84,2271.261,-0.0171971,0.01641948,0.0521198,-0.961773753166199,-0.321321249008179,0.566143929958344,-0.90814153446928,-0.390747931744771,0.562182870617026,0
3.27999877929688,-2.14898467063904,1.69826674461365,2.57983016967773,-2.33577134012187,1.96079922667992,2.58881081793642,1997.443,3534.353,2996.705,0,-0.02236629,0.01517622,0.05437235,-0.951669692993164,-0.315684825181961,0.540310084819794,-0.898304216251578,-0.386515208538549,0.556093102023818,0
3.29999542236328,-2.1678740978241,1.69204759597778,2.59091877937317,-2.35363442159312,1.95311324175956,2.5998689163037,1678.852,2471.715,2172.956,2295.813,-0.01443487,0.0147559,0.0485055,-0.944477260112762,-0.310945212841034,0.554434657096863,-0.888270870184445,-0.382198140025101,0.549881982853707,0
3.31999969482422,-2.18655395507813,1.68594312667847,2.60148215293884,-2.37130160722417,1.94551154534655,2.61080574581408,1989.714,3533.33,2983.465,0,-0.01969354,0.01351825,0.05071517,-0.933993399143219,-0.305230736732483,0.528170108795166,-0.878038122530657,-0.377795274579551,0.543547424602645,0
3.33999633789063,-2.20507955551147,1.67993545532227,2.61232542991638,-2.38875555478454,1.93800159931817,2.62161057080077,1664.528,2466.791,2157.305,2309.919,-0.01178662,0.0130895,0.04479073,-0.926275253295898,-0.30038845539093,0.542168438434601,-0.867618167158097,-0.373311858882592,0.53709697585572,0
3.36000061035156,-2.22338819503784,1.67404317855835,2.62263655662537,-2.406005803634,1.93057929915441,2.6322892965819,1984.123,3527.013,2973.861,0,-0.01713904,0.01184376,0.04694022,-0.915426909923553,-0.29461532831192,0.515551805496216,-0.857007552155826,-0.36874640767338,0.530528499715627,0
3.37999725341797,-2.24153184890747,1.66824913024902,2.63322567939758,-2.42303550945299,1.9232518924954,2.64283149572124,1648.763,2465.529,2144.537,2319.142,-0.009269931,0.01138935,0.0409943,-0.907189130783081,-0.289697200059891,0.52945214509964,-0.846218976345105,-0.364104384899943,0.523849857357654,0
3.39999389648438,-2.2594518661499,1.6625714302063,2.64327621459961,-2.43984769972619,1.91601807669906,2.65323904237604,1978.731,3519.459,2965.503,0,-0.01470171,0.01011749,0.04311288,-0.895993173122406,-0.283889085054398,0.502531290054321,-0.835253140422974,-0.35938609205264,0.51706148254665,0
3.41999816894531,-2.27719688415527,1.65699291229248,2.65360379219055,-2.45644516534361,1.90887665092339,2.66351366424015,1630.516,2465.43,2131.569,2330.046,-0.006831541,0.009624995,0.03718518,-0.887254357337952,-0.278920203447342,0.516374111175537,-0.824110582941664,-0.354591760855451,0.510163708672097,0
3.43999481201172,-2.29471158981323,1.65153098106384,2.66338777542114,-2.4728118459714,1.90183452548138,2.67364541920187,1976.501,3510.775,2955.302,0,-0.01231499,0.008309984,0.03929053,-0.875735700130463,-0.273090898990631,0.489194601774216,-0.812804733542555,-0.349727169707881,0.503164849321754,0
3.45999908447266,-2.31204175949097,1.6461695432663,2.67344808578491,-2.48895692832918,1.89488774758421,2.68363999427827,1611.919,2466.97,2115.717,2342.732,-0.004426706,0.007769026,0.03339981,-0.866520762443542,-0.26808175444603,0.503009736537933,-0.801332006385299,-0.344790775723006,0.496062684689628,0
3.47999572753906,-2.32913613319397,1.64092469215393,2.68295764923096,-2.50486489870395,1.88804299234919,2.69348778574196,1974.128,3500.757,2946.64,0,-0.009958625,0.00640312,0.03550477,-0.854702889919281,-0.262236684560776,0.475472956895828,-0.789706299681989,-0.339788558913217,0.488865818431069,0
3.5,-2.34603691101074,1.63578081130981,2.69274592399597,-2.5205447997813,1.88129636896134,2.70319439144611,1592.837,2468.153,2095.684,2361.143,-0.00200323,0.005812048,0.02963427,-0.845044791698456,-0.257190525531769,0.489411115646362,-0.777924000354857,-0.334718964672089,0.481572013878822,0
3.51999664306641,-2.36269569396973,1.6307544708252,2.70197606086731,-2.53598168290031,1.87465430941181,2.7127505574575,1968.127,3497.925,2934.537,0,-0.007585748,0.004410259,0.03177869,-0.832951605319977,-0.25132754445076,0.461503624916077,-0.765999459475408,-0.329588167864767,0.474190155029786,0
3.53999328613281,-2.37915349006653,1.62582969665527,2.71148681640625,-2.55117869390181,1.86811546013321,2.72215823120146,1575.276,2466.077,2073.524,2383.649,0.0004412489,0.003786464,0.02592175,-0.822877585887909,-0.246237546205521,0.475540012121201,-0.753933682518821,-0.324396601119134,0.466720864320997,0
3.55999755859375,-2.39536428451538,1.62102270126343,2.72043061256409,-2.56613872308604,1.86167857751006,2.73141920191151,1963.067,3493.105,2923.81,0,-0.005199023,0.002365489,0.02808371,-0.810535609722137,-0.240351215004921,0.447190195322037,-0.741727567798258,-0.319144650954242,0.459164697851087,0
3.57999420166016,-2.4113655090332,1.61631846427917,2.72965860366821,-2.58084770246059,1.8553497146065,2.74052476083022,1560.345,2463.409,2050.479,2405.719,0.002888604,0.001720061,0.02220428,-0.800069093704224,-0.235210239887238,0.461395919322968,-0.729396114728537,-0.313838771199258,0.451530940972359,0
3.59999847412109,-2.42711544036865,1.61173248291016,2.73831152915955,-2.59531431270705,1.84912513636775,2.74948028171299,1955.362,3493.536,2910.911,0,-0.002839995,0.0003019755,0.02438939,-0.787498354911804,-0.229299336671829,0.432645380496979,-0.716935713767317,-0.308477408768949,0.443817359206151,0
3.6199951171875,-2.44264841079712,1.60725021362305,2.74724912643433,-2.60952509409627,1.84301063413925,2.75827743234631,1545.322,2458.9,2031.532,2425.756,0.00525965,-0.0003451457,0.01849512,-0.77665239572525,-0.224110528826714,0.4468794465065,-0.704361775018033,-0.303067194200314,0.436033492140578,0
3.63999938964844,-2.45792627334595,1.60288643836975,2.75560474395752,-2.6234885835008,1.83700253474321,2.76692149746096,1951.641,3487.805,2900.99,0,-0.0005624596,-0.001754491,0.02065822,-0.763875842094421,-0.218184024095535,0.41777640581131,-0.691670720740692,-0.297606588091786,0.428177124984152,0
3.65999603271484,-2.47297954559326,1.59862744808197,2.76424551010132,-2.63719194552437,1.83110636089208,2.77540453133521,1530.893,2457.49,2016.529,2438.74,0.007510145,-0.002406432,0.01475499,-0.75266170501709,-0.212960839271545,0.432032495737076,-0.678878353700696,-0.292102389931838,0.420258040401444,0
3.68000030517578,-2.48777341842651,1.59448671340942,2.77230596542358,-2.65064357486757,1.82531850058072,2.78373173068862,1932.279,3493.258,2876.723,19.86617,0.001717408,-0.003754525,0.01693812,-0.739701807498932,-0.207033038139343,0.403026223182678,-0.665981146317811,-0.286553081901244,0.412274054652249,0
3.69999694824219,-2.50233602523804,1.59045124053955,2.78064107894897,-2.66383127580226,1.81964420129024,2.79189554578451,1525.702,2455.111,2009.367,2434.365,0.009635301,-0.004376106,0.01110677,-0.728128790855408,-0.201776266098022,0.416757732629776,-0.65299527533123,-0.280965624398954,0.404235181908735,0
3.71999359130859,-2.51663684844971,1.58653402328491,2.78840684890747,-2.6767584210412,1.81408201183655,2.79989806449274,1911.041,3484.393,2842.987,67.0947,0.004041662,-0.005616074,0.01318123,-0.715020596981049,-0.195855438709259,0.388291448354721,-0.639922285921447,-0.275340682272968,0.396142378711232,0
3.73999786376953,-2.53069853782654,1.58272314071655,2.79642581939697,-2.68942811570037,1.808630596175,2.80774120902801,1530.199,2461.228,2015.451,2397.836,0.01162869,-0.006189719,0.007457026,-0.703091681003571,-0.190558984875679,0.400954127311707,-0.626763698705669,-0.269678909802388,0.38799658639423,0
3.75999450683594,-2.54449558258057,1.57902991771698,2.8038969039917,-2.70182915057228,1.80329477731443,2.81541804035694,1891.248,3462.891,2802.191,134.5645,0.006330608,-0.007308247,0.009278037,-0.689848899841309,-0.184655591845512,0.373549312353134,-0.613536214864365,-0.263987493038594,0.379808143784027,0
3.77999877929688,-2.55804634094238,1.57544326782227,2.81158971786499,-2.7139695770734,1.79807109095524,2.82293354268985,1539.747,2481.154,2035.188,2328.011,0.01334598,-0.007840879,0.00373843,-0.677555561065674,-0.179334700107574,0.384643882513046,-0.60023651686137,-0.258265004538452,0.371574997167698,0
3.79999542236328,-2.57132983207703,1.5719735622406,2.81876420974731,-2.72583886061506,1.79296406983666,2.83028119461452,1866.053,3429.416,2758.857,223.6605,0.008419653,-0.008839564,0.005236098,-0.664179027080536,-0.17348575592041,0.358720868825912,-0.586881630238189,-0.252518769916838,0.363307686166475,0
3.81999969482422,-2.58436059951782,1.56860995292664,2.82612276077271,-2.73744492223163,1.78797030575888,2.83746589962856,1550.88,2512.433,2066.067,2233.745,0.01471802,-0.009343967,-8.327841E-06,-0.651528120040894,-0.168186143040657,0.367921829223633,-0.573468357077023,-0.246747413199059,0.355004231116903,0
3.83999633789063,-2.59712100028992,1.56536102294922,2.83299922943115,-2.74877791451009,1.78309403578861,2.84448156171422,1838.054,3386.26,2713.551,328.7206,0.01025874,-0.01023613,0.00115763,-0.638023018836975,-0.162439718842506,0.343823730945587,-0.560014026276881,-0.240958390526246,0.346675359432959,0
3.85999298095703,-2.60962200164795,1.5622171163559,2.8400182723999,-2.75984146370944,1.77833369964791,2.85133042569855,1562.626,2551.791,2102.496,2125.256,0.01579702,-0.01072508,-0.003685815,-0.625046789646149,-0.157209068536758,0.350955724716187,-0.546520735526767,-0.235152604475377,0.338322369684062,0
3.87999725341797,-2.62185049057007,1.55918490886688,2.84659600257874,-2.77063893010371,1.77368785150474,2.85801457175126,1809.406,3335.929,2666.03,445.024,0.01190851,-0.01152669,-0.002838397,-0.611429989337921,-0.151603311300278,0.328892052173615,-0.532990631455729,-0.229330978680956,0.329946590735853,0
3.89999389648438,-2.63381385803223,1.55625557899475,2.85327458381653,-2.78116151864576,1.76916027562219,2.86452855531919,1576.361,2595.954,2137.991,2011.35,0.01670819,-0.01201032,-0.007225689,-0.598180532455444,-0.146468758583069,0.333932936191559,-0.519441457145543,-0.223501147495394,0.321559006401168,0
3.91999816894531,-2.64550352096558,1.55343508720398,2.85955333709717,-2.79141684911929,1.7647476934202,2.87087709341145,1782.553,3282.79,2616.646,565.0074,0.0134308,-0.01273577,-0.006684002,-0.584475994110107,-0.141020700335503,0.313942670822144,-0.505870408491346,-0.2176619043907,0.313157880805522,0
