t,x_s1,x_s2,x_s3,x_s_d1,x_s_d2,x_s_d3,propellers_rpms1,propellers_rpms2,propellers_rpms3,propellers_rpms4,rollRad,pitchRad,yawRad,v_s1,v_s2,v_s3,v_s_d1,v_s_d2,v_s_d3,insideCount
0,-0.0599999986588955,2.94000005722046,1.17999994754791,-0.0599999986588955,2.94000005722046,1.17999994754791,0,0,0,0,0,0,0,0,0,0,-1.06581410364015E-15,4.44089209850063E-16,4.44089209850063E-16,0
0.0200042724609375,-0.0599999986588955,2.94000005722046,1.1771354675293,-0.0600018701838461,2.93999925195556,1.18000110611101,0,0,0,0,0.0163538,-0.002474609,-2.024222E-05,3.71994488546079E-08,3.50004931704007E-08,-0.143225952982903,-0.000280105751305916,-0.000120521679537258,0.00017339880334547,5
0.0400009155273438,-0.0599999986588955,2.94000005722046,1.17048275470734,-0.0600148724204753,2.93999365745638,1.18000915511487,0,0,0,0,0.03270752,-0.004950816,-5.430172E-05,3.62924410524101E-08,3.44428769949445E-08,-0.332637369632721,-0.00111101934050116,-0.00047804058392963,0.00068777389696065,6
0.0600051879882813,-0.0600004345178604,2.94013261795044,1.16416549682617,-0.0600499046557519,2.93997858406422,1.18003084173732,3185.294,2835.729,1501.222,2767.702,0.03128104,-0.00494336,-0.01646952,-2.17781216633739E-05,0.00662215612828732,-0.315863788127899,-0.00247998555168399,-0.00106706850011317,0.00153522919458695,6
0.0800018310546875,-0.0599162168800831,2.94038772583008,1.15857720375061,-0.0601175574246769,2.93994947496775,1.18007272202403,3065.98,3067.305,2154.835,2023.979,0.01897591,-0.004311125,-0.04351499,0.00421084929257631,0.0127502996474504,-0.279415816068649,-0.00437268608126799,-0.00188144466206175,0.00270690098422899,6
0.0999984741210938,-0.0596375539898872,2.94068765640259,1.15374851226807,-0.0602281887669101,2.93990187339187,1.18014120809498,2640.186,3831.781,2620.322,1134.825,-0.005853096,-0.002888465,-0.070145,0.0139331258833408,0.0149981342256069,-0.241434544324875,-0.00677637982016689,-0.00291568692648091,0.00419490191241918,6
0.120002746582031,-0.0590848959982395,2.94089889526367,1.14957022666931,-0.0603919599823235,2.93983140721312,1.18024259027882,2092.098,4101.945,3169.44,755.9966,-0.04011839,-0.0004506069,-0.08993548,0.0276328511536121,0.0105618089437485,-0.208912670612335,-0.00967921398219614,-0.00416469537060396,0.00599189453988277,5
0.139999389648438,-0.0582314655184746,2.94085621833801,1.14596676826477,-0.0606185767455666,2.93973390035084,1.18038287685052,1510.502,4074.808,3735.714,701.8793,-0.07649238,0.002388207,-0.09949836,0.0426714569330215,-0.00213002134114504,-0.180170968174934,-0.0130660253322238,-0.00562194567796536,0.00808849210174802,4
0.160003662109375,-0.057099424302578,2.94039487838745,1.14297807216644,-0.0609177895434042,2.93960515744296,1.18056810382587,1134.974,3847.038,4069.888,880.0316,-0.1062788,0.00433542,-0.09870048,0.0566020086407661,-0.0230677835643291,-0.149434313178062,-0.0169265510445065,-0.00728302204135792,0.0104783414199936,4
0.180000305175781,-0.0557376891374588,2.93938803672791,1.14071130752563,-0.0612986871007165,2.9394412678651,1.18080389755851,1101.135,3565.248,4009.898,1148.89,-0.1236298,0.004492145,-0.09000099,0.0680868253111839,-0.0503399223089218,-0.113340348005295,-0.0212451141043368,-0.00914117907931815,0.0131517376757159,3
0.200004577636719,-0.0541964247822762,2.9377772808075,1.13924860954285,-0.0617706280683152,2.93923820485124,1.18109605149912,1373.079,3339.764,3594.952,1386.325,-0.1278765,0.003023027,-0.07724925,0.0770632401108742,-0.0805353969335556,-0.0731350854039192,-0.026012379510746,-0.0111924002017188,0.0161029020586274,3
0.220001220703125,-0.0525141693651676,2.93557620048523,1.1385840177536,-0.0623420644491781,2.93899233174064,1.18144979784016,1791.032,3212.801,3016.844,1527.093,-0.1229773,0.0008612559,-0.06426101,0.084112823009491,-0.110051482915878,-0.0332283973693848,-0.03121219533433,-0.0134297356845702,0.019321835755004,3
0.240005493164063,-0.0507194995880127,2.93284702301025,1.13860702514648,-0.0630219993990999,2.93869977472688,1.18187070996396,2159.003,3168.633,2517.447,1558.476,-0.1149676,-0.0009875001,-0.05362115,0.0897335857152939,-0.136452972888947,0.00114823505282402,-0.0368361158647881,-0.0158495515746756,0.0228033104678445,3
0.260002136230469,-0.048837173730135,2.92966485023499,1.13913786411285,-0.0638182299684225,2.938357178957,1.18236361461609,2352.141,3158.987,2273.765,1495.853,-0.1090527,-0.001904693,-0.04623621,0.0941163152456284,-0.159108430147171,0.0265440214425325,-0.0428675524613532,-0.0184447102433459,0.0265370570382875,3
0.279998779296875,-0.0468916445970535,2.92608761787415,1.13999605178833,-0.0647390625194898,2.93796097043536,1.18293365383054,2352.369,3152.356,2324.385,1363.627,-0.107817,-0.001744371,-0.04152028,0.0972764045000076,-0.178862303495407,0.0429098904132843,-0.0492963837173861,-0.0212108567320638,0.030516809833474,3
0.300003051757813,-0.0449086390435696,2.92214369773865,1.14106202125549,-0.0657927507678135,2.93750759781875,1.18358593705038,2229.233,3143.834,2572.762,1194.681,-0.1110858,-0.0007366303,-0.03798467,0.0991503372788429,-0.197192266583443,0.0532982982695103,-0.0561132031658829,-0.0241439437008635,0.0347367458022363,3
0.319999694824219,-0.0429168194532394,2.91783547401428,1.14229416847229,-0.0669860785243584,2.93699414222283,1.18432466377777,2074.417,3132.732,2872.959,1032.317,-0.1169293,0.0006859556,-0.0339798,0.099591039121151,-0.215407848358154,0.0616059973835945,-0.0633008373176985,-0.0272365818771378,0.0391862337367069,3
0.340003967285156,-0.0409488268196583,2.91315102577209,1.1437075138092,-0.0683273092598492,2.93641704810699,1.18515494949472,1954.988,3107.426,3109.411,921.6295,-0.122842,0.002069697,-0.02837332,0.0983995795249939,-0.234224185347557,0.0706657022237778,-0.0708528993697216,-0.0304860231979345,0.0438613199015142,3
0.360000610351563,-0.0390400663018227,2.90807723999023,1.14534366130829,-0.0698225328270578,2.93577369517774,1.1860805641102,1904.933,3065.506,3222.063,880.9494,-0.1267073,0.003092675,-0.02087226,0.0954379886388779,-0.253693550825119,0.0818081200122833,-0.0787518717320621,-0.0338847303337087,0.0487511600740379,3
0.3800048828125,-0.0372255891561508,2.90261030197144,1.14724361896515,-0.0714797725314022,2.93506063123087,1.18710647443246,1923.568,3021.495,3207.424,895.7204,-0.1274221,0.003642558,-0.01188409,0.0907240584492683,-0.273341655731201,0.0949981287121773,-0.0869921272359981,-0.0374302820709642,0.0538522707687797,3
0.400001525878906,-0.035537164658308,2.89676117897034,1.14943182468414,-0.0733044112230977,2.93427554017634,1.18823601270221,1991.46,2988.868,3098.568,939.5538,-0.1250407,0.003790884,-0.002210424,0.0844210535287857,-0.292451947927475,0.109409011900425,-0.0955558400788823,-0.0411150084648172,0.0591536169647403,3
0.419998168945313,-0.0340018719434738,2.89055466651917,1.15190601348877,-0.0753034649285836,2.93341540321397,1.18947352217404,2071.987,2974.838,2953.809,986.2272,-0.1205075,0.003708033,0.007339455,0.0767648816108704,-0.310324370861053,0.123707562685013,-0.104434660908044,-0.0449353170220673,0.0646500300148815,3
0.44000244140625,-0.0326424576342106,2.88402438163757,1.15464186668396,-0.077483988232608,2.93247718495301,1.19082336997196,2136.344,2972.392,2825.275,1023.68,-0.1150747,0.003564531,0.01614993,0.0679704695940018,-0.32650887966156,0.13679350912571,-0.113620829717891,-0.048887868829098,0.0703367061060819,4
0.459999084472656,-0.0314783304929733,2.87720727920532,1.1576019525528,-0.0798502821969742,2.93145903476675,1.19228821865812,2168.801,2978.05,2748.584,1038.604,-0.1098671,0.003474795,0.02394496,0.0582065545022488,-0.340852111577988,0.148002117872238,-0.123096124252221,-0.0529648233581361,0.0762023647937057,4
0.480003356933594,-0.0305266939103603,2.87013816833496,1.16074800491333,-0.0824098964715798,2.93035770425173,1.19387274182544,2167.886,2984.092,2732.816,1032.864,-0.1055416,0.003482036,0.03074973,0.0475815460085869,-0.353459358215332,0.157305657863617,-0.132856662250146,-0.057164510180779,0.0822446027733248,4
0.5,-0.0298035964369774,2.8628466129303,1.16405260562897,-0.085166398670376,2.92917165836334,1.1955791479969,2147.062,2989.273,2762.473,1009.579,-0.1022659,0.003568734,0.03679544,0.0361551903188229,-0.364583790302277,0.16522803902626,-0.142884000065179,-0.0614789935111996,0.0884520025491718,4
0.520004272460938,-0.0293243192136288,2.85535669326782,1.16749942302704,-0.088127196023106,2.92789770997757,1.19741202260058,2116.453,2992.95,2817.491,977.215,-0.09984138,0.003686419,0.04241352,0.0239637866616249,-0.37449437379837,0.17234106361866,-0.153174893518032,-0.065906877469682,0.0948225558197254,4
0.540000915527344,-0.029104083776474,2.8476881980896,1.17108619213104,-0.0912951145137283,2.92653464315245,1.19937311505516,2089.323,2991.374,2870.429,951.9924,-0.09782376,0.003777159,0.04785633,0.0110119935125113,-0.383425831794739,0.179341450333595,-0.163710711144578,-0.0704401454577151,0.101344728821151,4
0.560005187988281,-0.0291575603187084,2.83985805511475,1.17481637001038,-0.0946774438086223,2.9250793213482,1.20146693801139,2070.556,2989.704,2909.457,933.1936,-0.09579337,0.003795681,0.05329854,-0.0026740450412035,-0.391503512859344,0.186506435275078,-0.174488813605259,-0.0750776618412222,0.108016887676534,5
0.580001831054688,-0.0294990316033363,2.83188247680664,1.17869913578033,-0.0982762614093182,2.92353085067394,1.20369477754168,2064.029,2984.885,2921.259,932.7599,-0.09338694,0.00371742,0.05873503,-0.0170734990388155,-0.398784220218658,0.194136202335358,-0.185490414529404,-0.0798113433697334,0.11482740272751,5
0.599998474121094,-0.0301412232220173,2.82377791404724,1.18273949623108,-0.102097262171133,2.92188678079254,1.20606015903275,2066.54,2985.433,2913.527,936.3301,-0.09051125,0.00353831,0.06411785,-0.0321100726723671,-0.40523225069046,0.202019914984703,-0.196709126405959,-0.0846384416756885,0.121772319800455,5
0.620002746582031,-0.0310956090688705,2.81556177139282,1.18694233894348,-0.106146271928021,2.92014460501038,1.20856668895334,2074.115,2985.237,2886.488,954.6777,-0.08716739,0.003273389,0.06928773,-0.0477187372744083,-0.410809308290482,0.210144564509392,-0.208139001499973,-0.0895563976148993,0.128847956964108,5
0.639999389648438,-0.03237134963274,2.80725264549255,1.19130527973175,-0.110424235525481,2.91830391678686,1.21121495220784,2083.89,2992.965,2855.326,966.3248,-0.08359929,0.002940682,0.07415092,-0.0637870654463768,-0.41545832157135,0.218145340681076,-0.219761081350814,-0.0945570538913933,0.136042578028218,5
0.660003662109375,-0.0339759290218353,2.79886913299561,1.19582295417786,-0.114938248900541,2.91636166293851,1.21400934151928,2087.151,2998.486,2826.794,984.5069,-0.08000136,0.002567016,0.07860104,-0.0802287310361862,-0.419170916080475,0.225881069898605,-0.231574097577923,-0.0996398647564507,0.143355397804799,5
0.680000305175781,-0.0359150357544422,2.79042959213257,1.20048797130585,-0.119688496929273,2.91431776391831,1.21694997133476,2088.423,3007.496,2806.104,994.0062,-0.07660263,0.00216861,0.08260889,-0.0969565659761429,-0.421972036361694,0.233252361416817,-0.243559016194652,-0.104796640417365,0.150774633349401,6
0.700004577636719,-0.0381928868591785,2.78195118904114,1.20529127120972,-0.124682034788652,2.91216918408072,1.22004120914491,2082.774,3015.258,2798.372,999.4548,-0.07355012,0.001759063,0.08619819,-0.113892309367657,-0.423920512199402,0.240164026618004,-0.255715062526221,-0.110027047553219,0.158299805101433,6
0.720001220703125,-0.0408128015697002,2.7734489440918,1.21022748947144,-0.129918284978346,2.90991617190799,1.22328269744952,2075.386,3020.987,2796.567,1003.97,-0.0708731,0.001345563,0.08939843,-0.130995631217957,-0.425110727548599,0.246810749173164,-0.268023157655716,-0.11532287703907,0.16591910230247,6
0.739997863769531,-0.0437768585979939,2.76493644714355,1.21528923511505,-0.135402141159277,2.90755662179454,1.22667746565781,2065.867,3027.485,2805.688,999.1613,-0.06859877,0.0009275239,0.09230651,-0.148202463984489,-0.425628185272217,0.253085970878601,-0.280478211503383,-0.120681938755799,0.173629373950669,6
0.760002136230469,-0.0470870994031429,2.75642490386963,1.22047626972198,-0.14113868194985,2.90508834855275,1.23022865767651,2056.451,3028.499,2811.269,1004.376,-0.06658542,0.000509852,0.09493759,-0.16551262140274,-0.425579100847244,0.259349972009659,-0.293075466693575,-0.12610218573757,0.181427675003881,6
0.779998779296875,-0.0507444702088833,2.74792432785034,1.22578513622284,-0.147126184485884,2.90251209348295,1.23393520697061,2051.75,3034.597,2819.785,996.3874,-0.06484211,8.255782E-05,0.09738204,-0.182868137955666,-0.425031721591949,0.265443027019501,-0.305795832832518,-0.131575403921268,0.189302187598958,6
0.800003051757813,-0.0547498129308224,2.73944306373596,1.23121678829193,-0.153371683173492,2.89982482987671,1.2378014681726,2044.334,3033.775,2822.381,1004.46,-0.06321652,-0.0003451457,0.0996216,-0.200267627835274,-0.42406302690506,0.271580696105957,-0.318639638509124,-0.13710173468952,0.197253115148089,6
0.819999694824219,-0.059103187173605,2.73098874092102,1.23677039146423,-0.159872691993147,2.89702762739878,1.24182590231796,2043.951,3038.432,2822.221,1002.37,-0.06172462,-0.0007787083,0.1016868,-0.217667862772942,-0.422718912363052,0.277681082487106,-0.331587821991737,-0.142672976311719,0.205268657531342,6
0.840003967285156,-0.0638040155172348,2.72256779670715,1.24244523048401,-0.166636266402775,2.89411745028271,1.24601287707125,2040.985,3039.986,2819.341,1008.652,-0.06032806,-0.001211206,0.1035598,-0.235042035579681,-0.421045541763306,0.283743768930435,-0.344641102544584,-0.148289438267168,0.213349260007538,6
0.860000610351563,-0.0688512325286865,2.71418619155884,1.24824106693268,-0.173659158941841,2.89109569582005,1.2503603820997,2041.763,3043.817,2812.753,1012.643,-0.05905347,-0.001640507,0.105229,-0.25236177444458,-0.419083088636398,0.289794087409973,-0.357780475378537,-0.153942943326036,0.221483157706883,6
0.8800048828125,-0.0742427706718445,2.70584893226624,1.25415396690369,-0.180948461186242,2.88795931270381,1.25487280742661,2040.339,3047.737,2810.43,1014.197,-0.05795891,-0.002061287,0.1067078,-0.269575953483582,-0.416866093873978,0.295645207166672,-0.371007022483504,-0.159633957038354,0.229671020432672,6
0.900001525878906,-0.0799764692783356,2.69756007194519,1.26018452644348,-0.188500167066783,2.88471002463366,1.2595476731043,2039.578,3049.881,2803.337,1022.362,-0.05702787,-0.002465022,0.107962,-0.286684960126877,-0.414446234703064,0.301525563001633,-0.384301823631742,-0.165354338558695,0.237901135662636,7
0.919998168945313,-0.0860487669706345,2.68932294845581,1.26632559299469,-0.196318384305134,2.8813460641717,1.26438752200817,2038.512,3055.51,2807.568,1015.421,-0.05637752,-0.002855974,0.10906,-0.303615063428879,-0.41185599565506,0.307055085897446,-0.397661187980262,-0.171102499820431,0.246171218589148,7
0.94000244140625,-0.0924569368362427,2.68113970756531,1.27258014678955,-0.204407453948074,2.87786556348678,1.26939504145298,2034.783,3054.151,2803.359,1028.047,-0.05588004,-0.003215501,0.1099417,-0.320408821105957,-0.409161686897278,0.312726348638535,-0.411081631631503,-0.176876941799768,0.254479112513653,7
0.959999084472656,-0.0991965234279633,2.67301177978516,1.27894079685211,-0.212762239776093,2.87427073255068,1.27456705187416,2037.075,3061.92,2811.897,1011.792,-0.0557112,-0.003562244,0.1107217,-0.336978942155838,-0.406392335891724,0.318032145500183,-0.424544411524882,-0.18266959988136,0.262813214588797,7
0.980003356933594,-0.106264263391495,2.66493940353394,1.28541088104248,-0.221389982382338,2.87055845593844,1.2799080355438,2030.43,3057.494,2811.923,1026.842,-0.0556622,-0.003871171,0.111327,-0.353385895490646,-0.403616726398468,0.323502331972122,-0.438051398499298,-0.18848127903492,0.271174682952979,7
1,-0.113655343651772,2.65692234039307,1.29198467731476,-0.230284798736574,2.86673126495361,1.28541435058594,2034.524,3064.265,2821.993,1009.035,-0.0558875,-0.004163586,0.1118677,-0.369555443525314,-0.400857985019684,0.328691780567169,-0.451584000205995,-0.194303979492187,0.279552008056641,7
1.02000427246094,-0.121366277337074,2.6489589214325,1.29866623878479,-0.239454009753966,2.86278600961093,1.2910905289958,2029.649,3059.894,2822.962,1021.892,-0.05618844,-0.004418184,0.112275,-0.385547071695328,-0.398173689842224,0.33407524228096,-0.465144357597929,-0.200138622445408,0.287946515251652,7
1.04000091552734,-0.129392206668854,2.64104723930359,1.30545103549957,-0.24889099213045,2.8587255397331,1.29693247063265,2035.004,3065.781,2832.007,1005.367,-0.05670616,-0.004656271,0.1126419,-0.401295572519302,-0.395578444004059,0.339239656925201,-0.478714054341683,-0.205977283860805,0.296346803950333,7
1.06000518798828,-0.137729287147522,2.63318490982056,1.31234288215637,-0.258603157406353,2.85454666634136,1.30294476359303,2031.777,3061.8,2832.784,1016.851,-0.05726702,-0.00485654,0.1129018,-0.416854947805405,-0.393117189407349,0.344590842723846,-0.492295476531527,-0.211820990408084,0.304754351258706,7
1.08000183105469,-0.14637266099453,2.62536907196045,1.31933832168579,-0.268583149539609,2.85025255453512,1.30912285413647,2038.091,3067.108,2840.267,1002.138,-0.05800578,-0.005038701,0.1131305,-0.432169675827026,-0.390797197818756,0.349769592285156,-0.50587040849135,-0.217661904390701,0.313157880805523,7
1.09999847412109,-0.155318349599838,2.617595911026,1.32644021511078,-0.278834517009062,2.84584167750307,1.31546893894041,2036.164,3063.907,2841.706,1011.333,-0.05878449,-0.005184642,0.1132717,-0.447284042835236,-0.388653337955475,0.355094730854034,-0.519436284009554,-0.223498921639497,0.321555803983559,7
1.12000274658203,-0.16456139087677,2.6098620891571,1.33364546298981,-0.289361068555186,2.84131239645058,1.32198537579665,2041.786,3067.994,2849.879,998.4974,-0.0597118,-0.005309278,0.113389,-0.462152481079102,-0.386688500642776,0.360262215137482,-0.532990631455731,-0.229330978680957,0.329946590735853,8
1.13999938964844,-0.174097970128059,2.60216331481934,1.34095871448517,-0.300154365346813,2.83666834237095,1.3286669406667,2043.063,3066.317,2848.898,1006.121,-0.06067799,-0.00539876,0.1134265,-0.476828068494797,-0.384935706853867,0.365664213895798,-0.546515580872639,-0.235150386571708,0.338319178707607,8
1.16000366210938,-0.183922633528709,2.59449553489685,1.34837305545807,-0.311222084148811,2.83190621216671,1.33551838583369,2047.11,3070.438,2863.088,989.0361,-0.06182422,-0.0054696,0.1134798,-0.491234183311462,-0.38338640332222,0.370719194412231,-0.560014026276883,-0.240958390526247,0.34667535943296,8
1.18000030517578,-0.194032341241837,2.58685374259949,1.35589826107025,-0.322555076427271,2.82702994219644,1.34253404791935,2047.282,3065.559,2858.335,1005.99,-0.06292038,-0.005497297,0.1134316,-0.505485475063324,-0.382086008787155,0.376261502504349,-0.573468357077025,-0.246747413199059,0.355004231116904,8
1.20000457763672,-0.204421073198318,2.5792338848114,1.36352217197418,-0.334161138043845,2.82203617811866,1.3497187529334,2055.151,3073.812,2879.922,973.5336,-0.06426261,-0.00551807,0.1134638,-0.519436061382294,-0.380998849868774,0.381198197603226,-0.586881630238192,-0.252518769916838,0.363307686166476,8
1.22000122070313,-0.215086847543716,2.57163000106812,1.37126183509827,-0.346030421585499,2.81692915700008,1.35706640485806,2051.818,3063.686,2868.122,1007.668,-0.06542162,-0.005484514,0.1133564,-0.533290266990662,-0.380195528268814,0.386983513832092,-0.600236516861372,-0.258265004538453,0.371574997167698,8
1.23999786376953,-0.226022809743881,2.56403803825378,1.37909710407257,-0.358166167196084,2.81170748469733,1.36457900949675,2065.051,3077.926,2899.401,953.7062,-0.06692737,-0.005462144,0.1134129,-0.546797215938568,-0.379597961902618,0.39176544547081,-0.613531154887641,-0.263985315871967,0.379805011417393,8
1.26000213623047,-0.237228587269783,2.55645179748535,1.38705468177795,-0.370571882958536,2.80636965178032,1.3722587385199,2055.487,3059.82,2877.664,1013.574,-0.06805868,-0.005367335,0.1132629,-0.560288190841675,-0.379315406084061,0.397879928350449,-0.626763698705669,-0.269678909802388,0.38799658639423,8
1.27999877929688,-0.248696118593216,2.54886746406555,1.39510560035706,-0.383236695417198,2.80092033679326,1.3800988607405,2078.965,3083.868,2917.509,930.2061,-0.0696896,-0.005310876,0.1133699,-0.573376774787903,-0.379214346408844,0.402544677257538,-0.639917282339435,-0.275338529371412,0.396139281255613,8
1.30000305175781,-0.260426700115204,2.54127836227417,1.40328562259674,-0.396168722856641,2.79535604666509,1.38810440176341,2059.729,3056.208,2885.694,1020.817,-0.07076178,-0.005161739,0.1131949,-0.586530148983002,-0.379454433917999,0.408998966217041,-0.652995275331231,-0.280965624398954,0.404235181908735,8
1.31999969482422,-0.272410988807678,2.53368163108826,1.41155481338501,-0.409356423791328,2.7896817473746,1.39626821685929,2091.723,3089.028,2938.153,906.5699,-0.07248911,-0.005074387,0.1133728,-0.599215030670166,-0.379836469888687,0.413457244634628,-0.665981146317813,-0.286553081901244,0.412274054652251,8
1.34000396728516,-0.284652560949326,2.52606987953186,1.41996264457703,-0.422808053134535,2.78389388706324,1.40459541621271,2064.574,3051.639,2890.806,1032.183,-0.07342921,-0.004871454,0.1131627,-0.612075865268707,-0.380588889122009,0.420389205217361,-0.678878353700697,-0.292102389931837,0.420258040401443,8
1.36000061035156,-0.297139704227448,2.51844143867493,1.42845261096954,-0.436511415158101,2.77799771321212,1.41307845008695,2106.859,3096.711,2961.916,874.9496,-0.07527212,-0.00476546,0.1134462,-0.624360680580139,-0.381420135498047,0.424496740102768,-0.691670720740693,-0.297606588091785,0.42817712498415,9
1.3800048828125,-0.309879332780838,2.51078820228577,1.43709433078766,-0.450474904562636,2.77198961381608,1.4217225152016,2067.257,3044.503,2891.574,1053.297,-0.07599756,-0.004507134,0.1131796,-0.636980712413788,-0.38266733288765,0.432086259126663,-0.704361775018035,-0.303067194200314,0.436033492140578,9
1.40000152587891,-0.322856456041336,2.50311017036438,1.44580662250519,-0.464685685951852,2.76587511158757,1.43051966583492,2124.818,3107.687,2990.546,831.9443,-0.07800186,-0.004395814,0.1136126,-0.648857176303864,-0.383899033069611,0.43561640381813,-0.716935713767318,-0.308477408768949,0.443817359206152,9
1.41999816894531,-0.336082488298416,2.4953978061676,1.45468926429749,-0.47914673136562,2.75965292774086,1.43947174182117,2066.435,3033.398,2885.913,1088.947,-0.0784008,-0.004077299,0.1132508,-0.661301016807556,-0.385620653629303,0.444130808115005,-0.729391385793766,-0.313836736470737,0.451528013536465,9
1.44000244140625,-0.349537193775177,2.48765420913696,1.46362340450287,-0.493861275572861,2.75332167044526,1.4485807456364,2146,3123.098,3028.044,771.4216,-0.08064211,-0.003978763,0.113897,-0.67273873090744,-0.387184530496597,0.44670507311821,-0.741727567798258,-0.319144650954242,0.459164697851088,9
1.45999908447266,-0.363239347934723,2.47986674308777,1.47275710105896,-0.508815552717244,2.74688726276417,1.45783815555978,2061.89,3016.715,2866.293,1148.776,-0.08053985,-0.003588876,0.1133607,-0.685107529163361,-0.389368057250977,0.456683278083801,-0.753929052770513,-0.324394609067776,0.466717998286247,9
1.48000335693359,-0.377159923315048,2.47204327583313,1.48190975189209,-0.524018315758597,2.74034593854351,1.46724939009041,2174.652,3148.329,3078.616,678.5236,-0.08322165,-0.003534547,0.1143311,-0.696029007434845,-0.391172766685486,0.457631260156631,-0.765999459475408,-0.329588167864767,0.474190155029787,9
1.5,-0.391329020261765,2.46416687965393,1.49130499362946,-0.539455198877605,2.73370387899399,1.4768055561018,2044.378,2987.563,2830.613,1251.312,-0.08235133,-0.003043993,0.1134974,-0.70845228433609,-0.393817663192749,0.469763904809952,-0.777924000354858,-0.334718964672088,0.481572013878822,9
1.52000427246094,-0.405703991651535,2.45625185966492,1.50066959857941,-0.555135099954955,2.72695725560613,1.48651216180595,2215.43,3187.026,3147.799,538.836,-0.08572343,-0.003072755,0.1149343,-0.718749761581421,-0.395749568939209,0.468229323625565,-0.789706299681991,-0.339788558913217,0.48886581843107,9
1.54000091552734,-0.420332103967667,2.44827437400818,1.51034104824066,-0.571043070329722,2.72011250037111,1.49635995326965,2012.58,2943.856,2769.072,1410.265,-0.08372819,-0.002443184,0.1136315,-0.731408059597015,-0.398874580860138,0.483570754528046,-0.801332006385301,-0.344790775723006,0.496062684689629,9
1.55999755859375,-0.435150116682053,2.44025874137878,1.51990556716919,-0.587181951496087,2.71316839067337,1.50635068951315,2271.695,3245.229,3245.101,332.0416,-0.08819005,-0.002607767,0.115754,-0.740900993347168,-0.400786608457565,0.478223919868469,-0.812800388649436,-0.349725300221754,0.503162159625937,9
1.58000183105469,-0.4502312541008,2.43216991424561,1.52987253665924,-0.60355483331529,2.70612359703193,1.51648628330776,1957.045,2877.33,2669.573,1656.43,-0.08452447,-0.001770469,0.1137229,-0.754057765007019,-0.404446363449097,0.498345911502838,-0.824110582941666,-0.354591760855452,0.510163708672098,9
1.59999847412109,-0.465480834245682,2.42404699325562,1.53961837291718,-0.620145926473056,2.69898491314762,1.52675696031579,2353.219,3333.938,3381.586,24.68528,-0.09067318,-0.002143845,0.1168539,-0.762477934360504,-0.406150102615356,0.487290650606155,-0.835248923368005,-0.359384277571697,0.517058871988737,9
1.62000274658203,-0.481011182069778,2.41583776473999,1.54990899562836,-0.636964489205914,2.69174835545992,1.53716845182668,1867.377,2779.776,2511.195,2030.854,-0.08458146,-0.0009938917,0.1137221,-0.776519417762756,-0.41045817732811,0.51453024148941,-0.846218976345106,-0.364104384899943,0.523849857357655,9
1.63999938964844,-0.496698141098022,2.40759038925171,1.55996191501617,-0.653994195024907,2.68442094880091,1.54771065096602,2126.847,3721.197,3245.2,0,-0.09048995,-0.0002716424,0.1189865,-0.784346640110016,-0.412372887134552,0.502644598484039,-0.857007552155828,-0.368746407673381,0.530528499715628,9
1.66000366210938,-0.512660801410675,2.39925932884216,1.5705224275589,-0.671244443874359,2.67699864863716,1.55838937674714,1963.613,2574.019,2443.109,2210.995,-0.08367279,0.001883519,0.1154624,-0.798135280609131,-0.416552871465683,0.528024554252625,-0.867618167158098,-0.373311858882592,0.53709697585572,9
1.68000030517578,-0.528773665428162,2.39089727401733,1.58081424236298,-0.688698391434734,2.66948870260877,1.56919420173384,2213.373,3647.684,3242.677,0,-0.08946783,0.003392915,0.1195202,-0.805639743804932,-0.418107211589813,0.514589309692383,-0.878038122530658,-0.377795274579551,0.543547424602645,9
1.70000457763672,-0.545153498649597,2.3824622631073,1.5915914773941,-0.706365577065784,2.66188700619576,1.58013103124422,2060.972,2533.906,2491.432,2117.745,-0.08338464,0.006006476,0.1146143,-0.818996071815491,-0.421752452850342,0.538859009742737,-0.888270870184447,-0.382198140025102,0.549881982853708,9
1.72000122070313,-0.561677813529968,2.37399959564209,1.60213458538055,-0.724228658537036,2.6542010212754,1.5911891296115,2186.273,3710.781,3219.252,0,-0.08972988,0.008069826,0.1177448,-0.826215803623199,-0.42313426733017,0.527153611183167,-0.898304216251578,-0.386515208538549,0.556093102023817,9
1.73999786376953,-0.578445076942444,2.36547183990479,1.61307668685913,-0.742290383213093,2.64642956573347,1.60237019758524,2133.016,2524.593,2645.278,1898.045,-0.08591411,0.0108156,0.1127202,-0.83836030960083,-0.426387697458267,0.547103524208069,-0.908137821269591,-0.39074633405868,0.562180571969536,9
1.76000213623047,-0.595350384712219,2.35691523551941,1.6238089799881,-0.76055371708895,2.63857136338517,1.61367607125764,2253.906,3549.796,3324.328,0,-0.09284206,0.01273235,0.1145831,-0.84526664018631,-0.427832782268524,0.536613464355469,-0.917771149318994,-0.394891285994308,0.568144060931169,9
1.77999877929688,-0.612481236457825,2.34828948974609,1.63491129875183,-0.779000609654483,2.63063418086074,1.62509557650306,2137.489,2592.667,2808.342,1664.474,-0.09044202,0.01506625,0.109914,-0.856543242931366,-0.431283503770828,0.555117726325989,-0.927192788821983,-0.398945154262308,0.57397650459845,9
1.80000305175781,-0.629745543003082,2.33962416648865,1.64584696292877,-0.797640935141499,2.62261376955408,1.63663482594136,2244.752,3498.223,3392.097,0,-0.0971878,0.0165455,0.1119337,-0.863216876983643,-0.433267772197723,0.5467848777771,-0.936405971974637,-0.402909329586356,0.579679903854719,9
1.81999969482422,-0.647223114967346,2.33087825775146,1.65713584423065,-0.816456197270346,2.61451808789761,1.64828236949435,2122.997,2636.821,2900.422,1539.947,-0.09490281,0.01834437,0.108417,-0.873882651329041,-0.437294036149979,0.564443230628967,-0.945399824400851,-0.406779133026206,0.585247526943151,9
1.84000396728516,-0.66483062505722,2.32208228111267,1.66827201843262,-0.835456397410825,2.6063428325813,1.66004439848636,2290.135,3401.829,3445.478,0,-0.1007761,0.01913954,0.1108884,-0.880371630191803,-0.439803034067154,0.556811511516571,-0.95417746870157,-0.410555908149813,0.59068130690248,9
1.86000061035156,-0.682649850845337,2.31319379806519,1.67978930473328,-0.854622615239374,2.59809614449182,1.6719092003358,2093.428,2681.43,2883.969,1543.779,-0.09724959,0.02035663,0.108184,-0.890962421894073,-0.444426953792572,0.57586270570755,-0.962728579444532,-0.414235212212131,0.595974851798267,9
1.8800048828125,-0.700594246387482,2.30424928665161,1.69115328788757,-0.873964974649439,2.58977366760063,1.68388304221498,2292.066,3426.727,3416.862,0,-0.1021445,0.02062536,0.1115929,-0.897222816944122,-0.4472316801548,0.568199813365936,-0.971056158224177,-0.417818336715394,0.601130019760457,9
1.90000152587891,-0.718751311302185,2.29520726203918,1.70292007923126,-0.893464153455626,2.58138371570432,1.69595396277071,2072.614,2684.872,2796.956,1649.583,-0.09718567,0.02151442,0.1093609,-0.90785014629364,-0.452100962400436,0.588337242603302,-0.979150439632688,-0.421301079877433,0.606140765536421,9
1.91999816894531,-0.737027287483215,2.28611183166504,1.71450650691986,-0.913122862707269,2.57292512231409,1.70812364027167,2302.856,3455.485,3374.803,0,-0.101532,0.02149422,0.1133329,-0.913800656795502,-0.454761385917664,0.579318881034851,-0.987011339258123,-0.424683405378145,0.611007036871143,9
1.94000244140625,-0.755518019199371,2.27692294120789,1.72651600837708,-0.932943991899774,2.5643966441608,1.72039386345315,2055.147,2670.31,2703.631,1779.605,-0.09547272,0.02229717,0.1109517,-0.924534022808075,-0.4594586789608,0.600477874279022,-0.994638524886308,-0.427965170275055,0.615728628108227,9
1.95999908447266,-0.774121582508087,2.2676887512207,1.73832142353058,-0.952907658613767,2.55580683609405,1.73275232415044,2282.263,3528.105,3322.077,0,-0.09971567,0.02230485,0.1152404,-0.930178821086884,-0.461713403463364,0.590273261070251,-1.00202309041976,-0.431142542523221,0.620300025949072,9
1.98000335693359,-0.792938351631165,2.2583703994751,1.75054597854614,-0.973024270010337,2.54715122020317,1.74520546489201,2056.042,2637.853,2652.84,1864.943,-0.09333634,0.02322801,0.1125265,-0.940835297107697,-0.465902596712112,0.611229121685028,-1.00916768936771,-0.434216663853535,0.624722873042297,9
2,-0.811862468719482,2.24901843070984,1.76254618167877,-0.993273599084619,2.53843849960327,1.7577407641983,2273.901,3551.921,3308.046,0,-0.09773801,0.02337897,0.1166382,-0.946210563182831,-0.46760618686676,0.600008845329285,-1.01606400046349,-0.437183953857422,0.628992018127441,9
2.02000427246094,-0.83099627494812,2.23959493637085,1.77495801448822,-1.01366615605493,2.52966415204104,1.77036472839513,2064.615,2616.841,2649.683,1883.157,-0.09146786,0.02443389,0.1134916,-0.956694900989532,-0.471180468797684,0.620589315891266,-1.02271452148052,-0.440045487257004,0.633109007445237,9
2.04000091552734,-0.850233197212219,2.23014736175537,1.78714156150818,-1.0341813929022,2.52083701875502,1.78306463727984,2256.621,3571.634,3306.728,0,-0.09601708,0.02474078,0.1173517,-0.961842954158783,-0.472382336854935,0.609177708625793,-1.02911152474823,-0.442797939051516,0.637069057199471,9
2.05999755859375,-0.869672954082489,2.22063994407654,1.79971957206726,-1.05482201812353,2.5119559343546,1.79584216754118,2078.531,2603.832,2676.815,1853.059,-0.09008036,0.02586982,0.1139811,-0.971991002559662,-0.475369513034821,0.628898739814758,-1.03525504859546,-0.445441325732794,0.640872191117535,9
2.08000183105469,-0.889211058616638,2.21111726760864,1.81206941604614,-1.07559088172821,2.50301967256038,1.80869908347065,2258.59,3549.466,3325.444,0,-0.09464768,0.02619903,0.1174912,-0.976903796195984,-0.476133227348328,0.617492616176605,-1.04114485287423,-0.447975543971863,0.644518260536375,9
2.09999847412109,-0.908945024013519,2.20154428482056,1.82480597496033,-1.09646699912883,2.4940372624541,1.82162239460902,2086.772,2609.535,2701.383,1809.604,-0.08890004,0.02727246,0.1139974,-0.986699342727661,-0.478648751974106,0.636827051639557,-1.04677411523768,-0.450397658303471,0.648003042098304,9
2.12000274658203,-0.928771376609802,2.1919629573822,1.83731615543365,-1.11746110947495,2.48500408327971,1.83461874900143,2251.692,3541.831,3333.947,0,-0.0933912,0.02752865,0.1173777,-0.991320252418518,-0.479065239429474,0.625511288642883,-1.05214490868305,-0.452708560680417,0.651327819087362,9
2.13999938964844,-0.948785841464996,2.18233919143677,1.85020542144775,-1.138551967509,2.47592927627801,1.8476749948214,2084.791,2613.575,2711.731,1788.016,-0.08763238,0.02849533,0.113903,-1.00072157382965,-0.481194019317627,0.64446359872818,-1.05725102347782,-0.454905579228273,0.654488747383304,8
2.16000366210938,-0.968885660171509,2.1727135181427,1.86286449432373,-1.15975039167652,2.46680818657414,1.86079782920208,2253.606,3526.706,3337.351,0,-0.09196534,0.02860809,0.1172137,-1.00499451160431,-0.481282532215118,0.632953584194183,-1.0620943502576,-0.456989527434725,0.657486997379635,8
2.18000030517578,-0.989166140556335,2.16305232048035,1.875901222229,-1.18103490068612,2.45765005696766,1.87397395420079,2075.96,2619.522,2702.121,1789.472,-0.08600146,0.02944001,0.1137346,-1.01402497291565,-0.483055919408798,0.651836156845093,-1.06666929835407,-0.458957999791384,0.660319108186354,8
2.20000457763672,-1.00952398777008,2.15339612960815,1.88869941234589,-1.20241638486008,2.44845020165711,1.88721011144582,2246.813,3530.01,3327.964,0,-0.09018955,0.02941579,0.1170882,-1.01789164543152,-0.482807576656342,0.63991117477417,-1.07097756992209,-0.460811728687929,0.662986133518392,7
2.22000122070313,-1.03005480766296,2.14371204376221,1.90187406539917,-1.22387315175433,2.43921795429519,1.90049287228091,2064.333,2618.154,2678.142,1813.535,-0.08395828,0.03014635,0.1135692,-1.02654123306274,-0.484206944704056,0.65873247385025,-1.07501419914593,-0.462548577472581,0.665484999299265,7
2.23999786376953,-1.05065393447876,2.13404035568237,1.91479671001434,-1.24540792547886,2.42995214277345,1.91382392305993,2238.792,3536.798,3314.404,0,-0.08806221,0.03002307,0.116953,-1.02995586395264,-0.483583182096481,0.646131753921509,-1.07877930973132,-0.464168599372462,0.667815782108711,5
2.26000213623047,-1.07141816616058,2.12434911727905,1.92809402942657,-1.26702351885107,2.42065155681516,1.92720500505083,2051.4,2611.1,2651.031,1846.775,-0.08156943,0.03069691,0.1133081,-1.03820848464966,-0.484565705060959,0.66486781835556,-1.08227271937422,-0.465671715947234,0.669978369091845,5
2.27999877929688,-1.09224128723145,2.11467814445496,1.94112706184387,-1.28869796983554,2.41132564607061,1.9406225227075,2229.46,3549.752,3295.075,0,-0.08564833,0.03052446,0.1166732,-1.04115784168243,-0.483543425798416,0.65165239572525,-1.08549040888332,-0.467056197851165,0.67197027217779,2
2.30000305175781,-1.11322021484375,2.10499668121338,1.95452785491943,-1.31044231452835,2.40196966201596,1.95408330789913,2041.963,2602.172,2629.208,1871.585,-0.07905328,0.03117042,0.1128736,-1.04894649982452,-0.484070390462875,0.670038640499115,-1.08843358680109,-0.468322565086307,0.673792239511894,0
2.31999969482422,-1.13424825668335,2.09534382820129,1.96765041351318,-1.33223444283894,2.39259311800549,1.96757367342642,2221.757,3551.282,3284.826,0,-0.08317371,0.03096087,0.1161246,-1.05140471458435,-0.482636243104935,0.65612930059433,-1.09109887036509,-0.469469362144493,0.675442177003072,0
2.34000396728516,-1.15542232990265,2.08568954467773,1.98113596439362,-1.35408543512393,2.38319124647132,1.98110047855794,2032.288,2595.757,2612.203,1888.772,-0.07652753,0.03157901,0.1121321,-1.05870628356934,-0.482716470956802,0.674278497695923,-1.09348726343002,-0.470497020956358,0.676920706085208,0
2.36000061035156,-1.17663538455963,2.07607173919678,1.9943323135376,-1.37597305876702,2.37377361348711,1.99464996024512,2206.925,3560.25,3273.213,0,-0.08070337,0.03135137,0.1153048,-1.06065618991852,-0.480901896953583,0.659816086292267,-1.09559602313537,-0.471404361345641,0.678226128796969,0
2.37999725341797,-1.19798374176025,2.06646060943604,2.00788402557373,-1.39790005743958,2.36433903852774,2.00822381695123,2023.695,2586.97,2599.141,1901.599,-0.07404653,0.03194855,0.1111628,-1.06741714477539,-0.480562120676041,0.677589416503906,-1.09742530100382,-0.472191448508328,0.679358538938131,0
2.40000152587891,-1.21936058998108,2.05689287185669,2.02113461494446,-1.4198692197338,2.35488632173988,2.02182377494768,2196.51,3558.12,3267.205,0,-0.07825486,0.03169115,0.1142222,-1.0688384771347,-0.478391170501709,0.662532567977905,-1.09897493039424,-0.472858210743393,0.680317833349887,0
2.41999816894531,-1.24086153507233,2.04733943939209,2.03473782539368,-1.44185817738692,2.34542508756209,2.03543598721428,2016.171,2581.404,2582.11,1913.488,-0.07154955,0.03225203,0.1099128,-1.07505595684052,-0.47767162322998,0.680158495903015,-1.10024313330221,-0.473403883025206,0.681102911362803,0
2.44000244140625,-1.26238000392914,2.03783583641052,2.04802846908569,-1.46387808506052,2.33595053645515,2.04906735901791,2179.728,3566.772,3255.331,0,-0.07580528,0.03197316,0.1129284,-1.07592225074768,-0.47518315911293,0.664536774158478,-1.10123038958312,-0.473828671822132,0.681714070030222,0
2.45999908447266,-1.28401112556458,2.02835369110107,2.06166529655457,-1.48590651627916,2.32647231790489,2.06270400730194,2006.27,2570.892,2566.159,1930.071,-0.06904671,0.03251086,0.1084826,-1.08155107498169,-0.474112212657928,0.681839227676392,-1.10193556692257,-0.474132089930926,0.682150608395601,0
2.48000335693359,-1.30564820766449,2.01892709732056,2.07497835159302,-1.50795464064698,2.31698562594271,2.07635284658344,2170.618,3566.049,3244.518,0,-0.07332961,0.03220133,0.1113994,-1.08185482025146,-0.471326529979706,0.665657997131348,-1.10235893238473,-0.47431425226183,0.68241269178437,0
2.5,-1.32738554477692,2.00952863693237,2.08863139152527,-1.52999999932945,2.30750012397766,2.08999997377396,1996.659,2563.999,2551.064,1941.288,-0.06654014,0.03270032,0.1068095,-1.08686995506287,-0.469925493001938,0.682649970054626,-1.10250000050292,-0.474374949932098,0.682500019669533,0
2.52000427246094,-1.34911751747131,2.00019121170044,2.10195064544678,-1.55205376834272,2.29801100328223,2.10365230735988,2160.251,3567.035,3232.594,0,-0.07086831,0.03234905,0.1096352,-1.08659851551056,-0.466869294643402,0.665959596633911,-1.10235882472314,-0.474314205938057,0.682412625136718,0
2.54000091552734,-1.37093698978424,1.99088776111603,2.11560249328613,-1.57409348237975,2.28852793005043,2.11729594024597,1985.357,2558.161,2536.983,1951.317,-0.06407725,0.03279888,0.1049301,-1.09097075462341,-0.46516814827919,0.682593762874603,-1.10193556692257,-0.474132089930926,0.682150608395601,0
2.55999755859375,-1.39273905754089,1.98165035247803,2.12891006469727,-1.59612191359838,2.27904971150017,2.13093258853001,2151.303,3564.128,3222.632,0,-0.06846029,0.03239056,0.1076669,-1.09011399745941,-0.461869299411774,0.665379762649536,-1.10123038958312,-0.473828671822132,0.681714070030222,0
2.58000183105469,-1.41461586952209,1.97245228290558,2.14254355430603,-1.61814182127198,2.26957516039323,2.14456396033363,1970.764,2553.297,2524.436,1961.799,-0.06164579,0.03278095,0.1028688,-1.09383249282837,-0.459901005029678,0.681677877902985,-1.10024313330221,-0.473403883025206,0.681102911362804,0
2.59999847412109,-1.43646383285522,1.96332454681396,2.15582466125488,-1.64013077892511,2.26011392621545,2.15817617260023,2144.828,3561.726,3209.503,0,-0.0660661,0.03230184,0.1055294,-1.0923992395401,-0.456390082836151,0.664061546325684,-1.09897493039424,-0.472858210743393,0.680317833349887,0
2.62000274658203,-1.45837259292603,1.9542407989502,2.16942381858826,-1.66209994121933,2.25066120942759,2.17177613059669,1955.647,2550.7,2511.908,1969.983,-0.059258,0.0326192,0.1006781,-1.09544694423676,-0.454182654619217,0.679954469203949,-1.09742530100382,-0.472191448508328,0.679358538938131,0
2.63999938964844,-1.48024117946625,1.94523119926453,2.18266034126282,-1.68402693989188,2.24122663446822,2.18534998730279,2139.693,3552.313,3201.796,0,-0.063714,0.03204823,0.1032601,-1.09343063831329,-0.450478583574295,0.661822378635406,-1.09559602313537,-0.471404361345641,0.67822612879697,0
2.66000366210938,-1.50215816497803,1.93626999855042,2.19621181488037,-1.70592290617745,2.23180541187802,2.19890463348308,1938.053,2550.123,2494.581,1983.975,-0.05683505,0.03228163,0.09834523,-1.09583818912506,-0.448065102100372,0.677574753761292,-1.09348640563071,-0.470496651869278,0.67692017506657,0
2.68000030517578,-1.5240226984024,1.92738604545593,2.20939064025879,-1.72776555581996,2.22240712994983,2.2124262741215,2127.362,3554.826,3188.919,0,-0.06131342,0.03163397,0.1009357,-1.09323906898499,-0.444190710783005,0.658938944339752,-1.09109887036509,-0.469469362144494,0.675442177003072,0
2.70000457763672,-1.54592299461365,1.91855442523956,2.22288155555725,-1.74956598821573,2.2130270129235,2.22592178027309,1920.943,2544.719,2472.696,2006.562,-0.05431943,0.03180496,0.09597062,-1.09501421451569,-0.441585093736649,0.674542009830475,-1.08843251702753,-0.468322104792631,0.6737915772711,0
2.72000122070313,-1.56775999069214,1.90980339050293,2.23598790168762,-1.77130202882336,2.20367460188472,2.23937742484041,2118.339,3554.305,3175.612,0,-0.05881165,0.0310945,0.09855068,-1.09183788299561,-0.437540411949158,0.655316650867462,-1.08549040888332,-0.467056197851165,0.671970272177789,0
2.73999786376953,-1.58961987495422,1.90110874176025,2.24940466880798,-1.79297647980783,2.19434869114016,2.25279494249708,1904.631,2538.302,2448.494,2031.975,-0.0516829,0.03121768,0.0934922,-1.09299325942993,-0.434739291667938,0.670835018157959,-1.08227271937422,-0.465671715947234,0.669978369091845,0
2.76000213623047,-1.61140465736389,1.892498254776,2.2624249458313,-1.81459207318004,2.18504810518187,2.26617602448799,2105.686,3558.807,3160.821,0,-0.05619643,0.03047046,0.09606281,-1.08924269676208,-0.430521756410599,0.651012599468231,-1.07877930973132,-0.464168599372462,0.667815782108711,0
2.77999877929688,-1.63320004940033,1.88394808769226,2.27575469017029,-1.83612684690458,2.17578229366013,2.27950707526701,1892.303,2530.395,2421.502,2057.647,-0.04896381,0.03056254,0.0908835,-1.08977925777435,-0.427520930767059,0.666489720344543,-1.07501419914593,-0.462548577472581,0.665484999299265,0
2.80000305175781,-1.65490937232971,1.87548542022705,2.28867530822754,-1.85759178470316,2.16654653058634,2.29279489428112,2091.445,3565.543,3145.167,0,-0.05355404,0.02980185,0.09343689,-1.0854526758194,-0.423133820295334,0.646033883094788,-1.07097597819164,-0.460811043810786,0.662985148161422,0
2.81999969482422,-1.6766163110733,1.86708641052246,2.30190181732178,-1.87896509797278,2.15735019098767,2.30602599334712,1878.218,2519.278,2400.33,2082.253,-0.04625911,0.02988321,0.08812814,-1.08535206317902,-0.419936060905457,0.661325514316559,-1.06666929835407,-0.458957999791384,0.660319108186353,0
2.84000396728516,-1.69822573661804,1.85877871513367,2.31470918655396,-1.90025771011236,2.14818857483073,2.3192071345693,2080.67,3567.899,3130.864,0,-0.05091858,0.02911805,0.09061606,-1.08046615123749,-0.415390610694885,0.640364110469818,-1.06209255378819,-0.456988754464129,0.657485885279497,0
2.86000061035156,-1.71982002258301,1.85053849220276,2.32781648635864,-1.9214480311499,2.13907097167731,2.33232495272651,1866.315,2511.246,2385.282,2095.234,-0.04363483,0.02918036,0.08519841,-1.07970666885376,-0.412006616592407,0.655369818210602,-1.05725102347782,-0.454905579228273,0.654488747383304,0
2.87999725341797,-1.74130547046661,1.84239196777344,2.34049606323242,-1.94253888918396,2.12999616467562,2.34538119854648,2072.997,3563.652,3120.244,0,-0.04837099,0.02839031,0.08759248,-1.0742712020874,-0.407323062419891,0.633977830410004,-1.05214490868305,-0.452708560680416,0.651327819087361,0
2.90000152587891,-1.76276218891144,1.83431649208069,2.35346961021423,-1.96353299953007,2.12096298550123,2.3583775529389,1851.379,2507.028,2375.126,2102.407,-0.04111281,0.02841137,0.08210503,-1.07284319400787,-0.403780281543732,0.64868038892746,-1.04677411523767,-0.450397658303471,0.648003042098304,0
2.91999816894531,-1.784099817276,1.82633662223816,2.36600971221924,-1.98440911693069,2.11198057539494,2.37130086407726,2068.814,3557.03,3108.629,0,-0.04590757,0.02756605,0.08441506,-1.06687569618225,-0.398986995220184,0.627008616924286,-1.04114485287423,-0.447975543971863,0.644518260536375,0
2.94000244140625,-1.80539524555206,1.81843042373657,2.37883710861206,-2.00517798053537,2.10304431360073,2.38415778000673,1834.466,2507.192,2365.614,2106.192,-0.03869626,0.02751905,0.07891922,-1.06477701663971,-0.395317405462265,0.641372621059418,-1.03525504859546,-0.445441325732794,0.640872191117535,0
2.95999908447266,-1.82656097412109,1.81062173843384,2.39122343063354,-2.02581860575671,2.0941632292003,2.39693531026807,2065.622,3543.621,3102.653,0,-0.04353416,0.02658429,0.08116714,-1.05828464031219,-0.390436917543411,0.619312584400177,-1.02911152474823,-0.442797939051516,0.637069057199471,0
2.98000335693359,-1.8476722240448,1.80288815498352,2.40389633178711,-2.04634164528706,2.08533273863774,2.40964004938531,1814.344,2509.583,2349.759,2118.015,-0.03626213,0.0264491,0.07566967,-1.05555868148804,-0.38667169213295,0.633640110492706,-1.02271203275434,-0.440044416427654,0.633107466805174,0
3,-1.86864304542542,1.79525399208069,2.41611981391907,-2.06672639957428,2.07656174835205,2.42225918334961,2055.47,3542.608,3090.838,0,-0.04111441,0.02543284,0.07796178,-1.04855525493622,-0.38171860575676,0.611177086830139,-1.01606400046349,-0.437183953857422,0.628992018127441,0
3.02000427246094,-1.88954758644104,1.78769683837891,2.42862987518311,-2.0869834279768,2.06784571494631,2.43479924890685,1794.49,2506.524,2326.87,2141.959,-0.03370337,0.02522987,0.07247411,-1.04523348808289,-0.377861052751541,0.625498294830322,-1.00916501115878,-0.434215511495054,0.624721215103391,0
3.04000091552734,-1.91030263900757,1.7802402973175,2.44068002700806,-2.10709234004513,2.05919341186127,2.44724762339747,2048.468,3540.044,3077.302,0,-0.03855512,0.0241487,0.07479756,-1.03773999214172,-0.372822701931,0.602512359619141,-1.00202309041976,-0.43114254252322,0.620300025949072,0
3.05999755859375,-1.93097960948944,1.77286314964294,2.45301795005798,-2.12705600675913,2.05060360379452,2.45960608409476,1775.973,2501.521,2300.102,2170.859,-0.03097469,0.02389647,0.06926354,-1.03385090827942,-0.368851095438004,0.616894900798798,-0.994638524886308,-0.427965170275055,0.615728628108227,0
3.08000183105469,-1.95149707794189,1.76558923721313,2.46488523483276,-2.14687713595163,2.04207512564123,2.47187630727625,2037.977,3543.424,3061.359,0,-0.03583922,0.02278195,0.07161052,-1.02588260173798,-0.363708317279816,0.593360126018524,-0.987011339258122,-0.424683405378145,0.611007036871143,0
3.09999847412109,-1.97192597389221,1.75839698314667,2.47704148292542,-2.16653584520328,2.033616532251,2.4840459847772,1762.036,2494.416,2271.088,2199.617,-0.0281363,0.02250301,0.06598921,-1.02143585681915,-0.359598904848099,0.607810020446777,-0.979150439632689,-0.421301079877433,0.606140765536421,0
3.12000274658203,-1.99218583106995,1.75131011009216,2.48871517181396,-2.18604243256806,2.0252233926589,2.49612149158362,2026.053,3548.401,3045.245,0,-0.03307859,0.02138288,0.06833463,-1.01300203800201,-0.354341596364975,0.58368581533432,-0.971053025860989,-0.417816988947023,0.601128080678429,0
3.13999938964844,-2.01234579086304,1.74430823326111,2.50067639350891,-2.20537738341953,2.01690410346351,2.50809074721212,1746.808,2484.863,2248.609,2225.541,-0.02531548,0.0210999,0.0626111,-1.00798988342285,-0.350087404251099,0.598056197166443,-0.962728579444533,-0.414235212212131,0.595974851798267,0
3.16000366210938,-2.03232765197754,1.73741400241852,2.51214599609375,-2.22455088103183,2.00865428308644,2.51996005559448,2016.832,3549.419,3030.982,0,-0.0303398,0.01998644,0.06490614,-0.999109864234924,-0.344721108675003,0.573474586009979,-0.954174163352092,-0.410554485950274,0.590679260733698,0
3.18000030517578,-2.05219793319702,1.73060727119446,2.52389907836914,-2.24354380138856,2.00048216005771,2.53171757805356,1733.293,2478.424,2233.052,2239.594,-0.02259745,0.01969524,0.05910372,-0.993519723415375,-0.340330839157104,0.587654709815979,-0.94539982440085,-0.406779133026206,0.58524752694315,0
3.19999694824219,-2.0718822479248,1.72390985488892,2.53515291213989,-2.2623590635174,1.99238647840124,2.54336512160655,2010.519,3543.625,3020.979,0,-0.02771072,0.01857076,0.06132233,-0.984207093715668,-0.334874540567398,0.56269508600235,-0.936405971974636,-0.402909329586355,0.579679903854719,0
3.22000122070313,-2.09144306182861,1.71730220317841,2.54668664932251,-2.28099938900442,1.98436606709459,2.55490437104486,1716.898,2475.916,2222.162,2247.964,-0.01999821,0.01825146,0.05548147,-0.978038370609283,-0.330375015735626,0.576684713363647,-0.927192788821982,-0.398945154262308,0.573976504598449,0
3.23999786376953,-2.11080932617188,1.71080541610718,2.55771636962891,-2.29944628156995,1.97642888457015,2.56632387629027,2007.07,3535.753,3010.402,0,-0.02517753,0.01708889,0.05763921,-0.968311727046967,-0.324853211641312,0.551480710506439,-0.917771149318993,-0.394891285994308,0.568144060931169,0
3.26000213623047,-2.13004064559937,1.70439958572388,2.56902194023132,-2.31770961544581,1.96857068222185,2.57762974996267,1699.087,2477.244,2210.805,2254.201,-0.01750229,0.01671814,0.05181473,-0.961573719978333,-0.320271492004395,0.565278053283691,-0.90813782126959,-0.39074633405868,0.562180571969535,0
3.27999877929688,-2.14906978607178,1.69810581207275,2.57981634140015,-2.33577134012187,1.96079922667992,2.58881081793642,2004.357,3522.822,3004.016,0,-0.02273434,0.01548978,0.05393676,-0.951448440551758,-0.314703702926636,0.53972452878952,-0.898304216251578,-0.386515208538549,0.556093102023818,0
3.30000305175781,-2.16795301437378,1.69190430641174,2.59088802337646,-2.35364119854729,1.95311032582551,2.59987311156116,1678.826,2479.693,2193.709,2268.196,-0.01500052,0.01505142,0.04813111,-0.944178998470306,-0.310061097145081,0.553579866886139,-0.888267004546666,-0.382196476749158,0.549879589839776,0
3.31999969482422,-2.18662667274475,1.68581509590149,2.60144138336182,-2.37130160722417,1.94551154534655,2.61080574581408,1996.553,3520.038,2992.33,0,-0.02026133,0.01376426,0.05029921,-0.93367600440979,-0.304453939199448,0.527663230895996,-0.878038122530657,-0.377795274579551,0.543547424602645,0
3.34000396728516,-2.20514464378357,1.67982053756714,2.61227297782898,-2.38876217417054,1.9379987511813,2.62161466851603,1659.352,2477.588,2171.208,2291.344,-0.01241619,0.01327412,0.04451752,-0.925907135009766,-0.299746930599213,0.541579782962799,-0.867614155697521,-0.373310132863173,0.537094492570531,0
3.36000061035156,-2.22344565391541,1.6739387512207,2.62257695198059,-2.406005803634,1.93057929915441,2.6322892965819,1991.816,3515.134,2979.731,0,-0.01770043,0.01194126,0.04670979,-0.915054023265839,-0.294088542461395,0.515199363231659,-0.857007552155826,-0.36874640767338,0.530528499715627,0
3.37999725341797,-2.24158215522766,1.66815268993378,2.6331615447998,-2.42303550945299,1.9232518924954,2.64283149572124,1641.459,2474.413,2146.119,2317.097,-0.009735452,0.01141312,0.04090274,-0.906812787055969,-0.289298593997955,0.529231369495392,-0.846218976345105,-0.364104384899943,0.523849857357654,0
3.40000152587891,-2.25949454307556,1.66248106956482,2.6432089805603,-2.43985407218584,1.9160153348077,2.65324298723213,1983.57,3515.401,2965.666,0,-0.01506177,0.0100606,0.04311505,-0.895628690719604,-0.283575922250748,0.502369225025177,-0.835248923368004,-0.359384277571698,0.517058871988738,0
3.41999816894531,-2.27723336219788,1.65690732002258,2.65353918075562,-2.45644516534361,1.90887665092339,2.66351366424015,1627.127,2469.381,2120.418,2341.995,-0.00702169,0.009512958,0.03725541,-0.886928260326385,-0.278688281774521,0.516505837440491,-0.824110582941664,-0.354591760855451,0.510163708672097,0
3.44000244140625,-2.29474186897278,1.65144944190979,2.66332221031189,-2.47281804716281,1.90183185728196,2.67364925803476,1974.829,3516.186,2951.848,0,-0.01244122,0.008162268,0.03946611,-0.875429630279541,-0.272898524999619,0.48915234208107,-0.812800388649434,-0.349725300221754,0.503162159625937,0
3.45999908447266,-2.31206703186035,1.64609134197235,2.6733877658844,-2.48895692832918,1.89488774758421,2.68363999427827,1611.643,2463.24,2100.385,2363.661,-0.004379835,0.007612461,0.03355038,-0.866273880004883,-0.267916738986969,0.503276586532593,-0.801332006385299,-0.344790775723006,0.496062684689628,0
3.48000335693359,-2.32915687561035,1.64084959030151,2.68289852142334,-2.50487092366784,1.88804039997555,2.69349151548162,1968.337,3513.524,2939.963,0,-0.009895241,0.006271589,0.0357269,-0.854479491710663,-0.262071013450623,0.475541174411774,-0.78970183472369,-0.339786637766397,0.488863054409187,0
3.5,-2.34605431556702,1.63570952415466,2.69269013404846,-2.5205447997813,1.88129636896134,2.70319439144611,1596.962,2459.971,2085.69,2376.522,-0.001868474,0.005717099,0.02978095,-0.844870567321777,-0.25701117515564,0.489583373069763,-0.777924000354857,-0.334718964672089,0.481572013878822,0
3.52000427246094,-2.36270999908447,1.63068699836731,2.70192074775696,-2.53598752699493,1.87465179486116,2.71275417523047,1964.131,3505.704,2931.512,0,-0.007478156,0.004372487,0.03191083,-0.832797169685364,-0.251130282878876,0.46152862906456,-0.765994882555673,-0.32958619854407,0.474187321698442,0
3.54000091552734,-2.3791651725769,1.62576651573181,2.71143174171448,-2.55118444594166,1.86811298519115,2.72216179198813,1581.328,2460.053,2072.55,2385.835,0.0005097123,0.003797079,0.02596424,-0.822746574878693,-0.246018692851067,0.475545167922974,-0.753929052770513,-0.324394609067776,0.466717998286246,0
3.55999755859375,-2.39537334442139,1.62096416950226,2.72037577629089,-2.56613872308604,1.86167857751006,2.73141920191151,1959.44,3497.994,2923.7,0,-0.005184109,0.002434736,0.02808076,-0.810411989688873,-0.240124747157097,0.447201728820801,-0.741727567798258,-0.319144650954242,0.459164697851087,0
3.58000183105469,-2.41137194633484,1.61626434326172,2.72960042953491,-2.58085326729328,1.85534732021446,2.74052820572674,1563.608,2460.462,2058.827,2397.781,0.002804569,0.001830661,0.02216579,-0.799941658973694,-0.234984323382378,0.461229145526886,-0.729391385793765,-0.313836736470737,0.451528013536464,0
3.59999847412109,-2.4271194934845,1.61168265342712,2.73825311660767,-2.59531431270705,1.84912513636775,2.74948028171299,1957.722,3489.684,2913.847,0,-0.002950782,0.0004397932,0.02428285,-0.78737199306488,-0.229088857769966,0.432640045881271,-0.716935713767317,-0.308477408768949,0.443817359206151,0
3.62000274658203,-2.44264984130859,1.60720419883728,2.74718689918518,-2.60953046793176,1.84300832192796,2.75828075900647,1545.974,2461.966,2042.99,2410.967,0.00504536,-0.0001986718,0.01841227,-0.776508033275604,-0.223928481340408,0.446687340736389,-0.704356955827444,-0.303065120637236,0.436030508832034,0
3.63999938964844,-2.45792436599731,1.60284328460693,2.75554299354553,-2.6234885835008,1.83700253474321,2.76692149746096,1954.739,3480.77,2904.217,1.961363,-0.0007595335,-0.001617071,0.02053581,-0.763729751110077,-0.218037739396095,0.417807072401047,-0.691670720740692,-0.297606588091786,0.428177124984152,0
3.66000366210938,-2.47297430038452,1.5985860824585,2.7641818523407,-2.63719712493647,1.83110413233575,2.77540773763803,1529.505,2463.333,2024.971,2425.957,0.007261742,-0.002287655,0.01469935,-0.752500951290131,-0.212860077619553,0.431945443153381,-0.678873453515702,-0.29210028151913,0.420255006953505,0
3.68000030517578,-2.48776531219482,1.59444665908813,2.77224636077881,-2.65064357486757,1.82531850058072,2.78373173068862,1931.304,3489.608,2873.811,28.28682,0.001554159,-0.003652792,0.01689107,-0.739545583724976,-0.206971526145935,0.403223305940628,-0.665981146317811,-0.286553081901244,0.412274054652249,0
3.69999694824219,-2.50232458114624,1.59041178226471,2.78058171272278,-2.66383127580226,1.81964420129024,2.79189554578451,1525.645,2459.705,2013.979,2424.762,0.009458662,-0.004294613,0.01114384,-0.727971315383911,-0.201750695705414,0.416767358779907,-0.65299527533123,-0.280965624398954,0.404235181908735,0
3.72000122070313,-2.51662230491638,1.5864942073822,2.78835296630859,-2.6767633032417,1.81407991116207,2.79990108680742,1910.587,3478.408,2836.798,80.41278,0.003994728,-0.005546832,0.01320311,-0.714879512786865,-0.195854052901268,0.388565838336945,-0.639917282339434,-0.275338529371411,0.396139281255611,0
3.73999786376953,-2.53068137168884,1.58268296718597,2.79637384414673,-2.68942811570037,1.808630596175,2.80774120902801,1534.087,2466.564,2016.715,2386.809,0.01155415,-0.006138054,0.007529522,-0.702958166599274,-0.190567404031754,0.40103879570961,-0.626763698705669,-0.269678909802388,0.38799658639423,0
3.76000213623047,-2.5444757938385,1.57898986339569,2.80384969711304,-2.70183383146282,1.803292763258,2.81542093805117,1889.218,3457.773,2797.039,147.3078,0.006346276,-0.00726244,0.00931756,-0.689732789993286,-0.184671521186829,0.373790413141251,-0.613531154887639,-0.263985315871967,0.379805011417393,0
3.77999877929688,-2.55802464485168,1.57540285587311,2.81154441833496,-2.7139695770734,1.79807109095524,2.82293354268985,1543.409,2485.528,2035.74,2319.072,0.0133201,-0.00780466,0.00379577,-0.677448153495789,-0.179346978664398,0.384740561246872,-0.60023651686137,-0.258265004538452,0.371574997167698,0
3.80000305175781,-2.5713062286377,1.57193291187286,2.81872224807739,-2.72584333814708,1.79296214327972,2.83028396642013,1863.941,3426.429,2756.446,231.4673,0.008426568,-0.008804943,0.00526541,-0.664083898067474,-0.17349910736084,0.358890771865845,-0.586876524285838,-0.252516572968186,0.363304525338741,0
3.81999969482422,-2.58433508872986,1.56856894493103,2.82608222961426,-2.73744492223163,1.78797030575888,2.83746589962856,1552.689,2515.363,2067.289,2227.66,0.01468046,-0.009313607,3.089061E-05,-0.651440143585205,-0.168197423219681,0.368001699447632,-0.573468357077023,-0.246747413199059,0.355004231116903,0
3.84000396728516,-2.59709429740906,1.56531965732574,2.83296084403992,-2.74878218705843,1.78309219743042,2.84448420662517,1835.931,3384.567,2713.717,332.6127,0.01022806,-0.01020577,0.001188538,-0.637944042682648,-0.162455335259438,0.343932002782822,-0.560008885098766,-0.240956178420931,0.346672176798797,0
3.86000061035156,-2.60959386825562,1.56217515468597,2.83998155593872,-2.75984563331209,1.77833190558438,2.85133300688122,1563.278,2553.146,2103.719,2122.104,0.0157467,-0.01069739,-0.003643204,-0.624976456165314,-0.157229065895081,0.351039350032806,-0.546515580872635,-0.235150386571708,0.338319178707605,0
3.87999725341797,-2.62182092666626,1.55914270877838,2.84656143188477,-2.77063893010371,1.77368785150474,2.85801457175126,1808.329,3335.21,2666.835,446.1971,0.01186424,-0.01150113,-0.00278833,-0.61136931180954,-0.151629745960236,0.328987956047058,-0.532990631455729,-0.229330978680956,0.329946590735853,0
3.90000152587891,-2.63378357887268,1.55621254444122,2.85324192047119,-2.78116548164984,1.76915857045225,2.8645310086075,1575.665,2596.043,2139.036,2011.011,0.01667789,-0.01198636,-0.007162306,-0.598132073879242,-0.14650097489357,0.334023743867874,-0.519436284009554,-0.223498921639498,0.32155580398356,0
3.91999816894531,-2.64547228813171,1.553391456604,2.85952353477478,-2.79141684911929,1.7647476934202,2.87087709341145,1783.535,3282.23,2615.976,565.4235,0.01342261,-0.01271606,-0.006617423,-0.584439396858215,-0.141054779291153,0.314075261354446,-0.505870408491346,-0.2176619043907,0.313157880805522,0
