t,x_s1,x_s2,x_s3,x_s_d1,x_s_d2,x_s_d3,propellers_rpms1,propellers_rpms2,propellers_rpms3,propellers_rpms4,rollRad,pitchRad,yawRad,v_s1,v_s2,v_s3,v_s_d1,v_s_d2,v_s_d3,insideCount
0,-0.0599999986588955,2.94000005722046,1.17999994754791,-0.0599999986588955,2.94000005722046,1.17999994754791,0,0,0,0,0,45.0048027038574,0,0,0,0,-1.06581410364015E-15,4.44089209850063E-16,4.44089209850063E-16,0
0.0200042724609375,-0.0599999986588955,2.94000005722046,1.17705690860748,-0.0600018701838461,2.93999925195556,1.18000110611101,0,0,0,0,0.937003672122955,44.8630027770996,-0.00115976633969694,3.71994488546079E-08,3.50004931704007E-08,-0.147149950265884,-0.000280105751305916,-0.000120521679537258,0.00017339880334547,5
0.0400009155273438,-0.0599999986588955,2.94000005722046,1.17018985748291,-0.0600148724204753,2.93999365745638,1.18000915511487,0,0,0,0,1.87400352954865,44.7211418151855,-0.00311126722954214,3.70364325874561E-08,3.5142885934647E-08,-0.343349903821945,-0.00111101934050116,-0.00047804058392963,0.00068777389696065,6
0.0600051879882813,-0.0599062219262123,2.94009447097778,1.16346514225006,-0.0600499046557519,2.93997858406422,1.18003084173732,3197.398,2848.799,1517.405,2782.453,1.40362656116486,44.7413635253906,0.0288634859025478,0.00468879099935293,0.00471896305680275,-0.336233586072922,-0.00247998555168399,-0.00106706850011317,0.00153522919458695,6
0.0800018310546875,-0.0597377680242062,2.94026732444763,1.1572380065918,-0.0601175574246769,2.93994947496775,1.18007272202403,2865.866,2651.932,2344.702,2562.33,0.339634448289871,44.8158302307129,0.0997773408889771,0.00842264667153358,0.00864495057612658,-0.311358660459518,-0.00437268608126799,-0.00188144466206175,0.00270690098422899,6
0.0999984741210938,-0.0595562681555748,2.94046425819397,1.15152072906494,-0.0602281887669101,2.93990187339187,1.18014120809498,2240.005,2528.276,3138.302,2508.829,359.321624755859,44.9191246032715,0.178485870361328,0.00907504931092262,0.00984920933842659,-0.285862147808075,-0.00677637982016689,-0.00291568692648091,0.00419490191241918,5
0.120002746582031,-0.0594243444502354,2.94063234329224,1.14657127857208,-0.0603919599823235,2.93983140721312,1.18024259027882,2124.056,2455.027,3352.135,2464.682,358.750061035156,44.9999084472656,0.253253728151321,0.00659616105258465,0.00839842204004526,-0.247469902038574,-0.00967921398219614,-0.00416469537060396,0.00599189453988277,5
0.139999389648438,-0.0593829080462456,2.94074034690857,1.14257478713989,-0.0606185767455666,2.93973390035084,1.18038287685052,2312.704,2456.961,3069.317,2463.613,358.636260986328,45.0326843261719,0.326336324214935,0.0020717834122479,0.00539862830191851,-0.199826806783676,-0.0130660253322238,-0.00562194567796536,0.00808849210174802,5
0.160003662109375,-0.0594432465732098,2.94078588485718,1.1395308971405,-0.0609177895434042,2.93960515744296,1.18056810382587,2536.785,2487.034,2635.933,2492.318,358.757080078125,45.0250396728516,0.398127198219299,-0.00301684066653252,0.00227924762293696,-0.152195423841476,-0.0169265510445065,-0.00728302204135792,0.0104783414199936,5
0.180000305175781,-0.0595999397337437,2.94078183174133,1.1373188495636,-0.0612986871007165,2.9394412678651,1.18080389755851,2667.032,2506.495,2302.845,2513.53,358.864379882813,44.998592376709,0.467300146818161,-0.00783472321927547,-0.000198166817426682,-0.110600233078003,-0.0212451141043368,-0.00914117907931815,0.0131517376757159,5
0.200004577636719,-0.0598474815487862,2.94074010848999,1.13577449321747,-0.0617706280683152,2.93923820485124,1.18109605149912,2653.787,2500.491,2183.904,2509.065,358.817169189453,44.9744529724121,0.532783567905426,-0.0123770264908671,-0.00209206761792302,-0.0772172510623932,-0.026012379510746,-0.0111924002017188,0.0161029020586274,5
0.220001220703125,-0.0601893998682499,2.9406623840332,1.13476359844208,-0.0623420644491781,2.93899233174064,1.18144979784016,2541.002,2471.027,2246.04,2479.319,358.612670898438,44.9637298583984,0.594464123249054,-0.0170959550887346,-0.00388231035321951,-0.0505423247814178,-0.03121219533433,-0.0134297356845702,0.019321835755004,5
0.240005493164063,-0.0606386475265026,2.94054174423218,1.13421714305878,-0.0630219993990999,2.93869977472688,1.18187070996396,2412.086,2430.145,2374.845,2437.906,358.334930419922,44.9659690856934,0.652508795261383,-0.0224624201655388,-0.00603295303881168,-0.0273213386535645,-0.0368361158647881,-0.0158495515746756,0.0228033104678445,5
0.260002136230469,-0.0612130202353001,2.94036626815796,1.1341210603714,-0.0638182299684225,2.938357178957,1.18236361461609,2330.412,2392.619,2462.924,2399.001,358.076690673828,44.9739303588867,0.707655072212219,-0.0287185572087765,-0.00877024978399277,-0.0048059094697237,-0.0428675524613532,-0.0184447102433459,0.0265370570382875,4
0.279998779296875,-0.0619295686483383,2.94012498855591,1.13447880744934,-0.0647390625194898,2.93796097043536,1.18293365383054,2306.103,2365.558,2470.842,2371.368,357.887481689453,44.9803886413574,0.760373890399933,-0.0358275026082993,-0.0120583139359951,0.0178851522505283,-0.0492963837173861,-0.0212108567320638,0.030516809833474,4
0.300003051757813,-0.0628011375665665,2.93981075286865,1.13528323173523,-0.0657927507678135,2.93750759781875,1.18358593705038,2318.007,2348.852,2416.473,2354.035,357.765625,44.9818649291992,0.811069488525391,-0.0435786172747612,-0.0157087631523609,0.0402208343148232,-0.0561132031658829,-0.0241439437008635,0.0347367458022363,4
0.319999694824219,-0.0638360008597374,2.93942022323608,1.13650631904602,-0.0669860785243584,2.93699414222283,1.18432466377777,2335.77,2337.249,2343.028,2342.189,357.679351806641,44.978889465332,0.859833419322968,-0.0517431311309338,-0.0195266753435135,0.0611536726355553,-0.0633008373176985,-0.0272365818771378,0.0391862337367069,4
0.340003967285156,-0.065039686858654,2.93895220756531,1.13810443878174,-0.0683273092598492,2.93641704810699,1.18515494949472,2338.34,2325.303,2287.55,2330.852,357.595184326172,44.9742126464844,0.906300783157349,-0.060184184461832,-0.0234063770622015,0.079903319478035,-0.0708528993697216,-0.0304860231979345,0.0438613199015142,4
0.360000610351563,-0.0664172545075417,2.93840527534485,1.14003169536591,-0.0698225328270578,2.93577369517774,1.1860805641102,2323.2,2311.416,2262.187,2316.515,357.495300292969,44.9703407287598,0.950559794902802,-0.0688784196972847,-0.027344549074769,0.096362017095089,-0.0787518717320621,-0.0338847303337087,0.0487511600740379,4
0.3800048828125,-0.0679745897650719,2.93777751922607,1.14224851131439,-0.0714797725314022,2.93506063123087,1.18710647443246,2295.896,2294.954,2261.983,2300.401,357.380554199219,44.9686317443848,0.992400050163269,-0.0778669193387032,-0.031391616910696,0.110840238630772,-0.0869921272359981,-0.0374302820709642,0.0538522707687797,4
0.400001525878906,-0.0697186142206192,2.93706560134888,1.14472699165344,-0.0733044112230977,2.93427554017634,1.18823601270221,2269.636,2278.704,2269.081,2283.458,357.262390136719,44.9688034057617,1.03212559223175,-0.0872011035680771,-0.035600982606411,0.123924009501934,-0.0955558400788823,-0.0411150084648172,0.0591536169647403,4
0.419998168945313,-0.0716565549373627,2.93626570701599,1.14744687080383,-0.0753034649285836,2.93341540321397,1.18947352217404,2249.469,2263.554,2272.09,2268.625,357.15283203125,44.9699859619141,1.06963920593262,-0.0968968942761421,-0.0399920307099819,0.135994359850883,-0.104434660908044,-0.0449353170220673,0.0646500300148815,4
0.44000244140625,-0.0737952366471291,2.93537473678589,1.15039265155792,-0.077483988232608,2.93247718495301,1.19082336997196,2238.611,2251.315,2264.496,2255.837,357.058013916016,44.971118927002,1.10522520542145,-0.106934078037739,-0.044551458209753,0.147286340594292,-0.113620829717891,-0.048887868829098,0.0703367061060819,4
0.459999084472656,-0.0761405825614929,2.93438982963562,1.15354871749878,-0.0798502821969742,2.93145903476675,1.19228821865812,2233.49,2241.456,2249.108,2245.496,356.976867675781,44.971736907959,1.13911414146423,-0.117267392575741,-0.0492450818419456,0.157801270484924,-0.123096124252221,-0.0529648233581361,0.0762023647937057,4
0.480003356933594,-0.0786975771188736,2.93330907821655,1.15689742565155,-0.0824098964715798,2.93035770425173,1.19387274182544,2228.535,2232.582,2233.502,2237.19,356.90478515625,44.9719619750977,1.17105746269226,-0.127849772572517,-0.0540389344096184,0.167435318231583,-0.132856662250146,-0.057164510180779,0.0822446027733248,4
0.5,-0.0814706310629845,2.93213081359863,1.16042184829712,-0.085166398670376,2.92917165836334,1.1955791479969,2223.67,2225.193,2219.998,2229.002,356.837036132813,44.972038269043,1.20138263702393,-0.138652682304382,-0.0589149594306946,0.176224008202553,-0.142884000065179,-0.0614789935111996,0.0884520025491718,5
0.520004272460938,-0.0844638049602509,2.93085360527039,1.16410505771637,-0.088127196023106,2.92789770997757,1.19741202260058,2215.608,2217.528,2212.708,2221.91,356.771209716797,44.9723892211914,1.22982251644135,-0.149658650159836,-0.0638652369379997,0.184161722660065,-0.153174893518032,-0.065906877469682,0.0948225558197254,5
0.540000915527344,-0.0876811221241951,2.92947578430176,1.16793370246887,-0.0912951145137283,2.92653464315245,1.19937311505516,2208.332,2211.014,2207.936,2214.53,356.707305908203,44.9730339050293,1.25674486160278,-0.160866096615791,-0.0688934177160263,0.191429615020752,-0.163710711144578,-0.0704401454577151,0.101344728821151,5
0.560005187988281,-0.0911264941096306,2.9279956817627,1.17189562320709,-0.0946774438086223,2.9250793213482,1.20146693801139,2200.226,2204.401,2206.154,2208.519,356.646789550781,44.9740409851074,1.28188765048981,-0.172268643975258,-0.0739994794130325,0.198095992207527,-0.174488813605259,-0.0750776618412222,0.108016887676534,5
0.580001831054688,-0.0948037505149841,2.9264121055603,1.17598247528076,-0.0982762614093182,2.92353085067394,1.20369477754168,2195.327,2199.441,2202.767,2202.584,356.591033935547,44.9751663208008,1.3056812286377,-0.183862596750259,-0.0791834592819214,0.204343780875206,-0.185490414529404,-0.0798113433697334,0.11482740272751,5
0.599998474121094,-0.0987163931131363,2.92472338676453,1.18018615245819,-0.102097262171133,2.92188678079254,1.20606015903275,2190.539,2194.502,2199.945,2198.461,356.540649414063,44.9763717651367,1.32778024673462,-0.195632308721542,-0.0844366699457169,0.210181713104248,-0.196709126405959,-0.0846384416756885,0.121772319800455,5
0.620002746582031,-0.102867692708969,2.92292833328247,1.18450045585632,-0.106146271928021,2.92014460501038,1.20856668895334,2188.099,2191.115,2195.749,2194.432,356.495513916016,44.9775161743164,1.34846711158752,-0.207565560936928,-0.089752309024334,0.215715661644936,-0.208139001499973,-0.0895563976148993,0.128847956964108,5
0.639999389648438,-0.107260629534721,2.92102599143982,1.18891990184784,-0.110424235525481,2.91830391678686,1.21121495220784,2186.595,2188.523,2191.242,2191.215,356.454376220703,44.9785652160645,1.36800897121429,-0.219646960496902,-0.0951215326786041,0.220973581075668,-0.219761081350814,-0.0945570538913933,0.136042578028218,5
0.660003662109375,-0.111897870898247,2.91901516914368,1.19343864917755,-0.114938248900541,2.91636166293851,1.21400934151928,2183.716,2185.603,2189.319,2189.237,356.416564941406,44.9796752929688,1.38599646091461,-0.231862127780914,-0.100536487996578,0.225938588380814,-0.231574097577923,-0.0996398647564507,0.143355397804799,5
0.680000305175781,-0.116781994700432,2.91689515113831,1.19805335998535,-0.119688496929273,2.91431776391831,1.21694997133476,2182.811,2184.203,2186.824,2186.692,356.381622314453,44.9807586669922,1.40292227268219,-0.244206368923187,-0.105996049940586,0.230738073587418,-0.243559016194652,-0.104796640417365,0.150774633349401,5
0.700004577636719,-0.121915355324745,2.91466522216797,1.20276021957397,-0.124682034788652,2.91216918408072,1.22004120914491,2180.312,2182.168,2186.842,2185.583,356.349548339844,44.9819412231445,1.41838252544403,-0.256667822599411,-0.111494861543179,0.23534132540226,-0.255715062526221,-0.110027047553219,0.158299805101433,5
0.720001220703125,-0.127300217747688,2.91232466697693,1.20755791664124,-0.129918284978346,2.90991617190799,1.22328269744952,2180.251,2181.605,2185.503,2183.916,356.320373535156,44.983081817627,1.43285834789276,-0.269243896007538,-0.117033064365387,0.23988388478756,-0.268023157655716,-0.11532287703907,0.16591910230247,5
0.739997863769531,-0.132938653230667,2.90987253189087,1.21244430541992,-0.135402141159277,2.90755662179454,1.22667746565781,2178.672,2180.403,2186.197,2183.658,356.294189453125,44.9842872619629,1.44594025611877,-0.281921893358231,-0.12260452657938,0.244317948818207,-0.280478211503383,-0.120681938755799,0.173629373950669,5
0.760002136230469,-0.138832598924637,2.90730834007263,1.21741938591003,-0.14113868194985,2.90508834855275,1.23022865767651,2178.993,2180.382,2185.852,2182.941,356.271179199219,44.9854469299316,1.45793175697327,-0.294697612524033,-0.128208264708519,0.248751312494278,-0.293075466693575,-0.12610218573757,0.181427675003881,5
0.779998779296875,-0.14498382806778,2.90463161468506,1.22248339653015,-0.147126184485884,2.90251209348295,1.23393520697061,2180.052,2180.823,2184.92,2182.706,356.250732421875,44.986499786377,1.46912586688995,-0.307561457157135,-0.13383948802948,0.253199547529221,-0.305795832832518,-0.131575403921268,0.189302187598958,5
0.800003051757813,-0.151393875479698,2.90184187889099,1.22763574123383,-0.153371683173492,2.89982482987671,1.2378014681726,2179.407,2180.494,2186.296,2183.577,356.232727050781,44.9876022338867,1.47899973392487,-0.32050222158432,-0.139492675662041,0.257618308067322,-0.318639638509124,-0.13710173468952,0.197253115148089,5
0.819999694824219,-0.158064246177673,2.89893841743469,1.23287832736969,-0.159872691993147,2.89702762739878,1.24182590231796,2181.186,2181.674,2185.939,2183.488,356.216949462891,44.9885940551758,1.48810636997223,-0.333518505096436,-0.145168378949165,0.262129664421082,-0.331587821991737,-0.142672976311719,0.205268657531342,5
0.840003967285156,-0.164996191859245,2.89592123031616,1.23821139335632,-0.166636266402775,2.89411745028271,1.24601287707125,2180.799,2181.862,2187.955,2184.716,356.203460693359,44.9896392822266,1.49599075317383,-0.346597522497177,-0.150860711932182,0.266651898622513,-0.344641102544584,-0.148289438267168,0.213349260007538,5
0.860000610351563,-0.172190964221954,2.89278984069824,1.24363768100739,-0.173659158941841,2.89109569582005,1.2503603820997,2183.055,2183.405,2187.872,2185.051,356.192108154297,44.9905738830566,1.50317966938019,-0.359738856554031,-0.156570672988892,0.271311640739441,-0.357780475378537,-0.153942943326036,0.221483157706883,5
0.8800048828125,-0.179649546742439,2.88954401016235,1.24915790557861,-0.180948461186242,2.88795931270381,1.25487280742661,2182.996,2183.885,2190.13,2186.679,356.182922363281,44.991527557373,1.50917255878448,-0.372929185628891,-0.162291973829269,0.276013284921646,-0.371007022483504,-0.159633957038354,0.229671020432672,5
0.900001525878906,-0.187372907996178,2.88618350028992,1.2547755241394,-0.188500167066783,2.88471002463366,1.2595476731043,2185.574,2185.788,2190.188,2187.24,356.175720214844,44.9923667907715,1.51455390453339,-0.386168330907822,-0.168025642633438,0.280879974365234,-0.384301823631742,-0.165354338558695,0.237901135662636,5
0.919998168945313,-0.195361763238907,2.88270831108093,1.26049172878265,-0.196318384305134,2.8813460641717,1.26438752200817,2185.697,2186.444,2192.636,2189.156,356.170501708984,44.993236541748,1.51877450942993,-0.399442911148071,-0.173765480518341,0.28580778837204,-0.397661187980262,-0.171102499820431,0.246171218589148,5
0.94000244140625,-0.203616797924042,2.87911796569824,1.26630973815918,-0.204407453948074,2.87786556348678,1.26939504145298,2187.731,2188.143,2193.628,2190.144,356.16748046875,44.994026184082,1.52214539051056,-0.412751913070679,-0.179512202739716,0.290898740291595,-0.411081631631503,-0.176876941799768,0.254479112513653,5
0.959999084472656,-0.212138563394547,2.87541270256042,1.27223253250122,-0.212762239776093,2.87427073255068,1.27456705187416,2190.129,2190.138,2193.896,2191.26,356.165954589844,44.9946975708008,1.52504563331604,-0.426086843013763,-0.185262203216553,0.296138077974319,-0.424544411524882,-0.18266959988136,0.262813214588797,5
0.980003356933594,-0.220927298069,2.87159252166748,1.27826154232025,-0.221389982382338,2.87055845593844,1.2799080355438,2190.231,2190.788,2196.689,2193.473,356.166076660156,44.995418548584,1.52679586410522,-0.439437687397003,-0.191010639071465,0.301451057195663,-0.438051398499298,-0.18848127903492,0.271174682952979,5
1,-0.229983389377594,2.86765742301941,1.28440082073212,-0.230284798736574,2.86673126495361,1.28541435058594,2193.077,2193.036,2197.004,2194.236,356.167755126953,44.9960174560547,1.52804040908813,-0.452805876731873,-0.196759983897209,0.306962758302689,-0.451584000205995,-0.194303979492187,0.279552008056641,5
1.02000427246094,-0.239306941628456,2.86360740661621,1.29065179824829,-0.239454009753966,2.86278600961093,1.2910905289958,2193.126,2193.799,2199.853,2196.378,356.171173095703,44.9966697692871,1.52818083763123,-0.466177999973297,-0.202503949403763,0.312549829483032,-0.465144357597929,-0.200138622445408,0.287946515251652,5
1.04000091552734,-0.248898059129715,2.85944247245789,1.29701864719391,-0.24889099213045,2.8587255397331,1.29693247063265,2196.086,2196.069,2199.974,2197.125,356.176239013672,44.9971771240234,1.5278787612915,-0.479555487632751,-0.208244666457176,0.318340510129929,-0.478714054341683,-0.205977283860805,0.296346803950333,5
1.06000518798828,-0.258756518363953,2.85516285896301,1.30350267887115,-0.258603157406353,2.85454666634136,1.30294476359303,2196.118,2196.785,2202.667,2199.275,356.183013916016,44.9977226257324,1.52650988101959,-0.492924153804779,-0.213975429534912,0.324201852083206,-0.492295476531527,-0.211820990408084,0.304754351258706,5
1.08000183105469,-0.268882244825363,2.85076880455017,1.31010794639587,-0.268583149539609,2.85025255453512,1.30912285413647,2199.119,2199.023,2202.543,2199.957,356.191345214844,44.9981422424316,1.52475202083588,-0.506285727024078,-0.219698205590248,0.330262899398804,-0.50587040849135,-0.217661904390701,0.313157880805523,5
1.09999847412109,-0.279274731874466,2.84626078605652,1.31683564186096,-0.278834517009062,2.84584167750307,1.31546893894041,2198.997,2199.583,2205.159,2202.097,356.201232910156,44.998592376709,1.52191650867462,-0.519625902175903,-0.225406050682068,0.336382418870926,-0.519436284009554,-0.223498921639497,0.321555803983559,5
1.12000274658203,-0.289933621883392,2.84163880348206,1.32368898391724,-0.289361068555186,2.84131239645058,1.32198537579665,2201.02,2201.252,2205.897,2202.962,356.212951660156,44.9989738464355,1.51835632324219,-0.532945096492767,-0.231100827455521,0.3426693379879,-0.532990631455731,-0.229330978680957,0.329946590735853,5
1.13999938964844,-0.300858318805695,2.83690333366394,1.33067083358765,-0.300154365346813,2.83666834237095,1.3286669406667,2203.302,2203.124,2205.709,2203.846,356.225799560547,44.9992218017578,1.51449584960938,-0.546234905719757,-0.236778900027275,0.349092125892639,-0.546515580872639,-0.235150386571708,0.338319178707607,5
1.16000366210938,-0.312048047780991,2.83205461502075,1.33778190612793,-0.311222084148811,2.83190621216671,1.33551838583369,2202.765,2203.341,2208.406,2205.859,356.239959716797,44.999568939209,1.50955426692963,-0.559485197067261,-0.242435410618782,0.355552911758423,-0.560014026276883,-0.240958390526247,0.34667535943296,6
1.18000030517578,-0.323502004146576,2.82709312438965,1.34502565860748,-0.322555076427271,2.82702994219644,1.34253404791935,2205.334,2205.291,2208.137,2206.092,356.255493164063,44.9997787475586,1.50427794456482,-0.572698891162872,-0.248073548078537,0.362188577651978,-0.573468357077025,-0.246747413199059,0.355004231116904,6
1.20000457763672,-0.335219264030457,2.82201933860779,1.35240268707275,-0.334161138043845,2.82203617811866,1.3497187529334,2204.635,2205.426,2210.648,2207.865,356.272521972656,45.0000648498535,1.49795532226563,-0.58586198091507,-0.253686726093292,0.368849992752075,-0.586881630238192,-0.252518769916838,0.363307686166476,6
1.22000122070313,-0.347198784351349,2.81683373451233,1.35991621017456,-0.346030421585499,2.81692915700008,1.35706640485806,2207.24,2207.225,2209.923,2207.954,356.291076660156,45.0002098083496,1.49133026599884,-0.598976969718933,-0.25927746295929,0.375676929950714,-0.600236516861372,-0.258265004538453,0.371574997167698,6
1.23999786376953,-0.359439373016357,2.81153702735901,1.36756634712219,-0.358166167196084,2.81170748469733,1.36457900949675,2206.409,2207.183,2212.093,2209.599,356.311187744141,45.000415802002,1.48366987705231,-0.612028956413269,-0.264838337898254,0.382509857416153,-0.613531154887641,-0.263985315871967,0.379805011417393,6
1.26000213623047,-0.371939718723297,2.80612969398499,1.37535560131073,-0.370571882958536,2.80636965178032,1.3722587385199,2207.936,2208.293,2212.132,2209.85,356.333129882813,45.000545501709,1.47534871101379,-0.625018775463104,-0.27037125825882,0.389464378356934,-0.626763698705669,-0.269678909802388,0.38799658639423,6
1.27999877929688,-0.384698510169983,2.80061221122742,1.38328564167023,-0.383236695417198,2.80092033679326,1.3800988607405,2209.765,2209.603,2211.08,2210.109,356.356109619141,45.0005531311035,1.46681952476501,-0.637937784194946,-0.275872200727463,0.396503657102585,-0.639917282339435,-0.275338529371412,0.396139281255613,6
1.30000305175781,-0.397714018821716,2.79498553276062,1.39135587215424,-0.396168722856641,2.79535604666509,1.38810440176341,2208.36,2209.109,2213.297,2211.558,356.380279541016,45.0006713867188,1.4572377204895,-0.650775551795959,-0.281336009502411,0.403514325618744,-0.652995275331231,-0.280965624398954,0.404235181908735,6
1.31999969482422,-0.410984724760056,2.78925013542175,1.39956891536713,-0.409356423791328,2.7896817473746,1.39626821685929,2210.46,2210.439,2212.185,2211.083,356.405700683594,45.000659942627,1.44738876819611,-0.663536131381989,-0.28676649928093,0.410650253295898,-0.665981146317813,-0.286553081901244,0.412274054652251,6
1.34000396728516,-0.424508780241013,2.78340697288513,1.40792381763458,-0.422808053134535,2.78389388706324,1.40459541621271,2208.832,2209.845,2214.239,2212.231,356.4326171875,45.0007591247559,1.43651473522186,-0.676205039024353,-0.292156606912613,0.41774246096611,-0.678878353700697,-0.292102389931837,0.420258040401443,6
1.36000061035156,-0.438284516334534,2.77745676040649,1.41642284393311,-0.436511415158101,2.77799771321212,1.41307845008695,2210.934,2211.013,2212.685,2211.559,356.460968017578,45.0007171630859,1.42541611194611,-0.688785791397095,-0.297509431838989,0.424948573112488,-0.691670720740693,-0.297606588091785,0.42817712498415,6
1.3800048828125,-0.452309787273407,2.77140045166016,1.42506468296051,-0.450474904562636,2.77198961381608,1.4217225152016,2209.203,2210.188,2214.343,2212.605,356.490875244141,45.0007629394531,1.41327965259552,-0.701263129711151,-0.302817225456238,0.432091504335403,-0.704361775018035,-0.303067194200314,0.436033492140578,6
1.40000152587891,-0.466582596302032,2.76523876190186,1.43385124206543,-0.464685685951852,2.76587511158757,1.43051966583492,2211.204,2211.226,2212.432,2211.712,356.522155761719,45.0006561279297,1.40094411373138,-0.71364027261734,-0.308082789182663,0.439329475164413,-0.716935713767318,-0.308477408768949,0.443817359206152,6
1.41999816894531,-0.481100618839264,2.75897288322449,1.44278085231781,-0.47914673136562,2.75965292774086,1.43947174182117,2209.211,2210.209,2213.931,2212.573,356.554840087891,45.0006713867188,1.38759279251099,-0.725902318954468,-0.313298553228378,0.446481972932816,-0.729391385793766,-0.313836736470737,0.451528013536465,6
1.44000244140625,-0.495861709117889,2.75260353088379,1.45185446739197,-0.493861275572861,2.75332167044526,1.4485807456364,2209.905,2210.463,2213.099,2211.864,356.589294433594,45.0006141662598,1.37364673614502,-0.738051176071167,-0.31846684217453,0.453682541847229,-0.741727567798258,-0.319144650954242,0.459164697851088,6
1.45999908447266,-0.510863184928894,2.74613189697266,1.46107232570648,-0.508815552717244,2.74688726276417,1.45783815555978,2210.912,2210.926,2211.12,2211.2,356.624725341797,45.0004425048828,1.35958993434906,-0.750078439712524,-0.323583781719208,0.460891097784042,-0.753929052770513,-0.324394609067776,0.466717998286247,6
1.48000335693359,-0.526102662086487,2.73955893516541,1.47043204307556,-0.524018315758597,2.74034593854351,1.46724939009041,2208.473,2209.463,2212.624,2211.87,356.661315917969,45.0003929138184,1.34449791908264,-0.761974453926086,-0.328644245862961,0.46798849105835,-0.765999459475408,-0.329588167864767,0.474190155029787,6
1.5,-0.541577577590942,2.73288583755493,1.4799348115921,-0.539455198877605,2.73370387899399,1.4768055561018,2209.839,2210.018,2210.579,2210.422,356.699157714844,45.0002479553223,1.32924008369446,-0.773743391036987,-0.33365198969841,0.475140184164047,-0.777924000354858,-0.334718964672088,0.481572013878822,6
1.52000427246094,-0.557285010814667,2.72611379623413,1.48957812786102,-0.555135099954955,2.72695725560613,1.48651216180595,2207.205,2208.448,2211.927,2210.866,356.738464355469,45.0002059936523,1.31294214725494,-0.785371422767639,-0.33859995007515,0.482167422771454,-0.789706299681991,-0.339788558913217,0.48886581843107,6
1.54000091552734,-0.573222160339355,2.7192440032959,1.49936294555664,-0.571043070329722,2.72011250037111,1.49635995326965,2208.699,2208.915,2209.364,2209.221,356.779174804688,45.0000343322754,1.2965224981308,-0.796862125396729,-0.34349125623703,0.489242285490036,-0.801332006385301,-0.344790775723006,0.496062684689629,6
1.55999755859375,-0.589386165142059,2.71227765083313,1.50928640365601,-0.587181951496087,2.71316839067337,1.50635068951315,2205.994,2207.208,2210.328,2209.556,356.821411132813,44.9999694824219,1.27909350395203,-0.808200895786285,-0.348318070173264,0.496173888444901,-0.812800388649436,-0.349725300221754,0.503162159625937,6
1.58000183105469,-0.605773985385895,2.70521593093872,1.51934850215912,-0.60355483331529,2.70612359703193,1.51648628330776,2206.176,2206.909,2208.833,2208.191,356.865447998047,44.9998474121094,1.26112115383148,-0.819389462471008,-0.353082656860352,0.503103375434875,-0.824110582941666,-0.354591760855452,0.510163708672098,6
1.59999847412109,-0.622382402420044,2.69806027412415,1.52954828739166,-0.620145926473056,2.69898491314762,1.52675696031579,2206.77,2206.842,2206.085,2206.917,356.910400390625,44.9996109008789,1.24312341213226,-0.830419778823853,-0.357780873775482,0.50999128818512,-0.835248923368005,-0.359384277571697,0.517058871988737,5
1.62000274658203,-0.63920795917511,2.69081211090088,1.53988242149353,-0.636964489205914,2.69174835545992,1.53716845182668,2203.604,2204.727,2207.151,2207.141,356.956451416016,44.9995231628418,1.22408640384674,-0.841282665729523,-0.362407594919205,0.516709744930267,-0.846218976345106,-0.364104384899943,0.523849857357655,5
1.63999938964844,-0.656247675418854,2.6834728717804,1.55035126209259,-0.653994195024907,2.68442094880091,1.54771065096602,2204.626,2204.824,2204.417,2205.037,357.003601074219,44.9993209838867,1.20496511459351,-0.851982653141022,-0.366966843605042,0.52344024181366,-0.857007552155828,-0.368746407673381,0.530528499715628,5
1.66000366210938,-0.673497796058655,2.67604374885559,1.56095111370087,-0.671244443874359,2.67699864863716,1.55838937674714,2201.261,2202.645,2205.424,2205.059,357.052124023438,44.9992561340332,1.18480503559113,-0.862506747245789,-0.371451824903488,0.529991030693054,-0.867618167158098,-0.373311858882592,0.53709697585572,5
1.68000030517578,-0.690954983234406,2.66852641105652,1.57168209552765,-0.688698391434734,2.66948870260877,1.56919420173384,2202.357,2202.707,2202.338,2202.76,357.102020263672,44.9990539550781,1.16462981700897,-0.872858762741089,-0.37586584687233,0.536549150943756,-0.878038122530658,-0.377795274579551,0.543547424602645,5
1.70000457763672,-0.708615481853485,2.66092228889465,1.58254039287567,-0.706365577065784,2.66188700619576,1.58013103124422,2199.026,2200.41,2202.956,2202.733,357.153381347656,44.9989776611328,1.1434553861618,-0.883025288581848,-0.38020133972168,0.542916715145111,-0.888270870184447,-0.382198140025102,0.549881982853708,5
1.72000122070313,-0.726475656032562,2.65323305130005,1.59352600574493,-0.724228658537036,2.6542010212754,1.5911891296115,2200.122,2200.334,2199.563,2200.381,357.205993652344,44.9987449645996,1.12226963043213,-0.893009722232819,-0.384461164474487,0.549278378486633,-0.898304216251578,-0.386515208538549,0.556093102023817,5
1.73999786376953,-0.744531571865082,2.64546036720276,1.60463464260101,-0.742290383213093,2.64642956573347,1.60237019758524,2196.615,2197.942,2200.087,2200.248,357.259887695313,44.998664855957,1.10009253025055,-0.902799129486084,-0.388638138771057,0.555433869361877,-0.908137821269591,-0.39074633405868,0.562180571969536,5
1.76000213623047,-0.762779533863068,2.63760566711426,1.61586546897888,-0.76055371708895,2.63857136338517,1.61367607125764,2196.302,2197.116,2198.033,2198.222,357.315460205078,44.9985084533691,1.07744705677032,-0.912395656108856,-0.392734825611115,0.56153929233551,-0.917771149318994,-0.394891285994308,0.568144060931169,4
1.77999877929688,-0.781215310096741,2.6296706199646,1.62721657752991,-0.779000609654483,2.63063418086074,1.62509557650306,2196.39,2196.52,2194.751,2196.361,357.371734619141,44.9982566833496,1.05487406253815,-0.921792209148407,-0.396747440099716,0.567553758621216,-0.927192788821983,-0.398945154262308,0.57397650459845,4
1.80000305175781,-0.799834966659546,2.62165713310242,1.63868355751038,-0.797640935141499,2.62261376955408,1.63663482594136,2192.51,2193.851,2195.494,2196.116,357.429016113281,44.9981727600098,1.03132665157318,-0.930981338024139,-0.400671571493149,0.573347091674805,-0.936405971974637,-0.402909329586356,0.579679903854719,4
1.81999969482422,-0.818634331226349,2.61356687545776,1.65026581287384,-0.816456197270346,2.61451808789761,1.64828236949435,2193.197,2193.442,2192.213,2193.471,357.4873046875,44.9979705810547,1.00777244567871,-0.939967274665833,-0.404510945081711,0.579113662242889,-0.945399824400851,-0.406779133026206,0.585247526943151,3
1.84000396728516,-0.837609112262726,2.60540175437927,1.66195893287659,-0.835456397410825,2.6063428325813,1.66004439848636,2189.254,2190.809,2192.82,2193.06,357.546905517578,44.997917175293,0.983250975608826,-0.948738932609558,-0.408259481191635,0.58465451002121,-0.95417746870157,-0.410555908149813,0.59068130690248,3
1.86000061035156,-0.856755077838898,2.597163438797,1.67376232147217,-0.854622615239374,2.59809614449182,1.6719092003358,2190.126,2190.403,2189.137,2190.301,357.607666015625,44.9977188110352,0.958780229091644,-0.957299530506134,-0.411920160055161,0.590167164802551,-0.962728579444532,-0.414235212212131,0.595974851798267,0
1.8800048828125,-0.876067817211151,2.58885383605957,1.685671210289,-0.873964974649439,2.58977366760063,1.68388304221498,2186.201,2187.713,2189.449,2189.882,357.669738769531,44.9976615905762,0.933377087116241,-0.965637683868408,-0.415486186742783,0.595443665981293,-0.971056158224177,-0.417818336715394,0.601130019760457,0
1.90000152587891,-0.895542919635773,2.58047461509705,1.69768488407135,-0.893464153455626,2.58138371570432,1.69595396277071,2187.069,2187.246,2185.581,2187.067,357.732849121094,44.997444152832,0.908057749271393,-0.973756313323975,-0.418960273265839,0.600682199001312,-0.979150439632688,-0.421301079877433,0.606140765536421,0
1.91999816894531,-0.91517585515976,2.57202792167664,1.70979833602905,-0.913122862707269,2.57292512231409,1.70812364027167,2182.999,2184.489,2185.883,2186.594,357.797119140625,44.9973907470703,0.881832778453827,-0.981644988059998,-0.422336250543594,0.605674028396606,-0.987011339258123,-0.424683405378145,0.611007036871143,0
1.94000244140625,-0.934961974620819,2.56351566314697,1.72201001644135,-0.932943991899774,2.5643966441608,1.72039386345315,2182.412,2183.277,2183.483,2184.198,357.862884521484,44.9972648620605,0.855217814445496,-0.98930561542511,-0.425616472959518,0.610586524009705,-0.994638524886308,-0.427965170275055,0.615728628108227,0
1.95999908447266,-0.954896569252014,2.55493974685669,1.73431766033173,-0.952907658613767,2.55580683609405,1.73275232415044,2182.322,2182.382,2179.749,2181.961,357.929168701172,44.9970207214355,0.828787207603455,-0.996732115745544,-0.428797453641891,0.615379691123962,-1.00202309041976,-0.431142542523221,0.620300025949072,0
1.98000335693359,-0.974974930286407,2.546302318573,1.74671602249146,-0.973024270010337,2.54715122020317,1.74520546489201,2177.974,2179.357,2180.279,2181.514,357.996246337891,44.9969749450684,0.801429033279419,-1.00391912460327,-0.431875586509705,0.619916796684265,-1.00916768936771,-0.434216663853535,0.624722873042297,0
2,-0.995192229747772,2.53760528564453,1.75920403003693,-0.993273599084619,2.53843849960327,1.7577407641983,2178.512,2178.704,2176.664,2178.463,358.064117431641,44.9967842102051,0.774178206920624,-1.0108699798584,-0.434854477643967,0.62440288066864,-1.01606400046349,-0.437183953857422,0.628992018127441,0
2.02000427246094,-1.01554381847382,2.5288507938385,1.77177667617798,-1.01366615605493,2.52966415204104,1.77036472839513,2174.15,2175.798,2177.097,2177.844,358.133056640625,44.996768951416,0.746048033237457,-1.01757645606995,-0.437729090452194,0.628633618354797,-1.02271452148052,-0.440045487257004,0.633109007445237,0
2.04000091552734,-1.03602468967438,2.52004075050354,1.7844330072403,-1.0341813929022,2.52083701875502,1.78306463727984,2174.88,2175.114,2173.154,2174.783,358.203002929688,44.9966011047363,0.718066215515137,-1.02404081821442,-0.440501928329468,0.632814168930054,-1.02911152474823,-0.442797939051516,0.637069057199471,0
2.05999755859375,-1.05662977695465,2.51117706298828,1.79716765880585,-1.05482201812353,2.5119559343546,1.79584216754118,2170.618,2172.199,2173.286,2174.182,358.274047851563,44.9965705871582,0.689232349395752,-1.03025472164154,-0.44316753745079,0.636733889579773,-1.03525504859546,-0.445441325732794,0.640872191117535,0
2.08000183105469,-1.07735419273376,2.50226283073425,1.80997884273529,-1.07559088172821,2.50301967256038,1.80869908347065,2169.979,2170.92,2170.639,2171.539,358.346557617188,44.9964790344238,0.660136699676514,-1.03621876239777,-0.445727616548538,0.640560448169708,-1.04114485287423,-0.447975543971863,0.644518260536375,0
2.09999847412109,-1.09819269180298,2.49329924583435,1.82286393642426,-1.09646699912883,2.4940372624541,1.82162239460902,2169.972,2169.747,2166.531,2169.298,358.419372558594,44.9962387084961,0.631236851215363,-1.04192805290222,-0.448178768157959,0.644255995750427,-1.04677411523768,-0.450397658303471,0.648003042098304,0
2.12000274658203,-1.11914026737213,2.48428893089294,1.83581745624542,-1.11746110947495,2.48500408327971,1.83461874900143,2165.321,2166.729,2167.011,2168.658,358.492706298828,44.996208190918,0.601507425308228,-1.04737854003906,-0.450518399477005,0.647673904895782,-1.05214490868305,-0.452708560680417,0.651327819087362,0
2.13999938964844,-1.14019167423248,2.47523403167725,1.84883809089661,-1.138551967509,2.47592927627801,1.8476749948214,2165.818,2165.918,2163.291,2165.453,358.566558837891,44.9960403442383,0.571980118751526,-1.05257332324982,-0.452749788761139,0.651029765605927,-1.05725102347782,-0.454905579228273,0.654488747383304,0
2.16000366210938,-1.16134166717529,2.46613669395447,1.86192047595978,-1.15975039167652,2.46680818657414,1.86079782920208,2161.24,2162.87,2163.693,2164.801,358.641326904297,44.9960594177246,0.541622579097748,-1.05750668048859,-0.45486918091774,0.654116988182068,-1.0620943502576,-0.456989527434725,0.657486997379635,0
2.18000030517578,-1.18258535861969,2.45699906349182,1.87506341934204,-1.18103490068612,2.45765005696766,1.87397395420079,2161.95,2162.147,2159.656,2161.518,358.716857910156,44.9959106445313,0.51153838634491,-1.06217992305756,-0.456878632307053,0.657144844532013,-1.06666929835407,-0.458957999791384,0.660319108186354,0
2.20000457763672,-1.20391702651978,2.4478235244751,1.88826143741608,-1.20241638486008,2.44845020165711,1.88721011144582,2157.487,2159.064,2159.774,2160.959,358.793365478516,44.9959259033203,0.480641156435013,-1.06658720970154,-0.458773732185364,0.659900069236755,-1.07097756992209,-0.460811728687929,0.662986133518392,0
2.22000122070313,-1.22533178329468,2.43861246109009,1.90151333808899,-1.22387315175433,2.43921795429519,1.90049287228091,2158.357,2158.363,2155.482,2157.655,358.870483398438,44.9957580566406,0.450050681829453,-1.07072937488556,-0.460556209087372,0.66259241104126,-1.07501419914593,-0.462548577472581,0.665484999299265,0
2.23999786376953,-1.24682378768921,2.429368019104,1.91481339931488,-1.24540792547886,2.42995214277345,1.91382392305993,2153.847,2155.242,2155.556,2157.144,358.948303222656,44.9957618713379,0.418644785881042,-1.07460165023804,-0.462222158908844,0.665004730224609,-1.07877930973132,-0.464168599372462,0.667815782108711,0
2.26000213623047,-1.26838779449463,2.42009258270264,1.92815959453583,-1.26702351885107,2.42065155681516,1.92720500505083,2153.144,2153.911,2152.877,2154.311,359.027191162109,44.9956893920898,0.387069433927536,-1.07820415496826,-0.463773429393768,0.667312622070313,-1.08227271937422,-0.465671715947234,0.669978369091845,0
2.27999877929688,-1.29001843929291,2.41078853607178,1.94154906272888,-1.28869796983554,2.41132564607061,1.9406225227075,2152.918,2152.748,2148.919,2151.835,359.106079101563,44.9954986572266,0.355885624885559,-1.08153343200684,-0.465207695960999,0.669475317001343,-1.08549040888332,-0.467056197851165,0.67197027217779,0
2.30000305175781,-1.31171047687531,2.40145778656006,1.95497620105743,-1.31044231452835,2.40196966201596,1.95408330789913,2148.183,2149.499,2149.349,2151.332,359.185272216797,44.9955177307129,0.323916256427765,-1.08458888530731,-0.466523289680481,0.671356379985809,-1.08843358680109,-0.468322565086307,0.673792239511894,0
2.31999969482422,-1.33345770835876,2.39210367202759,1.96843945980072,-1.33223444283894,2.39259311800549,1.96757367342642,2148.618,2148.689,2145.667,2147.935,359.264801025391,44.9953994750977,0.292269974946976,-1.08737146854401,-0.46772301197052,0.673165261745453,-1.09109887036509,-0.469469362144493,0.675442177003072,0
2.34000396728516,-1.35525512695313,2.38272762298584,1.98193359375,-1.35408543512393,2.38319124647132,1.98110047855794,2144.163,2145.598,2145.794,2147.316,359.345001220703,44.9954299926758,0.259888112545013,-1.08987891674042,-0.468804180622101,0.674705505371094,-1.09348726343002,-0.470497020956358,0.676920706085208,0
2.36000061035156,-1.37709760665894,2.37333202362061,1.99545705318451,-1.37597305876702,2.37377361348711,1.99464996024512,2144.796,2144.856,2141.786,2143.934,359.425628662109,44.9953117370605,0.227901354432106,-1.09211087226868,-0.469768285751343,0.676172137260437,-1.09559602313537,-0.471404361345641,0.678226128796969,0
2.37999725341797,-1.39897894859314,2.36391997337341,2.00900435447693,-1.39790005743958,2.36433903852774,2.00822381695123,2140.223,2141.753,2141.915,2143.405,359.506927490234,44.995361328125,0.195207819342613,-1.09406518936157,-0.470612525939941,0.677360832691193,-1.09742530100382,-0.472191448508328,0.679358538938131,0
2.40000152587891,-1.42089366912842,2.35449314117432,2.02257323265076,-1.4198692197338,2.35488632173988,2.02182377494768,2139.774,2140.322,2139.006,2140.634,359.589202880859,44.9953117370605,0.162382140755653,-1.09574091434479,-0.471337914466858,0.67844831943512,-1.09897493039424,-0.472858210743393,0.680317833349887,0
2.41999816894531,-1.44283652305603,2.34505414962769,2.03616094589233,-1.44185817738692,2.34542508756209,2.03543598721428,2139.548,2139.274,2135.01,2138.055,359.671234130859,44.9951362609863,0.130078122019768,-1.09713542461395,-0.47194242477417,0.679382562637329,-1.10024313330221,-0.473403883025206,0.681102911362803,0
2.44000244140625,-1.4648015499115,2.33560585975647,2.04976153373718,-1.46387808506052,2.33595053645515,2.04906735901791,2134.793,2136,2135.408,2137.654,359.753326416016,44.9951667785645,0.0970661416649818,-1.09825015068054,-0.472425282001495,0.680032670497894,-1.10123038958312,-0.473828671822132,0.681714070030222,0
2.45999908447266,-1.48678314685822,2.3261501789093,2.06337380409241,-1.48590651627916,2.32647231790489,2.06270400730194,2135.44,2135.139,2131.599,2134.274,359.83544921875,44.9950561523438,0.0644234865903854,-1.09908485412598,-0.472788691520691,0.680610775947571,-1.10193556692257,-0.474132089930926,0.682150608395601,0
2.48000335693359,-1.50877594947815,2.31668949127197,2.07699203491211,-1.50795464064698,2.31698562594271,2.07635284658344,2130.696,2132.212,2131.97,2133.597,359.917938232422,44.9951362609863,0.0311877820640802,-1.0996401309967,-0.473031610250473,0.680909931659698,-1.10235893238473,-0.47431425226183,0.68241269178437,0
2.5,-1.53077435493469,2.30722641944885,2.09061479568481,-1.52999999932945,2.30750012397766,2.08999997377396,2131.449,2131.344,2128.033,2130.278,0.000684422964695841,44.9950408935547,-0.00159305089619011,-1.09991466999054,-0.473154991865158,0.681139230728149,-1.10250000050292,-0.474374949932098,0.682500019669533,0
2.52000427246094,-1.55277252197266,2.29776334762573,2.1042366027832,-1.55205376834272,2.29801100328223,2.10365230735988,2126.987,2128.339,2128.056,2129.774,0.0838798508048058,44.9950981140137,359.965026855469,-1.09990918636322,-0.473157227039337,0.681094348430634,-1.10235882472314,-0.474314205938057,0.682412625136718,0
2.54000091552734,-1.57476496696472,2.28830289840698,2.1178560256958,-1.57409348237975,2.28852793005043,2.11729594024597,2127.914,2127.565,2123.886,2126.431,0.16713872551918,44.994987487793,359.932098388672,-1.09962153434753,-0.47303894162178,0.680976331233978,-1.10193556692257,-0.474132089930926,0.682150608395601,0
2.55999755859375,-1.59674608707428,2.27884674072266,2.13146758079529,-1.59612191359838,2.27904971150017,2.13093258853001,2123.433,2124.596,2123.893,2125.961,0.250598669052124,44.9950370788574,359.898620605469,-1.09905362129211,-0.472799092531204,0.680578947067261,-1.10123038958312,-0.473828671822132,0.681714070030222,0
2.58000183105469,-1.61871016025543,2.2693977355957,2.14506888389587,-1.61814182127198,2.26957516039323,2.14456396033363,2122.693,2123.274,2121.411,2123.138,0.334587037563324,44.9950256347656,359.865173339844,-1.09820353984833,-0.47243869304657,0.680068016052246,-1.10024313330221,-0.473403883025206,0.681102911362804,0
2.59999847412109,-1.64065146446228,2.25995874404907,2.15865707397461,-1.64013077892511,2.26011392621545,2.15817617260023,2122.581,2122.077,2117.588,2120.702,0.41806098818779,44.9948806762695,359.832305908203,-1.09707069396973,-0.471956551074982,0.679411828517914,-1.09897493039424,-0.472858210743393,0.680317833349887,0
2.62000274658203,-1.66256487369537,2.2505316734314,2.17222666740417,-1.66209994121933,2.25066120942759,2.17177613059669,2118.001,2118.965,2117.887,2120.339,0.501354873180389,44.9949417114258,359.798889160156,-1.09565913677216,-0.471353024244308,0.678479790687561,-1.09742530100382,-0.472191448508328,0.679358538938131,0
2.63999938964844,-1.68444395065308,2.24111890792847,2.18577599525452,-1.68402693989188,2.24122663446822,2.18534998730279,2118.511,2118.132,2114.394,2117.014,0.584374845027924,44.9948616027832,359.765930175781,-1.09396696090698,-0.470629662275314,0.677468001842499,-1.09559602313537,-0.471404361345641,0.67822612879697,0
2.66000366210938,-1.7062840461731,2.23172330856323,2.19929981231689,-1.70592290617745,2.23180541187802,2.19890463348308,2114.042,2115.394,2114.63,2116.351,0.667550981044769,44.9949607849121,359.732543945313,-1.09199810028076,-0.469786822795868,0.67619127035141,-1.09348640563071,-0.470496651869278,0.67692017506657,0
2.68000030517578,-1.72807908058167,2.22234678268433,2.21279668807983,-1.72776555581996,2.22240712994983,2.2124262741215,2114.869,2114.381,2110.811,2113.291,0.7506223320961,44.9948844909668,359.699645996094,-1.08974969387054,-0.468824535608292,0.674841642379761,-1.09109887036509,-0.469469362144494,0.675442177003072,0
2.70000457763672,-1.74982357025146,2.21299195289612,2.22626113891602,-1.74956598821573,2.2130270129235,2.22592178027309,2110.52,2111.719,2110.834,2112.693,0.833823919296265,44.9949722290039,359.666320800781,-1.08722579479218,-0.467743039131165,0.673224627971649,-1.08843251702753,-0.468322104792631,0.6737915772711,0
2.72000122070313,-1.77151203155518,2.2036612033844,2.23969173431396,-1.77130202882336,2.20367460188472,2.23937742484041,2111.482,2110.883,2106.89,2109.516,0.916739702224731,44.9948806762695,359.633575439453,-1.08442306518555,-0.466542184352875,0.671533346176147,-1.08549040888332,-0.467056197851165,0.671970272177789,0
2.73999786376953,-1.79313898086548,2.19435667991638,2.25308322906494,-1.79297647980783,2.19434869114016,2.25279494249708,2107.123,2108.111,2106.941,2109.103,0.999554991722107,44.9949607849121,359.600402832031,-1.08134686946869,-0.46522268652916,0.669572412967682,-1.08227271937422,-0.465671715947234,0.669978369091845,0
2.76000213623047,-1.81469881534576,2.18508100509644,2.26643323898315,-1.81459207318004,2.18504810518187,2.26617602448799,2106.539,2106.791,2104.552,2106.45,1.0825480222702,44.9949645996094,359.5673828125,-1.07799446582794,-0.463784873485565,0.667502224445343,-1.07877930973132,-0.464168599372462,0.667815782108711,0
2.77999877929688,-1.836186170578,2.17583632469177,2.27973914146423,-1.83612684690458,2.17578229366013,2.27950707526701,2106.464,2105.673,2100.958,2104.111,1.16470074653625,44.9948425292969,359.535034179688,-1.07436668872833,-0.46222847700119,0.665289700031281,-1.07501419914593,-0.462548577472581,0.665484999299265,0
2.80000305175781,-1.85759544372559,2.16662502288818,2.29299545288086,-1.85759178470316,2.16654653058634,2.29279489428112,2101.965,2102.842,2101.367,2103.76,1.24641394615173,44.9949226379395,359.502288818359,-1.0704699754715,-0.460555166006088,0.662811160087585,-1.07097597819164,-0.460811043810786,0.662985148161422,0
2.81999969482422,-1.87892162799835,2.15744972229004,2.30620074272156,-1.87896509797278,2.15735019098767,2.30602599334712,2102.68,2102.041,2097.99,2100.563,1.3275488615036,44.9948768615723,359.470153808594,-1.06630110740662,-0.458765357732773,0.660259604454041,-1.06666929835407,-0.458957999791384,0.660319108186353,0
2.84000396728516,-1.9001590013504,2.14831280708313,2.31934976577759,-1.90025771011236,2.14818857483073,2.3192071345693,2098.344,2099.294,2098.27,2100.242,1.40853023529053,44.9949798583984,359.437622070313,-1.06186723709106,-0.45686087012291,0.657452642917633,-1.06209255378819,-0.456988754464129,0.657485885279497,0
2.86000061035156,-1.921302318573,2.13921594619751,2.33244132995605,-1.9214480311499,2.13907097167731,2.33232495272651,2099.325,2098.574,2094.625,2097.079,1.48904705047607,44.994930267334,359.405731201172,-1.05716395378113,-0.454841375350952,0.654577732086182,-1.05725102347782,-0.454905579228273,0.654488747383304,0
2.87999725341797,-1.9423463344574,2.13016176223755,2.34547019004822,-1.94253888918396,2.12999616467562,2.34538119854648,2095.116,2096.087,2094.726,2096.649,1.56935155391693,44.9950294494629,359.373626708984,-1.05219888687134,-0.452708631753922,0.65144670009613,-1.05214490868305,-0.452708560680416,0.651327819087361,0
2.90000152587891,-1.96328568458557,2.12115263938904,2.35843443870544,-1.96353299953007,2.12096298550123,2.3583775529389,2094.761,2094.754,2092.35,2094.223,1.64964282512665,44.9950523376465,359.341705322266,-1.04696846008301,-0.450462222099304,0.648214936256409,-1.04677411523767,-0.450397658303471,0.648003042098304,0
2.91999816894531,-1.98411512374878,2.11219024658203,2.37133145332336,-1.98440911693069,2.11198057539494,2.37130086407726,2094.775,2093.731,2088.897,2092.018,1.72886431217194,44.9949493408203,359.310546875,-1.04147446155548,-0.448102176189423,0.64484566450119,-1.04114485287423,-0.447975543971863,0.644518260536375,0
2.94000244140625,-2.00482940673828,2.10327792167664,2.38415598869324,-2.00517798053537,2.10304431360073,2.38415778000673,2090.5,2091.181,2089.287,2091.677,1.80738413333893,44.9950408935547,359.279144287109,-1.03572511672974,-0.445630967617035,0.641222715377808,-1.03525504859546,-0.445441325732794,0.640872191117535,0
2.95999908447266,-2.0254237651825,2.09441685676575,2.39690661430359,-2.02581860575671,2.0941632292003,2.39693531026807,2091.35,2090.251,2086.057,2088.814,1.88499546051025,44.9949913024902,359.248382568359,-1.02971637248993,-0.443048596382141,0.637531518936157,-1.02911152474823,-0.442797939051516,0.637069057199471,0
2.98000335693359,-2.04589295387268,2.08560967445374,2.40957856178284,-2.04634164528706,2.08533273863774,2.40964004938531,2087.073,2087.93,2086.495,2088.378,1.96216332912445,44.9951210021973,359.217407226563,-1.02345788478851,-0.440358281135559,0.633594214916229,-1.02271203275434,-0.440044416427654,0.633107466805174,0
3,-2.0662317276001,2.07685828208923,2.42217040061951,-2.06672639957428,2.07656174835205,2.42225918334961,2088.048,2087.152,2083.186,2085.475,2.03864669799805,44.9950866699219,359.187164306641,-1.01694452762604,-0.43755915760994,0.629594624042511,-1.01606400046349,-0.437183953857422,0.628992018127441,0
3.02000427246094,-2.08643531799316,2.06816554069519,2.4346776008606,-2.0869834279768,2.06784571494631,2.43479924890685,2084.205,2084.863,2083.216,2085.13,2.11468505859375,44.9952011108398,359.156799316406,-1.01018583774567,-0.434653908014297,0.625359356403351,-1.00916501115878,-0.434215511495054,0.624721215103391,0
3.04000091552734,-2.10649919509888,2.0595326423645,2.44709873199463,-2.10709234004513,2.05919341186127,2.44724762339747,2085.261,2084.029,2079.803,2082.423,2.18982195854187,44.9951438903809,359.127105712891,-1.00317716598511,-0.431641340255737,0.621056795120239,-1.00202309041976,-0.43114254252322,0.620300025949072,0
3.05999755859375,-2.12641787528992,2.05096197128296,2.45942902565002,-2.12705600675913,2.05060360379452,2.45960608409476,2081.279,2081.817,2080.019,2082.113,2.26431441307068,44.995246887207,359.097290039063,-0.995928943157196,-0.428524941205978,0.616514980792999,-0.994638524886308,-0.427965170275055,0.615728628108227,0
3.08000183105469,-2.14618635177612,2.04245615005493,2.47166657447815,-2.14687713595163,2.04207512564123,2.47187630727625,2081.042,2080.726,2077.931,2079.775,2.3383584022522,44.995288848877,359.06787109375,-0.988437116146088,-0.42530432343483,0.611882567405701,-0.987011339258122,-0.424683405378145,0.611007036871143,0
3.09999847412109,-2.16580033302307,2.03401660919189,2.48380899429321,-2.16653584520328,2.033616532251,2.4840459847772,2081.157,2079.76,2074.835,2077.827,2.41098165512085,44.9952011108398,359.039276123047,-0.980705261230469,-0.421980202198029,0.607126116752625,-0.979150439632689,-0.421301079877433,0.606140765536421,0
3.12000274658203,-2.18525552749634,2.02564525604248,2.49585175514221,-2.18604243256806,2.0252233926589,2.49612149158362,2077.189,2077.458,2075.3,2077.662,2.48257374763489,44.9953117370605,359.010620117188,-0.972743391990662,-0.41855600476265,0.602138638496399,-0.971053025860989,-0.417816988947023,0.601128080678429,0
3.13999938964844,-2.2045464515686,2.01734471321106,2.50779342651367,-2.20537738341953,2.01690410346351,2.50809074721212,2077.835,2076.733,2072.667,2074.98,2.55305075645447,44.9953079223633,358.982696533203,-0.964547157287598,-0.415031671524048,0.597086548805237,-0.962728579444533,-0.414235212212131,0.595974851798267,0
3.16000366210938,-2.22366881370544,2.00911664962769,2.51962995529175,-2.22455088103183,2.00865428308644,2.51996005559448,2074.369,2074.638,2072.797,2074.68,2.62278151512146,44.9954414367676,358.954742431641,-0.956127405166626,-0.41141077876091,0.591826915740967,-0.954174163352092,-0.410554485950274,0.590679260733698,0
3.18000030517578,-2.24261856079102,2.00096273422241,2.53136014938354,-2.24354380138856,2.00048216005771,2.53171757805356,2075.262,2074.022,2069.867,2072.085,2.69142627716064,44.995433807373,358.927612304688,-0.947479724884033,-0.407692551612854,0.586504817008972,-0.94539982440085,-0.406779133026206,0.58524752694315,0
3.19999694824219,-2.26139068603516,1.99288499355316,2.54297947883606,-2.2623590635174,1.99238647840124,2.54336512160655,2071.734,2071.965,2070.028,2071.936,2.75925254821777,44.9955558776855,358.900512695313,-0.938615798950195,-0.403880536556244,0.580971002578735,-0.936405971974636,-0.402909329586355,0.579679903854719,0
3.22000122070313,-2.2799813747406,1.98488545417786,2.55448651313782,-2.28099938900442,1.98436606709459,2.55490437104486,2071.648,2071.01,2068.08,2069.836,2.82636642456055,44.9955978393555,358.873901367188,-0.929531693458557,-0.399974256753922,0.575356185436249,-0.927192788821982,-0.398945154262308,0.573976504598449,0
3.23999786376953,-2.29838609695435,1.97696602344513,2.56587910652161,-2.29944628156995,1.97642888457015,2.56632387629027,2071.701,2070.141,2065.387,2068.146,2.89188623428345,44.995548248291,358.84814453125,-0.920232176780701,-0.395975023508072,0.569626271724701,-0.917771149318993,-0.394891285994308,0.568144060931169,0
3.26000213623047,-2.31660079956055,1.96912801265717,2.577152967453,-2.31770961544581,1.96857068222185,2.57762974996267,2068.304,2068.119,2065.7,2068.023,2.95612812042236,44.995662689209,358.822418212891,-0.910727560520172,-0.391886502504349,0.563694298267365,-0.90813782126959,-0.39074633405868,0.562180571969535,0
3.27999877929688,-2.3346209526062,1.96137404441833,2.58830690383911,-2.33577134012187,1.96079922667992,2.58881081793642,2068.959,2067.594,2063.342,2065.542,3.01893329620361,44.9956665039063,358.797576904297,-0.901014089584351,-0.387708693742752,0.557702839374542,-0.898304216251578,-0.386515208538549,0.556093102023818,0
3.30000305175781,-2.3524432182312,1.95370531082153,2.59933733940125,-2.35364119854729,1.95311032582551,2.59987311156116,2065.838,2065.671,2063.523,2065.434,3.08064532279968,44.995792388916,358.772827148438,-0.891103863716125,-0.383445739746094,0.551526010036469,-0.888267004546666,-0.382196476749158,0.549879589839776,0
3.31999969482422,-2.37006282806396,1.94612336158752,2.61024308204651,-2.37130160722417,1.94551154534655,2.61080574581408,2066.586,2065.126,2061.09,2063.154,3.1410071849823,44.9958000183105,358.748931884766,-0.880993187427521,-0.379097282886505,0.545292913913727,-0.878038122530657,-0.377795274579551,0.543547424602645,0
3.34000396728516,-2.38747692108154,1.93862962722778,2.62102055549622,-2.38876217417054,1.9379987511813,2.62161466851603,2063.619,2063.503,2061.174,2062.899,3.20025968551636,44.995922088623,358.725280761719,-0.870694041252136,-0.374667406082153,0.538879811763763,-0.867614155697521,-0.373310132863173,0.537094492570531,0
3.36000061035156,-2.40468072891235,1.93122661113739,2.63166880607605,-2.406005803634,1.93057929915441,2.6322892965819,2064.402,2062.888,2058.786,2060.822,3.25809097290039,44.9959259033203,358.702514648438,-0.86020302772522,-0.370155274868011,0.532412111759186,-0.857007552155826,-0.36874640767338,0.530528499715627,0
3.37999725341797,-2.42167139053345,1.92391526699066,2.64218425750732,-2.42303550945299,1.9232518924954,2.64283149572124,2061.723,2061.201,2058.724,2060.722,3.31463217735291,44.9960250854492,358.679962158203,-0.849532186985016,-0.365565031766891,0.525774300098419,-0.846218976345105,-0.364104384899943,0.523849857357654,0
3.40000152587891,-2.43844532966614,1.91669726371765,2.65256547927856,-2.43985407218584,1.9160153348077,2.65324298723213,2061.451,2060.414,2057.323,2059.061,3.36997628211975,44.9960861206055,358.657958984375,-0.838679909706116,-0.360897064208984,0.519060134887695,-0.835248923368004,-0.359384277571698,0.517058871988738,0
3.41999816894531,-2.45499801635742,1.9095743894577,2.66281056404114,-2.45644516534361,1.90887665092339,2.66351366424015,2061.572,2059.776,2055.187,2057.583,3.42344903945923,44.9960708618164,358.636901855469,-0.82765132188797,-0.356153130531311,0.512255430221558,-0.824110582941664,-0.354591760855451,0.510163708672097,0
3.44000244140625,-2.47132730484009,1.90254759788513,2.67291641235352,-2.47281804716281,1.90183185728196,2.67364925803476,2058.886,2058.215,2055.412,2057.473,3.47529888153076,44.9961776733398,358.616180419922,-0.816457390785217,-0.351337432861328,0.505289316177368,-0.812800388649434,-0.349725300221754,0.503162159625937,0
3.45999908447266,-2.48742890357971,1.89561867713928,2.6828818321228,-2.48895692832918,1.89488774758421,2.68363999427827,2059.381,2057.697,2053.619,2055.603,3.52540016174316,44.9962120056152,358.596343994141,-0.805096209049225,-0.34645015001297,0.498272866010666,-0.801332006385299,-0.344790775723006,0.496062684689628,0
3.48000335693359,-2.50330066680908,1.88878870010376,2.69270396232605,-2.50487092366784,1.88804039997555,2.69349151548162,2056.866,2056.294,2053.836,2055.46,3.57407569885254,44.9963455200195,358.576843261719,-0.793579876422882,-0.341495960950851,0.491110146045685,-0.78970183472369,-0.339786637766397,0.488863054409187,0
3.5,-2.51893854141235,1.88205921649933,2.70238208770752,-2.5205447997813,1.88129636896134,2.70319439144611,2057.575,2055.834,2051.917,2053.692,3.62110257148743,44.9963798522949,358.558288574219,-0.781906366348267,-0.336474627256393,0.483905971050262,-0.777924000354857,-0.334718964672089,0.481572013878822,0
3.52000427246094,-2.53434038162231,1.87543129920959,2.71191334724426,-2.53598752699493,1.87465179486116,2.71275417523047,2055.287,2054.557,2051.972,2053.595,3.66664958000183,44.996509552002,358.540130615234,-0.770087897777557,-0.331390500068665,0.476562112569809,-0.765994882555673,-0.32958619854407,0.474187321698442,0
3.54000091552734,-2.54950284957886,1.8689067363739,2.72129702568054,-2.55118444594166,1.86811298519115,2.72216179198813,2056.069,2054.145,2050.055,2051.939,3.71038842201233,44.996524810791,358.522888183594,-0.758122682571411,-0.32624351978302,0.469178944826126,-0.753929052770513,-0.324394609067776,0.466717998286246,0
3.55999755859375,-2.56442332267761,1.86248564720154,2.73053026199341,-2.56613872308604,1.86167857751006,2.73141920191151,2053.863,2052.861,2050.165,2051.974,3.75245571136475,44.9966430664063,358.506042480469,-0.74602335691452,-0.321038335561752,0.461661577224731,-0.741727567798258,-0.319144650954242,0.459164697851087,0
3.58000183105469,-2.57909941673279,1.85617017745972,2.73961210250854,-2.58085326729328,1.85534732021446,2.74052820572674,2053.74,2052.457,2049.163,2050.544,3.7929470539093,44.9967308044434,358.490020751953,-0.733789563179016,-0.315775752067566,0.454091280698776,-0.729391385793765,-0.313836736470737,0.451528013536464,0
3.59999847412109,-2.59352803230286,1.84996116161346,2.74854135513306,-2.59531431270705,1.84912513636775,2.74948028171299,2054.049,2051.845,2047.474,2049.604,3.83128666877747,44.9967422485352,358.474945068359,-0.7214275598526,-0.310457825660706,0.446459174156189,-0.716935713767317,-0.308477408768949,0.443817359206151,0
3.62000274658203,-2.60770678520203,1.8438595533371,2.75731539726257,-2.60953046793176,1.84300832192796,2.75828075900647,2051.876,2050.749,2047.825,2049.618,3.86769247055054,44.9968643188477,358.460357666016,-0.708948731422424,-0.305089086294174,0.438703715801239,-0.704356955827444,-0.303065120637236,0.436030508832034,0
3.63999938964844,-2.62163400650024,1.83786594867706,2.76593375205994,-2.6234885835008,1.83700253474321,2.76692149746096,2052.604,2050.52,2046.366,2048.092,3.9019935131073,44.9969024658203,358.446807861328,-0.696352362632751,-0.299670249223709,0.43092343211174,-0.691670720740692,-0.297606588091786,0.428177124984152,0
3.66000366210938,-2.63530707359314,1.83198189735413,2.77439427375793,-2.63719712493647,1.83110413233575,2.77540773763803,2050.4,2049.46,2046.881,2048.246,3.9345235824585,44.9970550537109,358.433746337891,-0.683651804924011,-0.294206351041794,0.423029273748398,-0.678873453515702,-0.29210028151913,0.420255006953505,0
3.68000030517578,-2.64872407913208,1.82620799541473,2.78269672393799,-2.65064357486757,1.82531850058072,2.78373173068862,2051.397,2049.222,2045.315,2046.867,3.96506357192993,44.9970970153809,358.421722412109,-0.670845448970795,-0.288697391748428,0.415124207735062,-0.665981146317811,-0.286553081901244,0.412274054652249,0
3.69999694824219,-2.66188311576843,1.8205451965332,2.79083895683289,-2.66383127580226,1.81964420129024,2.79189554578451,2049.565,2048.343,2045.566,2047.004,3.99373769760132,44.9972343444824,358.410247802734,-0.657946646213531,-0.283148348331451,0.407115995883942,-0.65299527533123,-0.280965624398954,0.404235181908735,0
