t,x_s1,x_s2,x_s3,x_s_d1,x_s_d2,x_s_d3,propellers_rpms1,propellers_rpms2,propellers_rpms3,propellers_rpms4,rollRad,pitchRad,yawRad,v_s1,v_s2,v_s3,v_s_d1,v_s_d2,v_s_d3,insideCount
0,-0.0599999986588955,2.94000005722046,1.17999994754791,-0.0599999986588955,2.94000005722046,1.17999994754791,0,0,0,0,0,0,0,0,0,0,-1.06581410364015E-15,4.44089209850063E-16,4.44089209850063E-16,0
0.0199966430664063,-0.0599999986588955,2.94000005722046,1.17811644077301,-0.0600018680476204,2.93999925287472,1.18000110478858,0,0,0,0,-0.01635288,0.0001297794,-0.01587137,-1.10653664009419E-09,-7.76775763711157E-08,-0.0941759571433067,-0.000279892991557604,-0.000120430134961378,0.000173267094926113,5
0.0400009155273438,-0.0599999986588955,2.94000005722046,1.17242503166199,-0.0600148724204753,2.93999365745638,1.18000915511487,0,0,0,0,-0.03270202,0.0005238493,-0.03175127,-1.08383135799528E-09,-7.60859677484405E-08,-0.284568399190903,-0.00111101934050116,-0.00047804058392963,0.00068777389696065,5
0.05999755859375,-0.0599058866500854,2.93990302085876,1.16596508026123,-0.0600498857373401,2.93997859220429,1.18003083002592,1868.27,3252.824,3183.801,1722.357,-0.04942241,0.0003296775,-0.01369504,0.00470564980059862,-0.00484918104484677,-0.322997689247131,-0.00247936261166862,-0.00106680046642749,0.00153484356504269,5
0.0800018310546875,-0.0598203726112843,2.93960738182068,1.16000318527222,-0.0601175574246769,2.93994947496775,1.18007272202403,1925.364,2314.317,3252.246,2829.49,-0.07543351,-0.002136388,0.02094843,0.00427573919296265,-0.0147787891328335,-0.298095911741257,-0.00437268608126799,-0.00188144466206175,0.00270690098422899,5
0.0999984741210938,-0.059937447309494,2.93904495239258,1.15498661994934,-0.0602281887669101,2.93990187339187,1.18014120809498,980.2372,1498.911,3914.859,3896.574,-0.1031975,-0.008062987,0.06330875,-0.00585373677313328,-0.028117036446929,-0.250827461481094,-0.00677637982016689,-0.00291568692648091,0.00419490191241918,4
0.1199951171875,-0.0604638569056988,2.93818354606628,1.15081322193146,-0.0603918861403606,2.93983143898525,1.18024254456713,346.2787,980.289,4173.038,4613.417,-0.1214337,-0.0154213,0.1040033,-0.0263204667717218,-0.0430692881345749,-0.208667814731598,-0.00967801353495435,-0.00416417885169243,0.00599115140585487,4
0.139999389648438,-0.0615636371076107,2.93704128265381,1.14728283882141,-0.0606185767455666,2.93973390035084,1.18038287685052,352.8262,747.0457,3975.425,4855.004,-0.1254008,-0.02116734,0.1351078,-0.0549889802932739,-0.0571149066090584,-0.176518499851227,-0.0130660253322238,-0.00562194567796536,0.00808849210174802,4
0.159996032714844,-0.06334088742733,2.93568086624146,1.14427483081818,-0.0609176604100223,2.93960521300545,1.18056802388615,821.1029,815.0446,3462.452,4692.423,-0.1184585,-0.02352423,0.1522707,-0.0888624936342239,-0.0680151432752609,-0.150400519371033,-0.0169249902365933,-0.00728235046931681,0.0104773752055438,3
0.180000305175781,-0.0658469572663307,2.9341721534729,1.1418251991272,-0.0612986871007165,2.9394412678651,1.18080389755851,1348.692,1083.309,3006.842,4255.214,-0.1079795,-0.02278015,0.1557781,-0.125303447246552,-0.0754309222102165,-0.12247883528471,-0.0212451141043368,-0.00914117907931815,0.0131517376757159,3
0.199996948242188,-0.0690850466489792,2.93255376815796,1.140061378479,-0.0617704296168641,2.93923829023936,1.18109592864822,1636.519,1381.273,2918.316,3666.303,-0.09982699,-0.02030074,0.1501551,-0.161904409527779,-0.080915279686451,-0.0881902128458023,-0.0260104776919234,-0.0111915819022102,0.0161017247421801,3
0.220001220703125,-0.0730103999376297,2.93082594871521,1.13903558254242,-0.0623420644491781,2.93899233174064,1.18144979784016,1641.322,1580.64,3148.413,3113.049,-0.09583918,-0.01735475,0.1421875,-0.196267932653427,-0.0863866433501244,-0.0512919761240482,-0.03121219533433,-0.0134297356845702,0.019321835755004,3
0.239997863769531,-0.0775501355528831,2.92897343635559,1.1386331319809,-0.0630217183703222,2.93869989564571,1.18187053599376,1524.191,1624.325,3417.624,2777.408,-0.09475687,-0.01467775,0.1377323,-0.226986929774284,-0.0926252380013466,-0.0201238095760345,-0.0368338920540454,-0.0158485947310391,0.02280193382306,3
0.259994506835938,-0.0826390385627747,2.92699217796326,1.13863551616669,-0.0638179029240226,2.93835731967507,1.18236341216003,1438.893,1500.767,3533.425,2744.194,-0.09439041,-0.01258876,0.1393022,-0.254445374011993,-0.0990587621927261,0.000120110809803009,-0.0428651747123285,-0.0184436871643672,0.0265355850983733,3
0.279998779296875,-0.0882449224591255,2.9249005317688,1.1388521194458,-0.0647390625194898,2.93796097043536,1.18293365383054,1400.396,1275.869,3476.773,2977.747,-0.09320957,-0.01110591,0.1456854,-0.280294179916382,-0.104585528373718,0.0108320377767086,-0.0492963837173861,-0.0212108567320638,0.030516809833474,3
0.299995422363281,-0.0943706780672073,2.92273235321045,1.13920676708221,-0.0657923226682404,2.93750778201804,1.18358567203635,1350.853,1061.706,3344.719,3324.851,-0.09053096,-0.009935189,0.1533109,-0.30628764629364,-0.108407072722912,0.0177352707833052,-0.0561105313314725,-0.0241427940851591,0.0347350918094591,3
0.319999694824219,-0.101035997271538,2.92052555084229,1.1397248506546,-0.0669860785243584,2.93699414222283,1.18432466377777,1280.897,941.0722,3237.659,3590.517,-0.08597749,-0.008523713,0.1583596,-0.333266019821167,-0.110342167317867,0.0259051341563463,-0.0633008373176985,-0.0272365818771378,0.0391862337367069,3
0.339996337890625,-0.108251571655273,2.91831207275391,1.14046144485474,-0.068326768706371,2.93641728069206,1.18515461486636,1253.116,944.2364,3170.949,3649.861,-0.07944689,-0.006291984,0.1584758,-0.360779345035553,-0.110679544508457,0.0368293412029743,-0.0708499516420146,-0.0304847548730522,0.0438594951176439,4
0.360000610351563,-0.116003140807152,2.91611480712891,1.14145255088806,-0.0698225328270578,2.93577369517774,1.1860805641102,1319.55,1047.132,3120.97,3498.072,-0.07154796,-0.002963033,0.1534725,-0.387578308582306,-0.109858602285385,0.0495576485991478,-0.0787518717320621,-0.0338847303337087,0.0487511600740379,4
0.379997253417969,-0.124251484870911,2.91394972801208,1.14270746707916,-0.0714791088463715,2.935060916796,1.18710606357981,1455.488,1181.757,3090.585,3231.266,-0.0636144,0.001259197,0.1450374,-0.412417739629745,-0.108257189393044,0.0627452954649925,-0.0869889214763108,-0.0374289027221294,0.0538502862508218,4
0.400001525878906,-0.132943287491798,2.91182637214661,1.14421713352203,-0.0733044112230977,2.93427554017634,1.18823601270221,1579.528,1273.586,3104.973,2981.663,-0.05701828,0.005826499,0.1357476,-0.434589982032776,-0.106165796518326,0.0754813626408577,-0.0955558400788823,-0.0411150084648172,0.0591536169647403,4
0.419998168945313,-0.142023637890816,2.90975022315979,1.14595758914948,-0.0753034649285836,2.93341540321397,1.18947352217404,1631.393,1288.648,3158.752,2844.858,-0.0524403,0.01017587,0.1278573,-0.454017847776413,-0.103802390396595,0.0870231240987778,-0.104434660908044,-0.0449353170220673,0.0646500300148815,4
0.439994812011719,-0.151446059346199,2.90772438049316,1.14789545536041,-0.0774831213880516,2.93247755793201,1.19082283335389,1606.785,1238.003,3219.65,2842.928,-0.04965837,0.01397489,0.1224631,-0.471121430397034,-0.101290814578533,0.0968960076570511,-0.11361726969793,-0.0488863370519643,0.070334502284139,4
0.459999084472656,-0.161176770925522,2.90575170516968,1.14999687671661,-0.0798502821969742,2.93145903476675,1.19228821865812,1541.069,1158.05,3253.025,2938.553,-0.0478847,0.0171853,0.1193438,-0.486535936594009,-0.0986397042870522,0.105068869888783,-0.123096124252221,-0.0529648233581361,0.0762023647937057,4
0.479995727539063,-0.171193599700928,2.90383625030518,1.15223872661591,-0.0824088828700873,2.93035814037613,1.19387211435783,1474.873,1086.383,3247.597,3066.877,-0.04628521,0.01998784,0.1173774,-0.500841021537781,-0.0957776829600334,0.112094268202782,-0.132852887402757,-0.0571628859694044,0.0822422659629699,5
0.5,-0.181481033563614,2.90198349952698,1.15461540222168,-0.085166398670376,2.92917165836334,1.1955791479969,1431.831,1046.306,3216.591,3169.435,-0.04433258,0.02264446,0.1152215,-0.514372646808624,-0.0926381349563599,0.118836715817451,-0.142884000065179,-0.0614789935111996,0.0884520025491718,5
0.519996643066406,-0.192024230957031,2.9001989364624,1.15713441371918,-0.0881260274065667,2.92789821280061,1.19741129917127,1423.448,1045.076,3177.386,3210.543,-0.04192082,0.02537932,0.1118843,-0.527159810066223,-0.0892263203859329,0.125949189066887,-0.153170920546857,-0.0659051680111775,0.0948200963613094,5
0.540000915527344,-0.202804520726204,2.89848613739014,1.15980982780457,-0.0912951145137283,2.92653464315245,1.19937311505516,1445.473,1073.362,3149.186,3184.376,-0.03929388,0.02828951,0.1070481,-0.539014637470245,-0.0856384932994843,0.133767858147621,-0.163710711144578,-0.0704401454577151,0.101344728821151,5
0.55999755859375,-0.213797777891159,2.89684557914734,1.16265273094177,-0.094676112580471,2.92507989413848,1.20146611391775,1484.332,1113.941,3138.38,3114.22,-0.03688691,0.03132839,0.1010576,-0.549663364887238,-0.0820316821336746,0.142146185040474,-0.17448465888317,-0.0750758741803766,0.108014315705644,5
0.580001831054688,-0.224976047873497,2.89527416229248,1.16566789150238,-0.0982762614093182,2.92353085067394,1.20369477754168,1521.104,1148.734,3146.047,3034.731,-0.03512816,0.03434572,0.0946556,-0.558913886547089,-0.078576348721981,0.150758594274521,-0.185490414529404,-0.0798113433697334,0.11482740272751,5
0.599998474121094,-0.236310690641403,2.8937656879425,1.16885125637054,-0.102097262171133,2.92188678079254,1.20606015903275,1540.653,1167.026,3162.984,2979.421,-0.03429299,0.03716107,0.0886183,-0.566732466220856,-0.0754187926650047,0.159168109297752,-0.196709126405959,-0.0846384416756885,0.121772319800455,5
0.6199951171875,-0.247776031494141,2.8923122882843,1.172194480896,-0.106144683970236,2.92014528826426,1.20856570593183,1534.772,1167.253,3182.46,2963.875,-0.03442242,0.03963191,0.08345965,-0.573266386985779,-0.07266516238451,0.16716006398201,-0.208134604141382,-0.0895545055543457,0.128845234789665,5
0.639999389648438,-0.259351283311844,2.89090466499329,1.17568707466125,-0.110424235525481,2.91830391678686,1.21121495220784,1505.884,1156.207,3195.196,2987.534,-0.03534494,0.04169732,0.07930043,-0.57876318693161,-0.0703806728124619,0.174628898501396,-0.219761081350814,-0.0945570538913933,0.136042578028218,5
0.659996032714844,-0.271021097898483,2.88953280448914,1.17932033538818,-0.114936482147704,2.9163624231229,1.21400824781511,1467.691,1144.484,3196.889,3030.935,-0.03677613,0.04338628,0.07590446,-0.583488762378693,-0.0685957297682762,0.18166047334671,-0.231569557951997,-0.0996379114822372,0.143352587560098,5
0.680000305175781,-0.282774060964584,2.88818621635437,1.18308961391449,-0.119688496929273,2.91431776391831,1.21694997133476,1429.619,1139.711,3190.719,3074.714,-0.03844167,0.04477771,0.07288121,-0.587649643421173,-0.067323811352253,0.18846283853054,-0.243559016194652,-0.104796640417365,0.150774633349401,5
0.699996948242188,-0.294601052999496,2.88685464859009,1.1869922876358,-0.124680083855354,2.91217002351282,1.22004000142426,1404.117,1146.26,3177.167,3102.447,-0.04017005,0.04596763,0.06985592,-0.591349363327026,-0.0665730834007263,0.195132374763489,-0.255710395848158,-0.11002503961202,0.158296916205407,5
0.720001220703125,-0.30649334192276,2.88552737236023,1.19102883338928,-0.129918284978346,2.90991617190799,1.22328269744952,1393.333,1162.863,3163.935,3106.597,-0.0419336,0.04702095,0.06662815,-0.594614624977112,-0.0663590878248215,0.201827242970467,-0.268023157655716,-0.11532287703907,0.16591910230247,5
0.739997863769531,-0.31844174861908,2.88419318199158,1.19519948959351,-0.135402141159277,2.90755662179454,1.22667746565781,1392.389,1185.121,3153.271,3094.174,-0.04383297,0.04795278,0.06321798,-0.597420692443848,-0.0667089447379112,0.208532199263573,-0.280478211503383,-0.120681938755799,0.173629373950669,5
0.759994506835938,-0.330436885356903,2.8828399181366,1.19950473308563,-0.14113644597991,2.90508931062815,1.2302272735046,1392.617,1207.584,3149.991,3074.146,-0.04600185,0.04873463,0.05981069,-0.599756181240082,-0.0676615685224533,0.215265110135078,-0.293070637251543,-0.126100107763583,0.181424685349205,5
0.779998779296875,-0.342469692230225,2.88145470619202,1.20394253730774,-0.147126184485884,2.90251209348295,1.23393520697061,1386.645,1226.398,3151.086,3059.727,-0.04853931,0.04931752,0.05665345,-0.601640999317169,-0.0692554637789726,0.221888720989227,-0.305795832832518,-0.131575403921268,0.189302187598958,5
0.799995422363281,-0.35453262925148,2.88002443313599,1.2085086107254,-0.153369252164744,2.89982587587186,1.23779996326238,1375.021,1240.676,3153.354,3054.099,-0.05146931,0.04966167,0.05393398,-0.603148639202118,-0.0715185552835464,0.228304475545883,-0.318634718604462,-0.13709961779199,0.197250069492735,5
0.819999694824219,-0.366620481014252,2.87853503227234,1.2131986618042,-0.159872691993147,2.89702762739878,1.24182590231796,1352.776,1250.894,3156.588,3061.693,-0.054745,0.04973999,0.05175832,-0.604391276836395,-0.0744665265083313,0.23450542986393,-0.331587821991737,-0.142672976311719,0.205268657531342,4
0.839996337890625,-0.378730237483978,2.87697315216064,1.21800684928894,-0.166633637018892,2.89411858163313,1.24601124935738,1326.427,1259.575,3155.478,3078.667,-0.05825612,0.04955988,0.05010165,-0.605488479137421,-0.078095555305481,0.240407705307007,-0.344636106234817,-0.148287288494656,0.213346167053785,4
0.860000610351563,-0.390861332416534,2.87532544136047,1.2229288816452,-0.173659158941841,2.89109569582005,1.2503603820997,1300.087,1269.1,3152.286,3096.979,-0.06187695,0.04915133,0.04886185,-0.606554925441742,-0.0823906511068344,0.246098875999451,-0.357780475378537,-0.153942943326036,0.221483157706883,4
0.879997253417969,-0.403014659881592,2.87357902526855,1.22796022891998,-0.180945630646592,2.88796053060595,1.25487105518773,1277.451,1280.979,3145.124,3113.643,-0.06551536,0.04855458,0.0479178,-0.607668220996857,-0.0873239487409592,0.25156843662262,-0.371001963495383,-0.159631780297098,0.229667888678032,4
0.900001525878906,-0.415192365646362,2.87172174453735,1.23309898376465,-0.188500167066783,2.88471002463366,1.2595476731043,1259.67,1295.194,3138.892,3123.243,-0.06911595,0.04780666,0.04717829,-0.608883738517761,-0.0928692743182182,0.256937116384506,-0.384301823631742,-0.165354338558695,0.237901135662636,4
0.919998168945313,-0.427396863698959,2.86974191665649,1.23834240436554,-0.196318384305134,2.8813460641717,1.26438752200817,1246.599,1310.914,3132.023,3128.264,-0.07266968,0.04693382,0.04661012,-0.610224962234497,-0.0989947617053986,0.262171715497971,-0.397661187980262,-0.171102499820431,0.246171218589148,4
0.939994812011719,-0.439631164073944,2.86762833595276,1.24368941783905,-0.204404317663683,2.87786691294234,1.26939309994354,1236.403,1326.569,3128.64,3128.189,-0.07618398,0.04594829,0.0462337,-0.61171567440033,-0.105674974620342,0.267352819442749,-0.4110765036434,-0.176874735369747,0.254475938044738,4
0.959999084472656,-0.451898634433746,2.86537075042725,1.24913775920868,-0.212762239776093,2.87427073255068,1.27456705187416,1225.965,1340.894,3126.283,3129.405,-0.07967485,0.0448512,0.04610687,-0.613374352455139,-0.112878128886223,0.272419661283493,-0.424544411524882,-0.18266959988136,0.262813214588797,3
0.979995727539063,-0.464203298091888,2.86295938491821,1.25468492507935,-0.22138664033507,2.87055989392801,1.27990596665734,1218.133,1353.4,3124.253,3130.354,-0.08314496,0.04364538,0.04627056,-0.615235149860382,-0.120570383965969,0.277359873056412,-0.438046240701377,-0.188479059778567,0.271171490030365,3
1,-0.476550221443176,2.86038494110107,1.26032972335815,-0.230284798736574,2.86673126495361,1.28541435058594,1205.219,1363.75,3125.044,3136.38,-0.08659002,0.04232674,0.04677226,-0.617343902587891,-0.128720477223396,0.282240033149719,-0.451584000205995,-0.194303979492187,0.279552008056641,3
1.01999664306641,-0.488945037126541,2.85763931274414,1.26606929302216,-0.239450461003889,2.86278753653895,1.29108833215045,1191.893,1372.37,3124.16,3146.487,-0.08996637,0.04090736,0.04760298,-0.619744002819061,-0.137285023927689,0.286977887153625,-0.465139182559269,-0.200136395770846,0.2879433116562,3
1.04000091552734,-0.501394748687744,2.85471487045288,1.27190244197845,-0.24889099213045,2.8587255397331,1.29693247063265,1179.597,1380.06,3124.163,3156.31,-0.09321756,0.03940677,0.048723,-0.622485339641571,-0.146223112940788,0.29165506362915,-0.478714054341683,-0.205977283860805,0.296346803950333,3
1.05999755859375,-0.51390665769577,2.85160517692566,1.27782702445984,-0.258599401509697,2.85454828239877,1.30294243851408,1169.684,1387.571,3121.783,3166.996,-0.09630683,0.03784925,0.05008141,-0.625596940517426,-0.155481591820717,0.296228140592575,-0.492290296490434,-0.211818761581115,0.30475114456651,3
1.08000183105469,-0.526488840579987,2.84830474853516,1.2838431596756,-0.268583149539609,2.85025255453512,1.30912285413647,1161.963,1394.786,3121.121,3175.113,-0.09920488,0.03625764,0.0516289,-0.629106938838959,-0.165015518665314,0.300804436206818,-0.50587040849135,-0.217661904390701,0.313157880805523,3
1.09999847412109,-0.539149224758148,2.84480929374695,1.28995001316071,-0.278834517009062,2.84584167750307,1.31546893894041,1157.103,1401.865,3119.236,3182.571,-0.1019027,0.03465385,0.05332878,-0.633021056652069,-0.174771353602409,0.30534365773201,-0.519436284009554,-0.223498921639497,0.321555803983559,3
1.1199951171875,-0.551896274089813,2.84111523628235,1.29614889621735,-0.289357002179081,2.84131414609862,1.32198285851614,1154.079,1408.182,3120.107,3187.245,-0.1043964,0.03305389,0.05516083,-0.637349307537079,-0.184706971049309,0.309942781925201,-0.532985466132485,-0.229328756186667,0.329943393154705,3
1.13999938964844,-0.564737975597382,2.83721971511841,1.3024400472641,-0.300154365346813,2.83666834237095,1.3286669406667,1151.798,1413.549,3121.008,3192.753,-0.1066878,0.03146908,0.05712165,-0.642086565494537,-0.194772779941559,0.314558535814285,-0.546515580872639,-0.235150386571708,0.338319178707607,3
1.15999603271484,-0.577682673931122,2.83312129974365,1.30882406234741,-0.311217811600473,2.8319080505249,1.33551574092274,1154.442,1417.983,3121.624,3195.454,-0.1087827,0.02991277,0.05919548,-0.647233963012695,-0.204921558499336,0.319199591875076,-0.560008885098767,-0.240956178420931,0.346672176798798,3
1.18000030517578,-0.590738594532013,2.82881903648376,1.3153030872345,-0.322555076427271,2.82702994219644,1.34253404791935,1153.537,1420.97,3125.325,3200.79,-0.110698,0.02838483,0.0613981,-0.652796447277069,-0.21511609852314,0.323952376842499,-0.573468357077025,-0.246747413199059,0.355004231116904,3
1.19999694824219,-0.603913962841034,2.82431292533875,1.32187783718109,-0.334156660511822,2.8220381046756,1.34971598112778,1153.869,1422.733,3127.752,3207.645,-0.1124264,0.02689659,0.0637116,-0.658769130706787,-0.225309297442436,0.328737258911133,-0.58687652428584,-0.252516572968185,0.36330452533874,3
1.22000122070313,-0.617217123508453,2.81960368156433,1.3285505771637,-0.346030421585499,2.81692915700008,1.35706640485806,1155.034,1423.468,3132.008,3213.423,-0.1139513,0.02545832,0.06611153,-0.665158867835999,-0.235465094447136,0.333635777235031,-0.600236516861372,-0.258265004538453,0.371574997167698,3
1.23999786376953,-0.630656182765961,2.81469297409058,1.33532226085663,-0.358166167196084,2.81170748469733,1.36457900949675,1157.988,1423.862,3134.208,3220.158,-0.1152744,0.02408245,0.06856906,-0.671954214572906,-0.245536834001541,0.338587075471878,-0.613531154887641,-0.263985315871967,0.379805011417393,2
1.25999450683594,-0.644239246845245,2.80958318710327,1.34219598770142,-0.3705671011502,2.80637170925886,1.37225577835275,1161.444,1423.512,3138.542,3225.56,-0.1163935,0.02277841,0.07105629,-0.679154098033905,-0.255492329597473,0.343686729669571,-0.626758665639206,-0.269676744214496,0.387993470686331,2
1.27999877929688,-0.657973945140839,2.80427742004395,1.34917378425598,-0.383236695417198,2.80092033679326,1.3800988607405,1165.101,1422.776,3142.261,3231.941,-0.1173122,0.02155543,0.07355025,-0.686738431453705,-0.26529261469841,0.348892569541931,-0.639917282339435,-0.275338529371412,0.396139281255613,2
1.29999542236328,-0.671867787837982,2.79877924919128,1.35625803470612,-0.396163740917024,2.79535819025452,1.38810131770546,1173.651,1421.991,3145.033,3234.884,-0.1180398,0.02042644,0.07601542,-0.694689929485321,-0.274902939796448,0.354209870100021,-0.652990303744023,-0.280963485263868,0.404232104259424,2
1.31999969482422,-0.68592756986618,2.79309320449829,1.36345267295837,-0.409356423791328,2.7896817473746,1.39626821685929,1178.979,1420.358,3151.201,3238.82,-0.1185996,0.01938783,0.07845736,-0.702993810176849,-0.284302294254303,0.359731078147888,-0.665981146317813,-0.286553081901244,0.412274054652251,2
1.33999633789063,-0.700159966945648,2.78722405433655,1.37075984477997,-0.422802873722428,2.78389611561957,1.40459220990988,1185.785,1418.254,3155.73,3243.219,-0.118997,0.01844585,0.08086234,-0.71161824464798,-0.293458849191666,0.365356147289276,-0.678873453515705,-0.29210028151913,0.420255006953505,2
1.36000061035156,-0.714570939540863,2.78117704391479,1.3781830072403,-0.436511415158101,2.77799771321212,1.41307845008695,1193.395,1415.396,3162.139,3245.834,-0.119234,0.0176022,0.08321975,-0.720549285411835,-0.302354276180267,0.371156126260757,-0.691670720740693,-0.297606588091785,0.42817712498415,2
1.37999725341797,-0.729165971279144,2.77495789527893,1.38572418689728,-0.450469530727146,2.77199192602736,1.42171918854144,1202.07,1412.472,3166.38,3249.508,-0.1193304,0.01685823,0.08552065,-0.729755759239197,-0.310960561037064,0.377057611942291,-0.704356955827446,-0.303065120637236,0.436030508832034,2
1.40000152587891,-0.743950426578522,2.76857256889343,1.39338707923889,-0.464685685951852,2.76587511158757,1.43051966583492,1209.723,1408.756,3172.955,3252.676,-0.1192958,0.01621194,0.08775705,-0.739224374294281,-0.319266021251678,0.383145302534103,-0.716935713767318,-0.308477408768949,0.443817359206152,2
1.41999816894531,-0.758928954601288,2.76202750205994,1.40117394924164,-0.47914673136562,2.75965292774086,1.43947174182117,1217.844,1405.097,3177.695,3256.805,-0.119144,0.01566479,0.08991488,-0.74892270565033,-0.327250599861145,0.389343321323395,-0.729391385793766,-0.313836736470737,0.451528013536465,2
1.43999481201172,-0.774105608463287,2.75532937049866,1.4090883731842,-0.493855616658466,2.75332410531803,1.44857724249882,1225.371,1400.886,3184.633,3259.701,-0.1188755,0.01521606,0.09198195,-0.75883424282074,-0.334908336400986,0.395722836256027,-0.7417228873516,-0.319142637088802,0.459161800431646,2
1.45999908447266,-0.789484083652496,2.74848484992981,1.41713261604309,-0.508815552717244,2.74688726276417,1.45783815555978,1232.874,1396.726,3190.212,3263.426,-0.1184963,0.01486604,0.09394836,-0.768923461437225,-0.342225164175034,0.402212232351303,-0.753929052770513,-0.324394609067776,0.466717998286247,2
1.47999572753906,-0.805067360401154,2.74150109291077,1.42530858516693,-0.524012471663969,2.74034845309416,1.46724577231745,1244.654,1393.088,3193.949,3264.075,-0.1180217,0.01461866,0.09579047,-0.779162704944611,-0.349189698696136,0.408801317214966,-0.765994882555672,-0.329586198544069,0.474187321698441,2
1.5,-0.820858001708984,2.73438501358032,1.43362021446228,-0.539455198877605,2.73370387899399,1.4768055561018,1252.028,1388.747,3201.084,3266.181,-0.1174795,0.01446113,0.09752382,-0.789532244205475,-0.355806350708008,0.415580779314041,-0.777924000354858,-0.334718964672088,0.481572013878822,1
1.51999664306641,-0.836857855319977,2.72714352607727,1.4420690536499,-0.555129074991064,2.72695984797977,1.48650843206629,1259.81,1384.502,3206.305,3268.925,-0.1168739,0.01439281,0.09914203,-0.799992561340332,-0.362069606781006,0.422441214323044,-0.789701834723693,-0.339786637766398,0.488863054409188,1
1.54000091552734,-0.853068351745605,2.71978378295898,1.45065784454346,-0.571043070329722,2.72011250037111,1.49635995326965,1267.744,1379.876,3213.19,3269.795,-0.1162017,0.01441013,0.1006409,-0.810525059700012,-0.367985039949417,0.429437279701233,-0.801332006385301,-0.344790775723006,0.496062684689629,1
1.55999755859375,-0.869490206241608,2.71231293678284,1.45938730239868,-0.587181951496087,2.71316839067337,1.50635068951315,1276.807,1375.815,3217.061,3271.395,-0.1154789,0.01450988,0.1020172,-0.821091890335083,-0.373547196388245,0.436474680900574,-0.812800388649436,-0.349725300221754,0.503162159625937,1
1.57999420166016,-0.886123716831207,2.70473766326904,1.46826004981995,-0.603548545866849,2.70612630234534,1.51648239107766,1284.562,1371.306,3223.083,3272.223,-0.1147178,0.01468479,0.1032715,-0.831678628921509,-0.378765910863876,0.443636953830719,-0.824106301004481,-0.354589918457504,0.510161057949003,0
1.59999847412109,-0.90296882390976,2.6970648765564,1.47727715969086,-0.620145926473056,2.69898491314762,1.52675696031579,1290.665,1366.912,3228.161,3274.719,-0.1139247,0.01492911,0.1044056,-0.842252194881439,-0.383645385503769,0.450858414173126,-0.835248923368005,-0.359384277571697,0.517058871988737,0
1.6199951171875,-0.920024573802948,2.68930101394653,1.48643934726715,-0.636958033083316,2.69175113334911,1.53716445517924,1300.182,1363.269,3231.218,3274.581,-0.1131098,0.0152441,0.1054009,-0.852786958217621,-0.388190418481827,0.458112180233002,-0.846214826007804,-0.364102599125749,0.523847288101157,0
1.63999938964844,-0.937289893627167,2.68145251274109,1.49574899673462,-0.653994195024907,2.68442094880091,1.54771065096602,1305.592,1359.069,3237.605,3275.245,-0.1122863,0.01561655,0.1062749,-0.863267719745636,-0.392419397830963,0.465481728315353,-0.857007552155828,-0.368746407673381,0.530528499715628,0
1.65999603271484,-0.954762935638428,2.6735258102417,1.50520586967468,-0.671237824488362,2.67700149677403,1.55838527903188,1311.541,1355.374,3241.292,3276.615,-0.111456,0.01604484,0.1070256,-0.873656868934631,-0.396338880062103,0.472842067480087,-0.867614155697522,-0.373310132863173,0.537094492570531,0
1.68000030517578,-0.972441852092743,2.66552662849426,1.51481091976166,-0.688698391434734,2.66948870260877,1.56919420173384,1317.675,1351.5,3246.401,3276.032,-0.1106139,0.0165234,0.1076531,-0.883941829204559,-0.39996463060379,0.480252683162689,-0.878038122530658,-0.377795274579551,0.543547424602645,0
1.69999694824219,-0.990323722362518,2.65746068954468,1.52456343173981,-0.706358800111611,2.66188992212981,1.58012683598675,1324.363,1348.381,3248.564,3276.401,-0.1097776,0.01704763,0.1081594,-0.894090533256531,-0.403302907943726,0.48762521147728,-0.888267004546665,-0.382196476749158,0.549879589839776,0
1.72000122070313,-1.00840544700623,2.64933323860168,1.53446435928345,-0.724228658537036,2.6542010212754,1.5911891296115,1329.196,1344.857,3253.212,3276.034,-0.1089531,0.01760857,0.1085514,-0.904095470905304,-0.406373709440231,0.495044380426407,-0.898304216251578,-0.386515208538549,0.556093102023817,0
1.73999786376953,-1.02668392658234,2.64114952087402,1.54451262950897,-0.742290383213093,2.64642956573347,1.60237019758524,1333.848,1341.998,3255.415,3276.781,-0.1081494,0.01820214,0.1088309,-0.913926601409912,-0.409187972545624,0.502411961555481,-0.908137821269591,-0.39074633405868,0.562180571969536,0
1.75999450683594,-1.04515540599823,2.63291430473328,1.55470848083496,-0.760546715064628,2.63857437616062,1.61367173667103,1337.361,1338.837,3259.808,3276.186,-0.1073595,0.0188222,0.1090016,-0.923577070236206,-0.411766856908798,0.509795129299164,-0.917767514700581,-0.394889722119545,0.568141810929231,0
1.77999877929688,-1.06381583213806,2.62463188171387,1.56505060195923,-0.779000609654483,2.63063418086074,1.62509557650306,1340.156,1336.116,3262.319,3276.884,-0.1065824,0.0194647,0.109069,-0.933019995689392,-0.414122223854065,0.517106354236603,-0.927192788821983,-0.398945154262308,0.57397650459845,0
1.79999542236328,-1.08266067504883,2.61630630493164,1.57553720474243,-0.797633790944145,2.62261684350262,1.63663040334288,1346.936,1334.383,3262.357,3274.698,-0.1058287,0.02013064,0.1090202,-0.942240297794342,-0.416264712810516,0.524328291416168,-0.936402499096495,-0.402907835303912,0.579677753977713,0
1.81999969482422,-1.10168540477753,2.6079421043396,1.58616840839386,-0.816456197270346,2.61451808789761,1.64828236949435,1348.504,1332.002,3266.226,3274.068,-0.1051155,0.02080422,0.1088825,-0.951235473155975,-0.418218791484833,0.531562268733978,-0.945399824400851,-0.406779133026206,0.585247526943151,0
1.83999633789063,-1.12088513374329,2.59954214096069,1.59694194793701,-0.835449117627072,2.60634596486888,1.66003989195343,1349.835,1330.147,3267.342,3274.91,-0.104438,0.02148395,0.1086579,-0.959978818893433,-0.41999763250351,0.538675129413605,-0.954174163352093,-0.410554485950274,0.590679260733698,0
1.86000061035156,-1.14025449752808,2.59110975265503,1.60785663127899,-0.854622615239374,2.59809614449182,1.6719092003358,1351.608,1328.143,3270.297,3273.11,-0.1037797,0.02216771,0.1083462,-0.968471109867096,-0.421621799468994,0.545736968517303,-0.962728579444532,-0.414235212212131,0.595974851798267,0
1.87999725341797,-1.15978825092316,2.58264780044556,1.61890947818756,-0.873957566090845,2.58977685529642,1.6838784559643,1354.067,1327.034,3269.748,3272.588,-0.1031512,0.02285221,0.1079532,-0.976689159870148,-0.423099011182785,0.552640736103058,-0.971053025860989,-0.417816988947023,0.601128080678429,0
1.90000152587891,-1.1794810295105,2.57415890693665,1.63009905815125,-0.893464153455626,2.58138371570432,1.69595396277071,1355.301,1325.603,3271.542,3270.926,-0.1025525,0.02353125,0.1074857,-0.984637975692749,-0.424448549747467,0.559481561183929,-0.979150439632688,-0.421301079877433,0.606140765536421,0
1.91999816894531,-1.19932699203491,2.56564521789551,1.64142239093781,-0.913122862707269,2.57292512231409,1.70812364027167,1356.019,1324.85,3270.815,3270.934,-0.1019927,0.0242013,0.1069489,-0.992299139499664,-0.425680786371231,0.566165745258331,-0.987011339258123,-0.424683405378145,0.611007036871143,0
1.93999481201172,-1.2193204164505,2.55710887908936,1.65287792682648,-0.932936403420974,2.56439990927123,1.72038916582329,1355.494,1323.759,3272.718,3269.443,-0.1014611,0.02485877,0.1063476,-0.999678611755371,-0.426816135644913,0.572775483131409,-0.994635661494588,-0.427963938237592,0.615726855532351,0
1.95999908447266,-1.23945569992065,2.54855155944824,1.66446220874786,-0.952907658613767,2.55580683609405,1.73275232415044,1353.999,1323.067,3272.749,3269.625,-0.1009503,0.02550168,0.1056896,-1.00675976276398,-0.427864372730255,0.579216957092285,-1.00202309041976,-0.431142542523221,0.620300025949072,0
1.97999572753906,-1.25972628593445,2.53997468948364,1.67617166042328,-0.973016570682103,2.54715453300902,1.74520069864106,1357.192,1323.334,3270.158,3266.57,-0.1004646,0.02613417,0.1049605,-1.01353812217712,-0.428832232952118,0.585472345352173,-1.00916501115878,-0.434215511495054,0.624721215103391,0
2,-1.28012681007385,2.53137993812561,1.68800473213196,-0.993273599084619,2.53843849960327,1.7577407641983,1355.327,1322.989,3271.445,3265.046,-0.1000177,0.02674325,0.104189,-1.02002191543579,-0.429739058017731,0.59165370464325,-1.01606400046349,-0.437183953857422,0.628992018127441,0
2.01999664306641,-1.30065059661865,2.52276825904846,1.69995737075806,-1.01365835337184,2.52966750931758,1.77035989816261,1353.016,1323.024,3270.112,3265.397,-0.09960382,0.02732899,0.103379,-1.02619516849518,-0.430592924356461,0.597631096839905,-1.02271203275434,-0.440044416427654,0.633107466805174,0
2.04000091552734,-1.32129216194153,2.51414012908936,1.7120269536972,-1.0341813929022,2.52083701875502,1.78306463727984,1351.38,1322.848,3270.652,3263.08,-0.09920222,0.02789265,0.1025291,-1.03206861019135,-0.431408047676086,0.603478908538818,-1.02911152474823,-0.442797939051516,0.637069057199471,0
2.05999755859375,-1.3420444726944,2.50549650192261,1.72420883178711,-1.05482201812353,2.5119559343546,1.79584216754118,1350.535,1323.433,3267.878,3262.074,-0.09881765,0.02843351,0.1016443,-1.03762912750244,-0.432185977697372,0.609096586704254,-1.03525504859546,-0.445441325732794,0.640872191117535,0
2.07999420166016,-1.36290240287781,2.49683785438538,1.73650050163269,-1.07558293843174,2.50302309033894,1.80869416619175,1348.783,1323.662,3267.453,3259.832,-0.09844801,0.02894851,0.1007305,-1.04288995265961,-0.43293833732605,0.614582240581512,-1.0411426556922,-0.447974598585819,0.644516900376035,0
2.09999847412109,-1.38385915756226,2.48816442489624,1.74889779090881,-1.09646699912883,2.4940372624541,1.82162239460902,1345.038,1324.058,3265.782,3260.09,-0.09809061,0.02943523,0.09979674,-1.04784321784973,-0.433669298887253,0.619865119457245,-1.04677411523768,-0.450397658303471,0.648003042098304,0
2.1199951171875,-1.40490913391113,2.47947645187378,1.76139640808105,-1.11745308225396,2.48500753716864,1.83461377976925,1345.699,1325.198,3262.052,3257.106,-0.09774387,0.02990107,0.09882574,-1.05249118804932,-0.434380978345871,0.624930799007416,-1.0521429102862,-0.45270770082608,0.651326581984514,0
2.13999938964844,-1.4260458946228,2.47077488899231,1.77399408817291,-1.138551967509,2.47592927627801,1.8476749948214,1341.479,1325.736,3262.187,3255.559,-0.0974147,0.03033608,0.09784315,-1.05684542655945,-0.435086369514465,0.629884958267212,-1.05725102347782,-0.454905579228273,0.654488747383304,0
2.15999603271484,-1.44726395606995,2.46205925941467,1.78668582439423,-1.15974228854654,2.4668116731246,1.86079281297862,1337.962,1326.639,3259.213,3255.402,-0.09709246,0.03074438,0.09684794,-1.06089377403259,-0.4357850253582,0.634588241577148,-1.06209255378819,-0.456988754464129,0.657485885279498,0
2.18000030517578,-1.46855688095093,2.45332956314087,1.79946851730347,-1.18103490068612,2.45765005696766,1.87397395420079,1335.479,1327.262,3258.319,3252.323,-0.09675904,0.03112816,0.09583839,-1.06465148925781,-0.43648362159729,0.639134347438812,-1.06666929835407,-0.458957999791384,0.660319108186354,0
2.19999694824219,-1.48991894721985,2.44458603858948,1.81233704090118,-1.20240821395574,2.44845371736898,1.88720505326679,1333.453,1328.467,3254.238,3251.086,-0.09642348,0.03148757,0.09482092,-1.06810891628265,-0.437176614999771,0.643424093723297,-1.07097597819164,-0.460811043810786,0.662985148161421,0
2.22000122070313,-1.5113445520401,2.4358286857605,1.82528829574585,-1.22387315175433,2.43921795429519,1.90049287228091,1330.438,1329.153,3252.832,3248.649,-0.09608153,0.03182072,0.09379989,-1.07128262519836,-0.437869608402252,0.64756441116333,-1.07501419914593,-0.462548577472581,0.665484999299265,0
2.23999786376953,-1.53282785415649,2.42705750465393,1.83831751346588,-1.24540792547886,2.42995214277345,1.91382392305993,1327.25,1330.252,3248.942,3248.064,-0.09573798,0.03212925,0.09277724,-1.07416582107544,-0.438558101654053,0.651460766792297,-1.07877930973132,-0.464168599372462,0.667815782108711,0
2.25999450683594,-1.554363489151,2.41827249526978,1.85142171382904,-1.26701526177039,2.4206551096063,1.92719989352455,1323.436,1330.878,3247.776,3245.745,-0.09537791,0.03241426,0.09175305,-1.07677412033081,-0.439247369766235,0.655207633972168,-1.08227143928024,-0.465671165158559,0.669977576652695,0
2.27999877929688,-1.57594537734985,2.40947389602661,1.86459612846375,-1.28869796983554,2.41132564607061,1.9406225227075,1318.814,1331.658,3244.882,3245.363,-0.09499229,0.0326778,0.09073201,-1.07910060882568,-0.439931988716125,0.658718287944794,-1.08549040888332,-0.467056197851165,0.67197027217779,0
2.29999542236328,-1.59756863117218,2.40066170692444,1.87783575057983,-1.31043401044317,2.40197323503182,1.95407816727483,1319.706,1333.03,3239.623,3241.335,-0.09458216,0.03292859,0.08969417,-1.0811493396759,-0.440604001283646,0.661982774734497,-1.08843251702753,-0.468322104792631,0.6737915772711,0
2.31999969482422,-1.61922717094421,2.39183640480042,1.89113831520081,-1.33223444283894,2.39259311800549,1.96757367342642,1315.385,1333.77,3238.386,3239.188,-0.09416351,0.0331566,0.0886667,-1.08293390274048,-0.441268086433411,0.66512668132782,-1.09109887036509,-0.469469362144493,0.675442177003072,0
2.33999633789063,-1.64091610908508,2.38299798965454,1.90449869632721,-1.35407709248145,2.38319483607731,1.98109531406483,1311.099,1334.527,3234.693,3238.885,-0.09372782,0.03336602,0.08764838,-1.08444571495056,-0.441917598247528,0.668020308017731,-1.09348640563071,-0.470496651869278,0.67692017506657,0
2.36000061035156,-1.66263008117676,2.37414693832397,1.91791367530823,-1.37597305876702,2.37377361348711,1.99464996024512,1307.905,1334.88,3233.149,3235.703,-0.09325378,0.03356126,0.08663363,-1.08569991588593,-0.442553281784058,0.67075127363205,-1.09559602313537,-0.471404361345641,0.678226128796969,0
2.37999725341797,-1.6843638420105,2.36528348922729,1.93137800693512,-1.39790005743958,2.36433903852774,2.00822381695123,1305.816,1335.705,3228.29,3234.049,-0.09274565,0.03374484,0.08562347,-1.08668804168701,-0.443162560462952,0.673217475414276,-1.09742530100382,-0.472191448508328,0.679358538938131,0
2.39999389648438,-1.70611238479614,2.3564088344574,1.94488871097565,-1.41986083522252,2.35488992936084,2.02181858453579,1303.274,1336.008,3226.068,3230.847,-0.09220237,0.0339166,0.08461896,-1.08742606639862,-0.443744629621506,0.67553299665451,-1.09897439291323,-0.472857979480329,0.680317500623536,0
2.41999816894531,-1.72787046432495,2.34752297401428,1.95844113826752,-1.44185817738692,2.34542508756209,2.03543598721428,1298.769,1336.281,3222.53,3230.595,-0.09162392,0.03407673,0.08362573,-1.08790874481201,-0.444290667772293,0.677624464035034,-1.10024313330221,-0.473403883025206,0.681102911362803,0
2.43999481201172,-1.74963355064392,2.33862709999084,1.97203099727631,-1.46386968334064,2.3359541514805,2.04906215795307,1299.375,1336.905,3217.471,3226.474,-0.09100661,0.03423488,0.08262033,-1.08814108371735,-0.444792419672012,0.679492473602295,-1.10123006676374,-0.473828532921971,0.681713870189648,0
2.45999908447266,-1.77139604091644,2.3297221660614,1.98565578460693,-1.48590651627916,2.32647231790489,2.06270400730194,1294.888,1336.997,3216.087,3224.31,-0.09036212,0.03438324,0.08162647,-1.08813309669495,-0.445251375436783,0.681242346763611,-1.10193556692257,-0.474132089930926,0.682150608395601,0
2.47999572753906,-1.7931535243988,2.32080912590027,1.99931061267853,-1.50794623031618,2.31698924467309,2.07634764018804,1291.682,1337.075,3211.972,3223.128,-0.08967929,0.03452758,0.08063751,-1.08787536621094,-0.445657432079315,0.682741940021515,-1.10235882472314,-0.474314205938057,0.682412625136718,0
2.5,-1.81490111351013,2.31188893318176,2.01299238204956,-1.52999999932945,2.30750012397766,2.08999997377396,1289.755,1336.79,3209.85,3219.122,-0.08894213,0.03467163,0.07964848,-1.08738052845001,-0.44600784778595,0.684085547924042,-1.10250000050292,-0.474374949932098,0.682500019669533,0
2.51999664306641,-1.83663380146027,2.30296325683594,2.02669596672058,-1.55204535801192,2.29801462201262,2.10364710096447,1288.489,1336.83,3204.797,3216.909,-0.08816288,0.03481629,0.07866185,-1.0866402387619,-0.446289300918579,0.685181975364685,-1.10235893238473,-0.47431425226183,0.68241269178437,0
2.54000091552734,-1.85834729671478,2.29403328895569,2.04041886329651,-1.57409348237975,2.28852793005043,2.11729594024597,1286.423,1336.3,3202.427,3213.486,-0.08734156,0.03496124,0.07767825,-1.08566749095917,-0.446499973535538,0.686141073703766,-1.10193556692257,-0.474132089930926,0.682150608395601,0
2.55999755859375,-1.88003635406494,2.28510069847107,2.05415630340576,-1.59612191359838,2.27904971150017,2.13093258853001,1284.217,1335.95,3197.859,3211.938,-0.08648349,0.0351083,0.07669637,-1.08445537090302,-0.446629822254181,0.68687379360199,-1.10123038958312,-0.473828671822132,0.681714070030222,0
2.57999420166016,-1.90169668197632,2.27616715431213,2.06790566444397,-1.61813342708139,2.26957877217893,2.14455876392979,1281.735,1335.115,3195.928,3208.505,-0.08557802,0.03525925,0.07571251,-1.08301520347595,-0.446678310632706,0.687473714351654,-1.10024356351463,-0.47340406813359,0.681103177684783,0
2.59999847412109,-1.92332339286804,2.26723408699036,2.08166289329529,-1.64013077892511,2.26011392621545,2.15817617260023,1278.56,1334.308,3192.359,3207.033,-0.08461928,0.03541629,0.07472844,-1.08133912086487,-0.446635812520981,0.687857747077942,-1.09897493039424,-0.472858210743393,0.680317833349887,0
2.6199951171875,-1.94491219520569,2.25830459594727,2.09542346000671,-1.66209156852628,2.2506648119635,2.17177094750084,1281,1333.794,3186.93,3201.676,-0.08360887,0.03558701,0.07372265,-1.07942867279053,-0.44649201631546,0.688023805618286,-1.09742594550583,-0.472191725819537,0.679358937915576,0
2.63999938964844,-1.96645784378052,2.24937963485718,2.10918521881104,-1.68402693989188,2.24122663446822,2.18534998730279,1278.214,1332.862,3184.803,3198.763,-0.08257078,0.03576217,0.07271934,-1.07729077339172,-0.446247309446335,0.688082695007324,-1.09559602313537,-0.471404361345641,0.67822612879697,0
2.65999603271484,-1.98795604705811,2.24046182632446,2.12294387817383,-1.70591456353497,2.23180900148401,2.19889946898997,1275.945,1331.726,3180.912,3196.841,-0.08149699,0.03594578,0.07171299,-1.07491815090179,-0.445894986391068,0.687927782535553,-1.09348726343002,-0.470497020956359,0.676920706085208,0
2.68000030517578,-2.00940275192261,2.23155307769775,2.13669657707214,-1.72776555581996,2.22240712994983,2.2124262741215,1274.159,1330.225,3178.978,3192.807,-0.08037154,0.03614005,0.0706993,-1.07231914997101,-0.445434361696243,0.687634408473969,-1.09109887036509,-0.469469362144494,0.675442177003072,0
2.69999694824219,-2.03079223632813,2.22265601158142,2.15043878555298,-1.74955768413056,2.21303058593937,2.22591663964878,1273.872,1329.018,3174.035,3189.806,-0.07919975,0.03634749,0.0696754,-1.06948506832123,-0.444854378700256,0.687106311321259,-1.08843358680109,-0.468322565086308,0.673792239511893,0
2.72000122070313,-2.05212092399597,2.21377277374268,2.16416788101196,-1.77130202882336,2.20367460188472,2.23937742484041,1273.388,1327.435,3171.343,3185.27,-0.07798374,0.03656727,0.06864101,-1.06642496585846,-0.444153755903244,0.686449527740479,-1.08549040888332,-0.467056197851165,0.671970272177789,0
2.73999786376953,-2.07338333129883,2.20490646362305,2.17787957191467,-1.79297647980783,2.19434869114016,2.25279494249708,1272.457,1326.002,3166.599,3182.85,-0.07673579,0.03679896,0.06759699,-1.06313133239746,-0.443324834108353,0.685583710670471,-1.08227271937422,-0.465671715947234,0.669978369091845,0
2.75999450683594,-2.09457564353943,2.19605875015259,2.19157147407532,-1.81458384274179,2.18505164650952,2.26617092945464,1270.942,1324.141,3164.406,3178.87,-0.07544948,0.03704309,0.06653988,-1.05961263179779,-0.442369312047958,0.684599995613098,-1.07878069424208,-0.464169195088763,0.667816639186824,0
2.77999877929688,-2.11569309234619,2.18723344802856,2.20524001121521,-1.83612684690458,2.17578229366013,2.27950707526701,1268.507,1322.29,3161.056,3176.595,-0.0741195,0.03730058,0.06547169,-1.05586183071136,-0.441282272338867,0.68342536687851,-1.07501419914593,-0.462548577472581,0.665484999299265,0
2.79999542236328,-2.13673043251038,2.17843222618103,2.21888089179993,-1.85758361379882,2.16655004629821,2.2927898361021,1271.313,1320.683,3155.575,3171.053,-0.07274637,0.03757845,0.06437118,-1.05187773704529,-0.440056711435318,0.682038545608521,-1.07097756992209,-0.460811728687929,0.662986133518392,0
2.81999969482422,-2.1576840877533,2.16965818405151,2.23249220848083,-1.87896509797278,2.15735019098767,2.30602599334712,1270.11,1318.873,3153.518,3166.433,-0.07135034,0.0378679,0.06325985,-1.04766619205475,-0.438696175813675,0.68056333065033,-1.06666929835407,-0.458957999791384,0.660319108186353,0
2.83999633789063,-2.17854833602905,2.16091442108154,2.24606966972351,-1.90024960698239,2.14819206138118,2.31920211834584,1268.09,1316.829,3149.4,3164.446,-0.06993141,0.03816923,0.06213936,-1.04321813583374,-0.437196582555771,0.678877830505371,-1.06209435025759,-0.456989527434725,0.657486997379635,0
2.86000061035156,-2.19931888580322,2.15220332145691,2.25961089134216,-1.9214480311499,2.13907097167731,2.33232495272651,1267.683,1314.479,3147.066,3159.356,-0.06847253,0.03848586,0.06099947,-1.03854191303253,-0.435560315847397,0.677061557769775,-1.05725102347782,-0.454905579228273,0.654488747383304,0
2.87999725341797,-2.21999144554138,2.14352774620056,2.27311158180237,-1.94253888918396,2.12999616467562,2.34538119854648,1267.964,1312.481,3142.121,3155.666,-0.06698383,0.03881729,0.05984126,-1.03362965583801,-0.43378159403801,0.675031185150146,-1.05214490868305,-0.452708560680416,0.651327819087361,0
2.89999389648438,-2.24056124687195,2.13489055633545,2.28656935691833,-1.96352501326936,2.1209664217661,2.35837260906308,1267.498,1310.149,3139.511,3150.801,-0.06546689,0.03916186,0.05866614,-1.02848863601685,-0.431862950325012,0.672884583473206,-1.04677621342161,-0.450398561093403,0.648004340974112,0
2.91999816894531,-2.26102352142334,2.12629461288452,2.2999804019928,-1.98440911693069,2.11198057539494,2.37130086407726,1265.468,1307.8,3135.679,3148.4,-0.06392332,0.0395184,0.0574776,-1.02311313152313,-0.429802119731903,0.670551419258118,-1.04114485287423,-0.447975543971863,0.644518260536375,0
2.93999481201172,-2.28137373924255,2.11774277687073,2.31334090232849,-2.00517008215741,2.10304771205211,2.38415289053452,1268.309,1305.637,3130.474,3142.384,-0.06235206,0.03989293,0.056254,-1.01750421524048,-0.427597284317017,0.66802841424942,-1.03525734386973,-0.445442313325187,0.640873612001643,0
2.95999908447266,-2.30160689353943,2.10923743247986,2.32664918899536,-2.02581860575671,2.0941632292003,2.39693531026807,1266.511,1303.45,3128.255,3138.09,-0.06077174,0.04027649,0.05501729,-1.01166582107544,-0.425253957509995,0.665416181087494,-1.02911152474823,-0.442797939051516,0.637069057199471,0
2.97999572753906,-2.32171869277954,2.10078191757202,2.33990120887756,-2.04633384260397,2.08533609591429,2.40963521915279,1265.102,1301.048,3124.07,3135.129,-0.05917544,0.04067117,0.05376423,-1.00559139251709,-0.422771841287613,0.662598788738251,-1.02271452148052,-0.440045487257004,0.633109007445237,0
3,-2.34170436859131,2.09237885475159,2.35309433937073,-2.06672639957428,2.07656174835205,2.42225918334961,1264.942,1298.499,3121.408,3129.574,-0.05755091,0.04107859,0.05248903,-0.999287605285645,-0.420154601335526,0.659650921821594,-1.01606400046349,-0.437183953857422,0.628992018127441,0
3.01999664306641,-2.36155986785889,2.08403086662292,2.36622428894043,-2.08697572864857,2.06784902775215,2.4347944826559,1265.504,1296.239,3116.206,3125.41,-0.05590987,0.04149782,0.05119329,-0.992748320102692,-0.417399555444717,0.656492292881012,-1.00916768936771,-0.434216663853534,0.624722873042298,0
3.04000091552734,-2.3812792301178,2.07574081420898,2.37928867340088,-2.10709234004513,2.05919341186127,2.44724762339747,1265.228,1293.751,3113.354,3120.069,-0.05425498,0.04192631,0.04987957,-0.985980629920959,-0.414511382579803,0.653223812580109,-1.00202309041976,-0.43114254252322,0.620300025949072,0
3.05999755859375,-2.40085887908936,2.06751108169556,2.39228391647339,-2.12705600675913,2.05060360379452,2.45960608409476,1264.665,1291.406,3108.459,3116.642,-0.05259477,0.04236286,0.04854903,-0.978979766368866,-0.411490201950073,0.649757146835327,-0.994638524886308,-0.427965170275055,0.615728628108227,0
3.07999420166016,-2.42029404640198,2.05934429168701,2.40520763397217,-2.14686960564145,2.04207836572333,2.47187164565552,1263.833,1288.871,3105.889,3111.367,-0.0509223,0.04280734,0.04719979,-0.971753239631653,-0.408342301845551,0.646182000637054,-0.987014293508169,-0.424684676509408,0.611008865692653,0
3.09999847412109,-2.43957996368408,2.05124282836914,2.41805601119995,-2.16653584520328,2.033616532251,2.4840459847772,1261.769,1286.415,3101.906,3108.336,-0.04923599,0.04325852,0.0458366,-0.964296996593475,-0.405068725347519,0.642420530319214,-0.979150439632689,-0.421301079877433,0.606140765536421,0
3.1199951171875,-2.45871210098267,2.04320907592773,2.43082547187805,-2.18603502400946,2.02522658035469,2.49611690533293,1264.919,1284.094,3096.525,3101.486,-0.04753317,0.04372166,0.04444052,-0.95661324262619,-0.401670008897781,0.638469874858856,-0.971056158224178,-0.417818336715394,0.601130019760458,0
3.13999938964844,-2.47768640518188,2.0352463722229,2.44351410865784,-2.20537738341953,2.01690410346351,2.50809074721212,1263.481,1281.936,3093.712,3096.608,-0.04583833,0.04418683,0.04303617,-0.948705613613129,-0.398152083158493,0.634428083896637,-0.962728579444533,-0.414235212212131,0.595974851798267,0
3.15999603271484,-2.496497631073,2.02735614776611,2.45611786842346,-2.22454360124808,2.00865741537402,2.51995554906156,1261.666,1279.466,3089.023,3093.891,-0.04414828,0.04465514,0.04162123,-0.940572202205658,-0.394517719745636,0.630185544490814,-0.95417746870157,-0.410555908149813,0.590681306902481,0
3.18000030517578,-2.51514196395874,2.01954054832458,2.46863460540771,-2.24354380138856,2.00048216005771,2.53171757805356,1261.372,1276.969,3086.324,3087.753,-0.04244706,0.04512838,0.04018765,-0.932221531867981,-0.390773743391037,0.625831425189972,-0.94539982440085,-0.406779133026206,0.58524752694315,0
3.19999694824219,-2.53361511230469,2.01180219650269,2.48106002807617,-2.2623590635174,1.99238647840124,2.54336512160655,1260.742,1274.768,3081.291,3083.813,-0.0407437,0.0456046,0.03874221,-0.923650026321411,-0.386920690536499,0.621276617050171,-0.936405971974636,-0.402909329586355,0.579679903854719,0
3.21999359130859,-2.55191230773926,2.00414276123047,2.49339199066162,-2.28099231507127,1.9843691108104,2.55489999194326,1260.551,1272.388,3077.908,3078.093,-0.03903555,0.04608335,0.03728287,-0.914864718914032,-0.382963359355927,0.616600751876831,-0.927196343299057,-0.398946683654493,0.573978704989081,0
3.23999786376953,-2.57002949714661,1.99656474590302,2.50562715530396,-2.29944628156995,1.97642888457015,2.56632387629027,1258.891,1270.13,3073.519,3074.547,-0.03732846,0.04656213,0.03581626,-0.90586531162262,-0.378904223442078,0.611754238605499,-0.917771149318993,-0.394891285994308,0.568144060931169,0
3.25999450683594,-2.58796238899231,1.98906993865967,2.51776194572449,-2.31770268688992,1.96857366338589,2.57762546085652,1260.773,1267.908,3068.206,3068.444,-0.03562244,0.04704452,0.03432786,-0.896655976772308,-0.374746024608612,0.606735229492188,-0.90814153446928,-0.390747931744771,0.562182870617026,0
3.27999877929688,-2.60570740699768,1.98166012763977,2.52979445457458,-2.33577134012187,1.96079922667992,2.58881081793642,1258.644,1265.932,3065.305,3063.772,-0.0339324,0.04752307,0.03283661,-0.88724148273468,-0.370495587587357,0.601630032062531,-0.898304216251578,-0.386515208538549,0.556093102023818,0
3.29999542236328,-2.62325954437256,1.97433686256409,2.54172110557556,-2.35363442159312,1.95311324175956,2.5998689163037,1256.548,1263.69,3060.764,3060.625,-0.03225141,0.04799957,0.0313402,-0.877623081207275,-0.366157174110413,0.596336007118225,-0.888270870184445,-0.382198140025101,0.549881982853707,0
3.31999969482422,-2.64061570167542,1.96710228919983,2.55353951454163,-2.37130160722417,1.94551154534655,2.61080574581408,1256.249,1261.485,3057.589,3054.398,-0.0305635,0.0484757,0.0298324,-0.867808282375336,-0.36173614859581,0.590924024581909,-0.878038122530657,-0.377795274579551,0.543547424602645,0
3.33999633789063,-2.65777182579041,1.95995724201202,2.56524586677551,-2.38875555478454,1.93800159931817,2.62161057080077,1255.905,1259.519,3052.146,3050.195,-0.02888198,0.04894967,0.0283193,-0.857796609401703,-0.357233375310898,0.585319101810455,-0.867618167158097,-0.373311858882592,0.53709697585572,0
3.36000061035156,-2.67472338676453,1.95290446281433,2.57683825492859,-2.406005803634,1.93057929915441,2.6322892965819,1255.534,1257.461,3048.751,3044.263,-0.02720632,0.04941981,0.02680213,-0.847595810890198,-0.352653920650482,0.579614818096161,-0.857007552155826,-0.36874640767338,0.530528499715627,0
3.37999725341797,-2.69146752357483,1.94594430923462,2.58831286430359,-2.42303550945299,1.9232518924954,2.64283149572124,1254.135,1255.501,3043.462,3040.996,-0.02554717,0.04988467,0.02528556,-0.837207436561584,-0.348000466823578,0.573730170726776,-0.846218976345105,-0.364104384899943,0.523849857357654,0
3.39999389648438,-2.70800065994263,1.93907880783081,2.59966802597046,-2.43984769972619,1.91601807669906,2.65323904237604,1253.083,1253.486,3040.422,3035.323,-0.02389601,0.05034428,0.02376574,-0.826640367507935,-0.343279242515564,0.567755877971649,-0.835253140422974,-0.35938609205264,0.51706148254665,0
3.41999816894531,-2.7243185043335,1.93230891227722,2.61090040206909,-2.45644516534361,1.90887665092339,2.66351366424015,1250.11,1251.599,3036.031,3032.583,-0.02225337,0.05079746,0.02225036,-0.815896570682526,-0.338493257761002,0.561617076396942,-0.824110582941664,-0.354591760855451,0.510163708672097,0
3.43999481201172,-2.74041795730591,1.92563605308533,2.62200665473938,-2.4728118459714,1.90183452548138,2.67364541920187,1252.39,1249.642,3030.809,3025.692,-0.02060967,0.05124956,0.02072028,-0.80498218536377,-0.333645135164261,0.555318534374237,-0.812804733542555,-0.349727169707881,0.503164849321754,0
3.45999908447266,-2.75629615783691,1.91906118392944,2.63298535346985,-2.48895692832918,1.89488774758421,2.68363999427827,1250.632,1248.182,3027.285,3020.864,-0.01898834,0.05169263,0.01919912,-0.793900966644287,-0.328738957643509,0.548938393592834,-0.801332006385299,-0.344790775723006,0.496062684689628,0
3.47999572753906,-2.77194929122925,1.91258573532104,2.64383316040039,-2.50486489870395,1.88804299234919,2.69348778574196,1248.472,1246.284,3022.659,3017.757,-0.01738725,0.05212733,0.01768682,-0.782658219337463,-0.323779076337814,0.542396247386932,-0.789706299681989,-0.339788558913217,0.488865818431069,0
3.5,-2.78737425804138,1.90621018409729,2.65454816818237,-2.5205447997813,1.88129636896134,2.70319439144611,1247.459,1244.433,3019.318,3012.313,-0.01579254,0.05255505,0.01617744,-0.771262466907501,-0.318770289421082,0.535755157470703,-0.777924000354857,-0.334718964672089,0.481572013878822,0
3.51999664306641,-2.80256867408752,1.89993596076965,2.66512727737427,-2.53598168290031,1.87465430941181,2.7127505574575,1246.555,1242.776,3014.335,3008.195,-0.01421063,0.05297545,0.01467485,-0.759717285633087,-0.3137147128582,0.528955399990082,-0.765999459475408,-0.329588167864767,0.474190155029786,0
3.54000091552734,-2.81752920150757,1.89376354217529,2.67556858062744,-2.55118444594166,1.86811298519115,2.72216179198813,1245.585,1241.1,3010.676,3003.049,-0.01263936,0.05338757,0.01317991,-0.748029887676239,-0.308615863323212,0.522062301635742,-0.753929052770513,-0.324394609067776,0.466717998286246,0
3.55999755859375,-2.83225345611572,1.8876941204071,2.68586897850037,-2.56613872308604,1.86167857751006,2.73141920191151,1244.523,1239.473,3005.746,2999.203,-0.01108567,0.05379092,0.01169463,-0.736205220222473,-0.303476303815842,0.515023350715637,-0.741727567798258,-0.319144650954242,0.459164697851087,0
3.57999420166016,-2.84673857688904,1.88172793388367,2.69602704048157,-2.58084770246059,1.8553497146065,2.74052476083022,1243.225,1237.89,3002.25,2994.3,-0.0095469,0.05418529,0.0102191,-0.724250674247742,-0.298299878835678,0.507902264595032,-0.729396114728537,-0.313838771199258,0.451530940972359,0
3.59999847412109,-2.86098170280457,1.87586665153503,2.70604014396667,-2.59531431270705,1.84912513636775,2.74948028171299,1240.894,1236.346,2998.035,2991.049,-0.008021974,0.05457011,0.008757704,-0.712171733379364,-0.29308956861496,0.500654339790344,-0.716935713767317,-0.308477408768949,0.443817359206151,0
3.6199951171875,-2.87498116493225,1.87010955810547,2.71590566635132,-2.60952509409627,1.84301063413925,2.75827743234631,1242.087,1234.711,2993.013,2985.378,-0.0065077,0.05494909,0.007297791,-0.699975192546844,-0.28784766793251,0.493274718523026,-0.704361775018033,-0.303067194200314,0.436033492140578,0
3.63999938964844,-2.88873481750488,1.86445772647858,2.7256224155426,-2.6234885835008,1.83700253474321,2.76692149746096,1240.372,1233.541,2989.823,2980.574,-0.005018993,0.05531655,0.005856847,-0.687665998935699,-0.282577365636826,0.485843449831009,-0.691670720740692,-0.297606588091786,0.428177124984152,0
3.65999603271484,-2.90223956108093,1.85891222953796,2.73518800735474,-2.63719194552437,1.83110636089208,2.77540453133521,1237.879,1231.971,2985.371,2978.054,-0.00355319,0.05567313,0.004437007,-0.675251483917236,-0.277282327413559,0.47827535867691,-0.678878353700696,-0.292102389931838,0.420258040401444,0
3.68000030517578,-2.91549444198608,1.85347270965576,2.74460053443909,-2.65064357486757,1.82531850058072,2.78373173068862,1237.527,1230.393,2981.897,2972.659,-0.002096973,0.05602128,0.00302859,-0.662740230560303,-0.271965891122818,0.470629423856735,-0.665981146317811,-0.286553081901244,0.412274054652249,0
3.69999694824219,-2.92849731445313,1.84814023971558,2.75385785102844,-2.66383127580226,1.81964420129024,2.79189554578451,1236.563,1229.087,2977.299,2968.838,-0.0006615292,0.05635949,0.001638836,-0.650137364864349,-0.266629576683044,0.462869763374329,-0.65299527533123,-0.280965624398954,0.404235181908735,0
3.71999359130859,-2.94124627113342,1.84291481971741,2.76295876502991,-2.6767584210412,1.81408201183655,2.79989806449274,1235.336,1227.698,2973.772,2964.5,0.0007551096,0.05668748,0.0002684645,-0.637450158596039,-0.261276215314865,0.455042749643326,-0.639922285921447,-0.275340682272968,0.396142378711232,0
3.73999786376953,-2.95373964309692,1.83779644966125,2.77190113067627,-2.68942811570037,1.808630596175,2.80774120902801,1233.526,1226.322,2969.725,2961.286,0.002151605,0.05700503,-0.001080711,-0.624685704708099,-0.255908340215683,0.447119355201721,-0.626763698705669,-0.269678909802388,0.38799658639423,0
3.75999450683594,-2.96597671508789,1.83278608322144,2.78068327903748,-2.70182915057228,1.80329477731443,2.81541804035694,1234.225,1224.912,2965.417,2956.092,0.003531098,0.05731453,-0.002416552,-0.611851274967194,-0.250528275966644,0.439106434583664,-0.613536214864365,-0.263987493038594,0.379808143784027,0
3.77999877929688,-2.97795629501343,1.8278831243515,2.78930425643921,-2.7139695770734,1.79807109095524,2.82293354268985,1232.201,1223.851,2962.052,2952.542,0.004880398,0.05761198,-0.00372523,-0.598952293395996,-0.24513840675354,0.431046962738037,-0.60023651686137,-0.258265004538452,0.371574997167698,0
3.79999542236328,-2.98967599868774,1.82308864593506,2.79776215553284,-2.72583886061506,1.79296406983666,2.83028119461452,1230.692,1222.443,2958.13,2949.38,0.006206066,0.05789933,-0.005011004,-0.585997641086578,-0.239742264151573,0.422895610332489,-0.586881630238189,-0.252518769916838,0.363307686166475,0
3.81999969482422,-3.00113582611084,1.81840145587921,2.80605602264404,-2.73744492223163,1.78797030575888,2.83746589962856,1230.027,1221.175,2954.784,2944.899,0.007512968,0.05817704,-0.006276005,-0.572994410991669,-0.234342247247696,0.414690881967545,-0.573468357077023,-0.246747413199059,0.355004231116903,0
3.83999633789063,-3.0123348236084,1.81382274627686,2.81418418884277,-2.74877791451009,1.78309403578861,2.84448156171422,1229.352,1219.989,2950.786,2941.149,0.008795543,0.05844495,-0.007515441,-0.559949219226837,-0.228940337896347,0.40640914440155,-0.560014026276881,-0.240958390526246,0.346675359432959,0
3.86000061035156,-3.02327227592468,1.80935215950012,2.82214593887329,-2.75984563331209,1.77833190558438,2.85133300688122,1228.269,1218.78,2947.439,2937.41,0.01005188,0.05870221,-0.008728244,-0.546869158744812,-0.223538890480995,0.398082494735718,-0.546515580872635,-0.235150386571708,0.338319178707605,0
3.87999725341797,-3.03394722938538,1.80498945713043,2.82993960380554,-2.77063893010371,1.77368785150474,2.85801457175126,1227.581,1217.52,2943.5,2934.051,0.01128017,0.05894895,-0.009914416,-0.533762276172638,-0.218140438199043,0.389687299728394,-0.532990631455729,-0.229330978680956,0.329946590735853,0
3.89999389648438,-3.04436016082764,1.80073428153992,2.83756494522095,-2.78116151864576,1.76916027562219,2.86452855531919,1226.611,1216.42,2940.54,2930.084,0.01248003,0.05918519,-0.01107342,-0.520635366439819,-0.212747529149055,0.381268560886383,-0.519441457145543,-0.223501147495394,0.321559006401168,0
3.91999816894531,-3.05451011657715,1.79658699035645,2.84502077102661,-2.79141684911929,1.7647476934202,2.87087709341145,1224.666,1215.282,2937.138,2927.64,0.01365094,0.0594102,-0.01219994,-0.50749659538269,-0.207362830638885,0.372794806957245,-0.505870408491346,-0.2176619043907,0.313157880805522,0
