t,x_s1,x_s2,x_s3,x_s_d1,x_s_d2,x_s_d3,propellers_rpms1,propellers_rpms2,propellers_rpms3,propellers_rpms4,rollRad,pitchRad,yawRad,v_s1,v_s2,v_s3,v_s_d1,v_s_d2,v_s_d3,insideCount
0,-0.0599999986588955,2.94000005722046,1.17999994754791,-0.0599999986588955,2.94000005722046,1.17999994754791,0,0,0,0,0,45.0048027038574,0,0,0,0,-1.06581410364015E-15,4.44089209850063E-16,4.44089209850063E-16,0
0.0200042724609375,-0.0599999986588955,2.94000005722046,1.17705690860748,-0.0600018701838461,2.93999925195556,1.18000110611101,0,0,0,0,0.937003672122955,44.8630027770996,-0.00115976633969694,3.71994488546079E-08,3.50004931704007E-08,-0.147149950265884,-0.000280105751305916,-0.000120521679537258,0.00017339880334547,5
0.0400009155273438,-0.0599999986588955,2.94000005722046,1.17018985748291,-0.0600148724204753,2.93999365745638,1.18000915511487,0,0,0,0,1.87400352954865,44.7211418151855,-0.00311126722954214,3.70364325874561E-08,3.5142885934647E-08,-0.343349903821945,-0.00111101934050116,-0.00047804058392963,0.00068777389696065,6
0.0600051879882813,-0.0599062219262123,2.94009447097778,1.16346514225006,-0.0600499046557519,2.93997858406422,1.18003084173732,3197.398,2848.799,1517.405,2782.453,1.40362656116486,44.7413635253906,0.0288634859025478,0.00468879099935293,0.00471896305680275,-0.336233586072922,-0.00247998555168399,-0.00106706850011317,0.00153522919458695,6
0.0800018310546875,-0.0597377680242062,2.94026732444763,1.1572380065918,-0.0601175574246769,2.93994947496775,1.18007272202403,2865.866,2651.932,2344.702,2562.33,0.339634448289871,44.8158302307129,0.0997773408889771,0.00842264667153358,0.00864495057612658,-0.311358660459518,-0.00437268608126799,-0.00188144466206175,0.00270690098422899,6
0.0999984741210938,-0.0595562681555748,2.94046425819397,1.15152072906494,-0.0602281887669101,2.93990187339187,1.18014120809498,2240.005,2528.276,3138.302,2508.829,359.321624755859,44.9191246032715,0.178485870361328,0.00907504931092262,0.00984920933842659,-0.285862147808075,-0.00677637982016689,-0.00291568692648091,0.00419490191241918,5
0.120002746582031,-0.0594243444502354,2.94063234329224,1.14657127857208,-0.0603919599823235,2.93983140721312,1.18024259027882,2124.056,2455.027,3352.135,2464.682,358.750061035156,44.9999084472656,0.253253728151321,0.00659616105258465,0.00839842204004526,-0.247469902038574,-0.00967921398219614,-0.00416469537060396,0.00599189453988277,5
0.139999389648438,-0.0593829080462456,2.94074034690857,1.14257478713989,-0.0606185767455666,2.93973390035084,1.18038287685052,2312.704,2456.961,3069.317,2463.613,358.636260986328,45.0326843261719,0.326336324214935,0.0020717834122479,0.00539862830191851,-0.199826806783676,-0.0130660253322238,-0.00562194567796536,0.00808849210174802,5
0.160003662109375,-0.0594432465732098,2.94078588485718,1.1395308971405,-0.0609177895434042,2.93960515744296,1.18056810382587,2536.785,2487.034,2635.933,2492.318,358.757080078125,45.0250396728516,0.398127198219299,-0.00301684066653252,0.00227924762293696,-0.152195423841476,-0.0169265510445065,-0.00728302204135792,0.0104783414199936,5
0.180000305175781,-0.0595999397337437,2.94078183174133,1.1373188495636,-0.0612986871007165,2.9394412678651,1.18080389755851,2667.032,2506.495,2302.845,2513.53,358.864379882813,44.998592376709,0.467300146818161,-0.00783472321927547,-0.000198166817426682,-0.110600233078003,-0.0212451141043368,-0.00914117907931815,0.0131517376757159,5
0.200004577636719,-0.0598474815487862,2.94074010848999,1.13577449321747,-0.0617706280683152,2.93923820485124,1.18109605149912,2653.787,2500.491,2183.904,2509.065,358.817169189453,44.9744529724121,0.532783567905426,-0.0123770264908671,-0.00209206761792302,-0.0772172510623932,-0.026012379510746,-0.0111924002017188,0.0161029020586274,5
0.220001220703125,-0.0601893998682499,2.9406623840332,1.13476359844208,-0.0623420644491781,2.93899233174064,1.18144979784016,2541.002,2471.027,2246.04,2479.319,358.612670898438,44.9637298583984,0.594464123249054,-0.0170959550887346,-0.00388231035321951,-0.0505423247814178,-0.03121219533433,-0.0134297356845702,0.019321835755004,5
0.239997863769531,-0.0606386475265026,2.94054174423218,1.13421714305878,-0.0630217183703222,2.93869989564571,1.18187053599376,2412.086,2430.145,2374.845,2437.906,358.334930419922,44.9659690856934,0.652508795261383,-0.0224624201655388,-0.00603295303881168,-0.0273213386535645,-0.0368338920540454,-0.0158485947310391,0.02280193382306,5
0.260002136230469,-0.0612130165100098,2.94036626815796,1.13412094116211,-0.0638182299684225,2.938357178957,1.18236361461609,2330.179,2392.508,2463.169,2399.085,358.076782226563,44.9739532470703,0.707570970058441,-0.0287183858454227,-0.00877017434686422,-0.00481189228594303,-0.0428675524613532,-0.0184447102433459,0.0265370570382875,4
0.279998779296875,-0.061929564923048,2.94012498855591,1.13447880744934,-0.0647390625194898,2.93796097043536,1.18293365383054,2306.565,2365.777,2470.405,2371.154,357.887603759766,44.9803733825684,0.760392665863037,-0.0358273983001709,-0.0120584135875106,0.0178955625742674,-0.0492963837173861,-0.0212108567320638,0.030516809833474,4
0.300003051757813,-0.0628011226654053,2.93981075286865,1.13528323173523,-0.0657927507678135,2.93750759781875,1.18358593705038,2317.852,2348.769,2416.518,2354.179,357.765625,44.9818649291992,0.811092734336853,-0.0435778014361858,-0.0157083384692669,0.0402190238237381,-0.0561132031658829,-0.0241439437008635,0.0347367458022363,4
0.319999694824219,-0.063835971057415,2.93942022323608,1.13650619983673,-0.0669860785243584,2.93699414222283,1.18432466377777,2335.708,2337.22,2343.127,2342.192,357.679290771484,44.9789085388184,0.859847366809845,-0.0517423860728741,-0.0195261482149363,0.0611508414149284,-0.0633008373176985,-0.0272365818771378,0.0391862337367069,4
0.340003967285156,-0.0650396421551704,2.93895220756531,1.13810420036316,-0.0683273092598492,2.93641704810699,1.18515494949472,2338.295,2325.291,2287.634,2330.839,357.595092773438,44.9742240905762,0.906305909156799,-0.060183722525835,-0.0234059505164623,0.0799011737108231,-0.0708528993697216,-0.0304860231979345,0.0438613199015142,4
0.360000610351563,-0.0664172098040581,2.93840527534485,1.14003145694733,-0.0698225328270578,2.93577369517774,1.1860805641102,2323.192,2311.416,2262.219,2316.505,357.495239257813,44.9703559875488,0.950560092926025,-0.0688782706856728,-0.0273444447666407,0.0963614359498024,-0.0787518717320621,-0.0338847303337087,0.0487511600740379,4
0.3800048828125,-0.0679745450615883,2.93777751922607,1.14224827289581,-0.0714797725314022,2.93506063123087,1.18710647443246,2295.906,2294.965,2261.974,2300.395,357.380523681641,44.9686470031738,0.992403566837311,-0.0778669714927673,-0.0313916765153408,0.110840730369091,-0.0869921272359981,-0.0374302820709642,0.0538522707687797,4
0.400001525878906,-0.0697185695171356,2.93706560134888,1.14472675323486,-0.0733044112230977,2.93427554017634,1.18823601270221,2269.665,2278.704,2269.045,2283.465,357.262390136719,44.968822479248,1.03212857246399,-0.0872012078762054,-0.0356010496616364,0.123925164341927,-0.0955558400788823,-0.0411150084648172,0.0591536169647403,4
0.419998168945313,-0.0716565102338791,2.93626570701599,1.14744663238525,-0.0753034649285836,2.93341540321397,1.18947352217404,2249.49,2263.558,2272.057,2268.63,357.152862548828,44.9699897766113,1.06964135169983,-0.0968969315290451,-0.0399919971823692,0.135995388031006,-0.104434660908044,-0.0449353170220673,0.0646500300148815,4
0.44000244140625,-0.0737951919436455,2.93537473678589,1.15039241313934,-0.077483988232608,2.93247718495301,1.19082336997196,2238.617,2251.318,2264.481,2255.84,357.058044433594,44.9711303710938,1.10522627830505,-0.106934078037739,-0.0445513501763344,0.147286951541901,-0.113620829717891,-0.048887868829098,0.0703367061060819,4
0.459999084472656,-0.0761405378580093,2.93438982963562,1.1535484790802,-0.0798502821969742,2.93145903476675,1.19228821865812,2233.48,2241.456,2249.118,2245.497,356.976867675781,44.9717483520508,1.13911390304565,-0.117267325520515,-0.0492448881268501,0.157801330089569,-0.123096124252221,-0.0529648233581361,0.0762023647937057,4
0.480003356933594,-0.07869753241539,2.93330907821655,1.15689718723297,-0.0824098964715798,2.93035770425173,1.19387274182544,2228.529,2232.582,2233.513,2237.188,356.90478515625,44.9719734191895,1.17105567455292,-0.127849698066711,-0.0540386885404587,0.167435377836227,-0.132856662250146,-0.057164510180779,0.0822446027733248,4
0.5,-0.0814705863595009,2.93213081359863,1.16042160987854,-0.085166398670376,2.92917165836334,1.1955791479969,2223.666,2225.192,2220.007,2229.002,356.837036132813,44.972053527832,1.2013795375824,-0.138652637600899,-0.0589146949350834,0.176224172115326,-0.142884000065179,-0.0614789935111996,0.0884520025491718,5
0.520004272460938,-0.0844637602567673,2.93085360527039,1.16410481929779,-0.088127196023106,2.92789770997757,1.19741202260058,2215.607,2217.528,2212.713,2221.909,356.771209716797,44.9723930358887,1.22981858253479,-0.149658665060997,-0.0638651102781296,0.184162065386772,-0.153174893518032,-0.065906877469682,0.0948225558197254,5
0.540000915527344,-0.0876810848712921,2.92947578430176,1.16793346405029,-0.0912951145137283,2.92653464315245,1.19937311505516,2208.327,2211.02,2207.943,2214.524,356.707305908203,44.9730415344238,1.25674378871918,-0.160866126418114,-0.0688932985067368,0.191429957747459,-0.163710711144578,-0.0704401454577151,0.101344728821151,5
0.55999755859375,-0.0911264643073082,2.9279956817627,1.17189538478851,-0.094676112580471,2.92507989413848,1.20146611391775,2200.235,2204.395,2206.147,2208.524,356.646789550781,44.9740524291992,1.28188490867615,-0.172268703579903,-0.0739993825554848,0.198096662759781,-0.17448465888317,-0.0750758741803766,0.108014315705644,5
0.580001831054688,-0.0948036909103394,2.9264121055603,1.1759819984436,-0.0982762614093182,2.92353085067394,1.20369477754168,2194.85,2199.197,2203.294,2202.749,356.591247558594,44.9752044677734,1.30550026893616,-0.183861881494522,-0.0791830122470856,0.20433147251606,-0.185490414529404,-0.0798113433697334,0.11482740272751,5
0.599998474121094,-0.0987163484096527,2.92472338676453,1.18018615245819,-0.102097262171133,2.92188678079254,1.20606015903275,2191.497,2195,2198.984,2198.034,356.540893554688,44.9763412475586,1.32782125473022,-0.195632681250572,-0.0844370648264885,0.210205212235451,-0.196709126405959,-0.0846384416756885,0.121772319800455,5
0.620002746582031,-0.102867618203163,2.92292833328247,1.18450033664703,-0.106146271928021,2.92014460501038,1.20856668895334,2187.774,2190.926,2195.856,2194.725,356.495483398438,44.9775047302246,1.34851849079132,-0.207563817501068,-0.089751310646534,0.215711995959282,-0.208139001499973,-0.0895563976148993,0.128847956964108,5
0.639999389648438,-0.107260525226593,2.92102599143982,1.18891966342926,-0.110424235525481,2.91830391678686,1.21121495220784,2186.462,2188.458,2191.446,2191.228,356.454223632813,44.978572845459,1.36803889274597,-0.219645276665688,-0.0951204001903534,0.220968127250671,-0.219761081350814,-0.0945570538913933,0.136042578028218,5
0.660003662109375,-0.111897751688957,2.91901516914368,1.19343829154968,-0.114938248900541,2.91636166293851,1.21400934151928,2183.616,2185.587,2189.5,2189.202,356.416381835938,44.9796867370605,1.38601195812225,-0.231861010193825,-0.100535668432713,0.225934267044067,-0.231574097577923,-0.0996398647564507,0.143355397804799,5
0.680000305175781,-0.116781860589981,2.91689515113831,1.19805300235748,-0.119688496929273,2.91431776391831,1.21694997133476,2182.787,2184.197,2186.899,2186.674,356.381500244141,44.9807662963867,1.40292918682098,-0.244205951690674,-0.105995744466782,0.230736792087555,-0.243559016194652,-0.104796640417365,0.150774633349401,5
0.700004577636719,-0.121915206313133,2.91466522216797,1.20275986194611,-0.124682034788652,2.91216918408072,1.22004120914491,2180.346,2182.18,2186.815,2185.576,356.349517822266,44.9819450378418,1.41838955879211,-0.256667792797089,-0.111494846642017,0.235342621803284,-0.255715062526221,-0.110027047553219,0.158299805101433,5
0.720001220703125,-0.127300098538399,2.91232466697693,1.20755755901337,-0.129918284978346,2.90991617190799,1.22328269744952,2180.311,2181.618,2185.422,2183.924,356.320404052734,44.9830894470215,1.43286800384521,-0.269243985414505,-0.117033086717129,0.239886358380318,-0.268023157655716,-0.11532287703907,0.16591910230247,5
0.739997863769531,-0.132938534021378,2.90987253189087,1.21244394779205,-0.135402141159277,2.90755662179454,1.22667746565781,2178.703,2180.405,2186.139,2183.676,356.294219970703,44.9842872619629,1.44594478607178,-0.281921893358231,-0.122604452073574,0.244319751858711,-0.280478211503383,-0.120681938755799,0.173629373950669,5
0.760002136230469,-0.138832479715347,2.90730834007263,1.21741902828217,-0.14113868194985,2.90508834855275,1.23022865767651,2179,2180.392,2185.832,2182.94,356.271209716797,44.9854469299316,1.4579359292984,-0.294697493314743,-0.128208100795746,0.248752191662788,-0.293075466693575,-0.12610218573757,0.181427675003881,5
0.779998779296875,-0.14498370885849,2.90463161468506,1.22248303890228,-0.147126184485884,2.90251209348295,1.23393520697061,2180.038,2180.825,2184.934,2182.705,356.250732421875,44.9864959716797,1.46913039684296,-0.307561248540878,-0.133839204907417,0.25319966673851,-0.305795832832518,-0.131575403921268,0.189302187598958,5
0.800003051757813,-0.151393741369247,2.90184187889099,1.22763538360596,-0.153371683173492,2.89982482987671,1.2378014681726,2179.395,2180.489,2186.317,2183.578,356.232696533203,44.9875984191895,1.47900295257568,-0.320502042770386,-0.139492332935333,0.257618337869644,-0.318639638509124,-0.13710173468952,0.197253115148089,5
0.819999694824219,-0.158064112067223,2.89893841743469,1.23287796974182,-0.159872691993147,2.89702762739878,1.24182590231796,2181.177,2181.674,2185.956,2183.486,356.216918945313,44.9885940551758,1.48810827732086,-0.333518415689468,-0.145168080925941,0.262129813432693,-0.331587821991737,-0.142672976311719,0.205268657531342,5
0.840003967285156,-0.164996057748795,2.89592123031616,1.23821103572845,-0.166636266402775,2.89411745028271,1.24601287707125,2180.793,2181.861,2187.968,2184.714,356.203430175781,44.9896354675293,1.49599194526672,-0.346597492694855,-0.150860533118248,0.266652286052704,-0.344641102544584,-0.148289438267168,0.213349260007538,5
0.860000610351563,-0.172190830111504,2.89278984069824,1.24363732337952,-0.173659158941841,2.89109569582005,1.2503603820997,2183.057,2183.409,2187.873,2185.046,356.192108154297,44.9905738830566,1.50318372249603,-0.359738886356354,-0.156570628285408,0.271312415599823,-0.357780475378537,-0.153942943326036,0.221483157706883,5
0.8800048828125,-0.17964942753315,2.88954401016235,1.24915754795074,-0.180948461186242,2.88795931270381,1.25487280742661,2183.001,2183.886,2190.124,2186.68,356.182922363281,44.9915237426758,1.50918006896973,-0.372929245233536,-0.162291958928108,0.276014238595963,-0.371007022483504,-0.159633957038354,0.229671020432672,5
0.900001525878906,-0.187372788786888,2.88618350028992,1.25477516651154,-0.188500167066783,2.88471002463366,1.2595476731043,2185.58,2185.784,2190.178,2187.248,356.175720214844,44.992359161377,1.51455950737,-0.386168420314789,-0.16802567243576,0.280881017446518,-0.384301823631742,-0.165354338558695,0.237901135662636,5
0.919998168945313,-0.195361629128456,2.88270807266235,1.26049137115479,-0.196318384305134,2.8813460641717,1.26438752200817,2185.699,2186.448,2192.632,2189.155,356.170532226563,44.993221282959,1.51878046989441,-0.399443000555038,-0.173765510320663,0.285808771848679,-0.397661187980262,-0.171102499820431,0.246171218589148,5
0.94000244140625,-0.203616663813591,2.87911772727966,1.26630938053131,-0.204407453948074,2.87786556348678,1.26939504145298,2187.707,2188.172,2193.655,2190.112,356.16748046875,44.9940147399902,1.5221780538559,-0.412751942873001,-0.179512172937393,0.290899008512497,-0.411081631631503,-0.176876941799768,0.254479112513653,5
0.959999084472656,-0.212138414382935,2.87541246414185,1.27223217487335,-0.212762239776093,2.87427073255068,1.27456705187416,2190.155,2190.099,2193.872,2191.299,356.165985107422,44.9946975708008,1.52507054805756,-0.426086962223053,-0.185262128710747,0.296139568090439,-0.424544411524882,-0.18266959988136,0.262813214588797,5
0.980003356933594,-0.220927149057388,2.8715922832489,1.27826118469238,-0.221389982382338,2.87055845593844,1.2799080355438,2190.238,2190.795,2196.675,2193.472,356.166076660156,44.9954147338867,1.52681696414948,-0.439437836408615,-0.191010430455208,0.301452279090881,-0.438051398499298,-0.18848127903492,0.271174682952979,5
1,-0.229983270168304,2.86765718460083,1.28440046310425,-0.230284798736574,2.86673126495361,1.28541435058594,2193.075,2193.032,2197.005,2194.24,356.167785644531,44.9960136413574,1.52805542945862,-0.452806025743484,-0.196759670972824,0.306963562965393,-0.451584000205995,-0.194303979492187,0.279552008056641,5
1.02000427246094,-0.239306837320328,2.86360716819763,1.29065144062042,-0.239454009753966,2.86278600961093,1.2910905289958,2193.116,2193.8,2199.863,2196.378,356.171173095703,44.9966659545898,1.52818977832794,-0.466178119182587,-0.202503532171249,0.312550455331802,-0.465144357597929,-0.200138622445408,0.287946515251652,5
1.04000091552734,-0.248897939920425,2.85944223403931,1.29701828956604,-0.24889099213045,2.8587255397331,1.29693247063265,2196.088,2196.073,2199.976,2197.12,356.176239013672,44.9971694946289,1.52788531780243,-0.479555636644363,-0.208244264125824,0.318341374397278,-0.478714054341683,-0.205977283860805,0.296346803950333,5
1.05999755859375,-0.258756399154663,2.85516262054443,1.30350232124329,-0.258599401509697,2.85454828239877,1.30294243851408,2196.116,2196.792,2202.669,2199.269,356.183013916016,44.9977188110352,1.52652013301849,-0.492924362421036,-0.21397490799427,0.324202686548233,-0.492290296490434,-0.211818761581115,0.30475114456651,5
1.08000183105469,-0.268882095813751,2.85076856613159,1.31010711193085,-0.268583149539609,2.85025255453512,1.30912285413647,2198.257,2198.558,2203.517,2200.258,356.191711425781,44.9981880187988,1.52443408966064,-0.506284415721893,-0.219696998596191,0.330240190029144,-0.50587040849135,-0.217661904390701,0.313157880805523,5
1.09999847412109,-0.279274642467499,2.84626054763794,1.31683564186096,-0.278834517009062,2.84584167750307,1.31546893894041,2200.71,2200.499,2203.411,2201.34,356.20166015625,44.9985237121582,1.52199745178223,-0.519627153873444,-0.225406482815742,0.33642515540123,-0.519436284009554,-0.223498921639497,0.321555803983559,5
1.12000274658203,-0.28993347287178,2.84163856506348,1.32368886470795,-0.289361068555186,2.84131239645058,1.32198537579665,2200.43,2200.891,2206.117,2203.484,356.212921142578,44.9989433288574,1.51844823360443,-0.532942175865173,-0.231098547577858,0.342662155628204,-0.532990631455731,-0.229330978680957,0.329946590735853,5
1.13999938964844,-0.30085813999176,2.83690309524536,1.33067047595978,-0.300154365346813,2.83666834237095,1.3286669406667,2203.095,2203.015,2206.05,2203.86,356.225524902344,44.9992294311523,1.5145457983017,-0.546232104301453,-0.236776351928711,0.349083036184311,-0.546515580872639,-0.235150386571708,0.338319178707607,5
1.16000366210938,-0.312047779560089,2.83205437660217,1.33778142929077,-0.311222084148811,2.83190621216671,1.33551838583369,2202.581,2203.311,2208.733,2205.796,356.239654541016,44.9995803833008,1.50957798957825,-0.559483289718628,-0.242433458566666,0.355545192956924,-0.560014026276883,-0.240958390526247,0.34667535943296,6
1.18000030517578,-0.323501765727997,2.82709288597107,1.34502518177032,-0.322555076427271,2.82702994219644,1.34253404791935,2205.296,2205.294,2208.267,2206.04,356.255279541016,44.9998054504395,1.50430047512054,-0.572698175907135,-0.248072534799576,0.362186342477798,-0.573468357077025,-0.246747413199059,0.355004231116904,6
1.20000457763672,-0.335218966007233,2.82201910018921,1.3524022102356,-0.334161138043845,2.82203617811866,1.3497187529334,2204.681,2205.423,2210.617,2207.871,356.272491455078,45.0000801086426,1.49797344207764,-0.585862100124359,-0.253686219453812,0.368851840496063,-0.586881630238192,-0.252518769916838,0.363307686166476,6
1.22000122070313,-0.34719854593277,2.81683349609375,1.35991585254669,-0.346030421585499,2.81692915700008,1.35706640485806,2207.346,2207.248,2209.783,2207.962,356.291168212891,45.0002136230469,1.49135053157806,-0.598977386951447,-0.259277105331421,0.375681281089783,-0.600236516861372,-0.258265004538453,0.371574997167698,6
1.23999786376953,-0.359439134597778,2.81153678894043,1.36756610870361,-0.358166167196084,2.81170748469733,1.36457900949675,2206.464,2207.191,2211.987,2209.626,356.311279296875,45.0004196166992,1.48368263244629,-0.612029135227203,-0.264837741851807,0.382513046264648,-0.613531154887641,-0.263985315871967,0.379805011417393,6
1.26000213623047,-0.371939539909363,2.80612945556641,1.37535548210144,-0.370571882958536,2.80636965178032,1.3722587385199,2207.961,2208.313,2212.075,2209.851,356.333160400391,45.000545501709,1.47536289691925,-0.625018715858459,-0.270370334386826,0.389466136693954,-0.626763698705669,-0.269678909802388,0.38799658639423,6
1.27999877929688,-0.384698271751404,2.80061197280884,1.38328552246094,-0.383236695417198,2.80092033679326,1.3800988607405,2209.736,2209.59,2211.101,2210.122,356.356109619141,45.0005531311035,1.46682345867157,-0.637937486171722,-0.275871068239212,0.396503388881683,-0.639917282339435,-0.275338529371412,0.396139281255613,6
1.30000305175781,-0.397713750600815,2.79498529434204,1.39135575294495,-0.396168722856641,2.79535604666509,1.38810440176341,2208.34,2209.123,2213.332,2211.531,356.380218505859,45.0006713867188,1.45724892616272,-0.650775253772736,-0.281334936618805,0.403513818979263,-0.652995275331231,-0.280965624398954,0.404235181908735,6
1.31999969482422,-0.410984456539154,2.78924989700317,1.39956879615784,-0.409356423791328,2.7896817473746,1.39626821685929,2210.431,2210.432,2212.23,2211.08,356.405639648438,45.0006713867188,1.44740533828735,-0.663535952568054,-0.286765486001968,0.410649567842484,-0.665981146317813,-0.286553081901244,0.412274054652251,6
1.34000396728516,-0.424508512020111,2.78340673446655,1.40792369842529,-0.422808053134535,2.78389388706324,1.40459541621271,2208.824,2209.831,2214.261,2212.237,356.432556152344,45.0007667541504,1.43652725219727,-0.676205098628998,-0.292155772447586,0.417742431163788,-0.678878353700697,-0.292102389931837,0.420258040401443,6
1.36000061035156,-0.438284277915955,2.77745652198792,1.41642272472382,-0.436511415158101,2.77799771321212,1.41307845008695,2210.935,2211.015,2212.686,2211.556,356.460968017578,45.0007209777832,1.42542695999146,-0.688785970211029,-0.297508716583252,0.424949049949646,-0.691670720740693,-0.297606588091785,0.42817712498415,6
1.37999725341797,-0.452309489250183,2.77140021324158,1.42506456375122,-0.450469530727146,2.77199192602736,1.42171918854144,2209.217,2210.188,2214.326,2212.607,356.490875244141,45.0007705688477,1.41328811645508,-0.70126336812973,-0.3028165102005,0.432092368602753,-0.704356955827446,-0.303065120637236,0.436030508832034,6
1.40000152587891,-0.466582298278809,2.76523852348328,1.43385064601898,-0.464685685951852,2.76587511158757,1.43051966583492,2210.146,2210.68,2213.604,2212.073,356.522613525391,45.0007438659668,1.40055894851685,-0.713638842105865,-0.308081269264221,0.439301401376724,-0.716935713767318,-0.308477408768949,0.443817359206152,6
1.41999816894531,-0.48110032081604,2.75897264480591,1.44278132915497,-0.47914673136562,2.75965292774086,1.43947174182117,2211.352,2211.307,2211.767,2211.643,356.555358886719,45.0005950927734,1.38769340515137,-0.725903511047363,-0.31329882144928,0.446534037590027,-0.729391385793766,-0.313836736470737,0.451528013536465,6
1.44000244140625,-0.495861291885376,2.75260329246521,1.45185482501984,-0.493861275572861,2.75332167044526,1.4485807456364,2209.162,2210.039,2213.371,2212.5,356.589263916016,45.0005798339844,1.37376940250397,-0.73804759979248,-0.318463951349258,0.453672736883163,-0.741727567798258,-0.319144650954242,0.459164697851088,6
1.45999908447266,-0.510862767696381,2.74613165855408,1.46107244491577,-0.508815552717244,2.74688726276417,1.45783815555978,2210.647,2210.786,2211.548,2211.222,356.624359130859,45.0004425048828,1.3596658706665,-0.750075161457062,-0.323580652475357,0.460878729820251,-0.753929052770513,-0.324394609067776,0.466717998286247,6
1.48000335693359,-0.526102244853973,2.73955893516541,1.47043204307556,-0.524018315758597,2.74034593854351,1.46724939009041,2208.222,2209.414,2213.049,2211.805,356.660919189453,45.000431060791,1.34453439712524,-0.761972427368164,-0.328641891479492,0.467977464199066,-0.765999459475408,-0.329588167864767,0.474190155029787,6
1.5,-0.541577100753784,2.73288583755493,1.4799348115921,-0.539455198877605,2.73370387899399,1.4768055561018,2209.811,2209.983,2210.724,2210.396,356.698883056641,45.0002822875977,1.32923471927643,-0.773742973804474,-0.333650767803192,0.475136816501617,-0.777924000354858,-0.334718964672088,0.481572013878822,6
1.52000427246094,-0.557284533977509,2.72611379623413,1.48957812786102,-0.555135099954955,2.72695725560613,1.48651216180595,2207.267,2208.506,2211.879,2210.81,356.738403320313,45.0002479553223,1.31294465065002,-0.785371959209442,-0.338599562644958,0.482168883085251,-0.789706299681991,-0.339788558913217,0.48886581843107,6
1.54000091552734,-0.573221802711487,2.7192440032959,1.49936306476593,-0.571043070329722,2.72011250037111,1.49635995326965,2208.805,2208.931,2209.215,2209.24,356.779266357422,45.000057220459,1.29653120040894,-0.796862959861755,-0.343491077423096,0.489245861768723,-0.801332006385301,-0.344790775723006,0.496062684689629,6
1.55999755859375,-0.589385807514191,2.71227765083313,1.50928664207458,-0.587181951496087,2.71316839067337,1.50635068951315,2206.067,2207.208,2210.196,2209.596,356.821502685547,44.9999885559082,1.27909171581268,-0.808201551437378,-0.348317712545395,0.496176660060883,-0.812800388649436,-0.349725300221754,0.503162159625937,6
1.58000183105469,-0.605773627758026,2.70521593093872,1.5193487405777,-0.60355483331529,2.70612359703193,1.51648628330776,2206.212,2206.938,2208.757,2208.186,356.865478515625,44.9998550415039,1.26112282276154,-0.819389820098877,-0.353082001209259,0.503104448318481,-0.824110582941666,-0.354591760855452,0.510163708672098,6
1.59999847412109,-0.622382044792175,2.69806027412415,1.52954852581024,-0.620145926473056,2.69898491314762,1.52675696031579,2206.748,2206.84,2206.094,2206.923,356.910369873047,44.9996109008789,1.24312436580658,-0.830419838428497,-0.357779979705811,0.509990155696869,-0.835248923368005,-0.359384277571697,0.517058871988737,5
1.62000274658203,-0.639207661151886,2.69081211090088,1.53988265991211,-0.636964489205914,2.69174835545992,1.53716845182668,2203.567,2204.723,2207.2,2207.134,356.956359863281,44.9995231628418,1.22408819198608,-0.841282725334167,-0.362406730651855,0.516707718372345,-0.846218976345106,-0.364104384899943,0.523849857357655,5
1.63999938964844,-0.65624737739563,2.6834728717804,1.55035138130188,-0.653994195024907,2.68442094880091,1.54771065096602,2204.582,2204.809,2204.483,2205.037,357.003509521484,44.9993286132813,1.20496046543121,-0.851982891559601,-0.366966128349304,0.523437976837158,-0.857007552155828,-0.368746407673381,0.530528499715628,5
1.66000366210938,-0.673497498035431,2.67604374885559,1.56095123291016,-0.671244443874359,2.67699864863716,1.55838937674714,2201.256,2202.647,2205.448,2205.048,357.052093505859,44.9992637634277,1.18480050563812,-0.862507224082947,-0.37145134806633,0.529990017414093,-0.867618167158098,-0.373311858882592,0.53709697585572,5
1.68000030517578,-0.690954625606537,2.66852641105652,1.57168221473694,-0.688698391434734,2.66948870260877,1.56919420173384,2202.368,2202.711,2202.329,2202.758,357.102020263672,44.9990539550781,1.16462802886963,-0.872859418392181,-0.375865519046783,0.536548972129822,-0.878038122530658,-0.377795274579551,0.543547424602645,5
1.70000457763672,-0.708615124225616,2.66092228889465,1.58254051208496,-0.706365577065784,2.66188700619576,1.58013103124422,2199.049,2200.419,2202.924,2202.733,357.153381347656,44.9989776611328,1.14345967769623,-0.883026003837585,-0.380201071500778,0.542917013168335,-0.888270870184447,-0.382198140025102,0.549881982853708,5
1.72000122070313,-0.726475298404694,2.65323305130005,1.59352612495422,-0.724228658537036,2.6542010212754,1.5911891296115,2200.128,2200.329,2199.546,2200.392,357.205993652344,44.9987449645996,1.12227320671082,-0.893010377883911,-0.384460896253586,0.549278318881989,-0.898304216251578,-0.386515208538549,0.556093102023817,5
1.73999786376953,-0.744531333446503,2.64546036720276,1.6046347618103,-0.742290383213093,2.64642956573347,1.60237019758524,2196.617,2197.946,2200.081,2200.247,357.259887695313,44.998664855957,1.10009753704071,-0.902799785137177,-0.388637900352478,0.555433511734009,-0.908137821269591,-0.39074633405868,0.562180571969536,5
1.76000213623047,-0.762779235839844,2.63760566711426,1.61586546897888,-0.76055371708895,2.63857136338517,1.61367607125764,2196.281,2197.099,2198.056,2198.237,357.3154296875,44.9985084533691,1.07743859291077,-0.912396311759949,-0.392734557390213,0.561538279056549,-0.917771149318994,-0.394891285994308,0.568144060931169,4
1.77999877929688,-0.781215012073517,2.6296706199646,1.62721657752991,-0.779000609654483,2.63063418086074,1.62509557650306,2196.406,2196.542,2194.74,2196.338,357.371734619141,44.9982566833496,1.05487298965454,-0.921792805194855,-0.396747261285782,0.567553639411926,-0.927192788821983,-0.398945154262308,0.57397650459845,4
1.80000305175781,-0.799834668636322,2.62165713310242,1.63868355751038,-0.797640935141499,2.62261376955408,1.63663482594136,2192.508,2193.852,2195.494,2196.118,357.429016113281,44.9981727600098,1.03133130073547,-0.930981934070587,-0.400671392679214,0.573346674442291,-0.936405971974637,-0.402909329586356,0.579679903854719,4
1.81999969482422,-0.81863409280777,2.61356687545776,1.65026581287384,-0.816456197270346,2.61451808789761,1.64828236949435,2193.194,2193.433,2192.218,2193.48,357.4873046875,44.9979705810547,1.00777494907379,-0.93996787071228,-0.404510736465454,0.579113245010376,-0.945399824400851,-0.406779133026206,0.585247526943151,3
1.84000396728516,-0.837608873844147,2.60540175437927,1.66195893287659,-0.835456397410825,2.6063428325813,1.66004439848636,2189.249,2190.802,2192.829,2193.066,357.546875,44.9979209899902,0.983245253562927,-0.948739528656006,-0.408259332180023,0.584654092788696,-0.95417746870157,-0.410555908149813,0.59068130690248,3
1.86000061035156,-0.856754839420319,2.597163438797,1.67376232147217,-0.854622615239374,2.59809614449182,1.6719092003358,2190.13,2190.417,2189.135,2190.287,357.607666015625,44.9977188110352,0.958777129650116,-0.957300126552582,-0.411920070648193,0.590167045593262,-0.962728579444532,-0.414235212212131,0.595974851798267,0
1.87999725341797,-0.876067578792572,2.58885383605957,1.685671210289,-0.873957566090845,2.58977685529642,1.6838784559643,2186.205,2187.713,2189.445,2189.883,357.669738769531,44.9976615905762,0.933376848697662,-0.965638279914856,-0.415486127138138,0.595443606376648,-0.971053025860989,-0.417816988947023,0.601128080678429,0
1.90000152587891,-0.895542681217194,2.58047461509705,1.69768416881561,-0.893464153455626,2.58138371570432,1.69595396277071,2185.721,2186.597,2187.016,2187.552,357.733459472656,44.9975395202637,0.907571613788605,-0.973755538463593,-0.418959647417068,0.600647330284119,-0.979150439632688,-0.421301079877433,0.606140765536421,0
1.91999816894531,-0.91517561674118,2.57202792167664,1.7097989320755,-0.913122862707269,2.57292512231409,1.70812364027167,2185.69,2185.78,2183.3,2185.375,357.797729492188,44.9972839355469,0.881944417953491,-0.981645345687866,-0.422336906194687,0.605735898017883,-0.987011339258123,-0.424683405378145,0.611007036871143,0
1.94000244140625,-0.93496161699295,2.56351566314697,1.72201037406921,-0.932943991899774,2.5643966441608,1.72039386345315,2181.461,2182.772,2183.813,2185.016,357.862854003906,44.9972190856934,0.85535204410553,-0.989301860332489,-0.425613969564438,0.610574305057526,-0.994638524886308,-0.427965170275055,0.615728628108227,0
1.95999908447266,-0.954896152019501,2.55493974685669,1.73431766033173,-0.952907658613767,2.55580683609405,1.73275232415044,2182.014,2182.216,2180.249,2181.99,357.928741455078,44.9970245361328,0.828861474990845,-0.996728658676147,-0.428794682025909,0.615364789962769,-1.00202309041976,-0.431142542523221,0.620300025949072,0
1.98000335693359,-0.974974453449249,2.546302318573,1.74671578407288,-0.973024270010337,2.54715122020317,1.74520546489201,2177.687,2179.324,2180.76,2181.425,357.995758056641,44.996997833252,0.801468193531036,-1.00391697883606,-0.431873679161072,0.619903922080994,-1.00916768936771,-0.434216663853535,0.624722873042297,0
2,-0.995191872119904,2.53760528564453,1.75920379161835,-0.993273599084619,2.53843849960327,1.7577407641983,2178.447,2178.696,2176.863,2178.403,358.063812255859,44.9968185424805,0.774205446243286,-1.01086938381195,-0.434853792190552,0.624397993087769,-1.01606400046349,-0.437183953857422,0.628992018127441,0
2.02000427246094,-1.01554334163666,2.5288507938385,1.7717764377594,-1.01366615605493,2.52966415204104,1.77036472839513,2174.221,2175.792,2177.052,2177.852,358.133026123047,44.9967918395996,0.746058285236359,-1.0175769329071,-0.437729209661484,0.628634929656982,-1.02271452148052,-0.440045487257004,0.633109007445237,0
2.04000091552734,-1.03602433204651,2.52004075050354,1.78443276882172,-1.0341813929022,2.52083701875502,1.78306463727984,2175.044,2175.172,2172.94,2174.771,358.203094482422,44.9965934753418,0.718088150024414,-1.02404153347015,-0.440502196550369,0.632819294929504,-1.02911152474823,-0.442797939051516,0.637069057199471,0
2.05999755859375,-1.05662941932678,2.51117730140686,1.79716753959656,-1.05482201812353,2.5119559343546,1.79584216754118,2170.702,2172.197,2173.127,2174.237,358.274169921875,44.9965591430664,0.68924218416214,-1.03025507926941,-0.443167448043823,0.636737287044525,-1.03525504859546,-0.445441325732794,0.640872191117535,0
2.08000183105469,-1.07735371589661,2.50226283073425,1.80997884273529,-1.07559088172821,2.50301967256038,1.80869908347065,2170.05,2170.923,2170.524,2171.566,358.346618652344,44.996452331543,0.660123109817505,-1.03621888160706,-0.445727169513702,0.640562534332275,-1.04114485287423,-0.447975543971863,0.644518260536375,0
2.09999847412109,-1.09819233417511,2.49329924583435,1.82286393642426,-1.09646699912883,2.4940372624541,1.82162239460902,2169.888,2169.824,2166.601,2169.226,358.419311523438,44.9962310791016,0.631263077259064,-1.04192793369293,-0.448178261518478,0.644253611564636,-1.04677411523768,-0.450397658303471,0.648003042098304,0
2.12000274658203,-1.11913990974426,2.48428893089294,1.83581733703613,-1.11746110947495,2.48500408327971,1.83461874900143,2165.257,2166.655,2167.109,2168.709,358.492614746094,44.9962120056152,0.601520717144012,-1.04737865924835,-0.450517922639847,0.647671103477478,-1.05214490868305,-0.452708560680417,0.651327819087362,0
2.13999938964844,-1.14019107818604,2.47523403167725,1.84883785247803,-1.138551967509,2.47592927627801,1.8476749948214,2165.802,2165.915,2163.341,2165.438,358.566497802734,44.9960479736328,0.57198566198349,-1.05257368087769,-0.452749490737915,0.651028454303741,-1.05725102347782,-0.454905579228273,0.654488747383304,0
2.16000366210938,-1.16134142875671,2.46613669395447,1.8619202375412,-1.15975039167652,2.46680818657414,1.86079782920208,2161.276,2162.909,2163.667,2164.761,358.641296386719,44.9960632324219,0.541655480861664,-1.05750727653503,-0.454868942499161,0.654117524623871,-1.0620943502576,-0.456989527434725,0.657486997379635,0
2.18000030517578,-1.18258500099182,2.45699906349182,1.87506306171417,-1.18103490068612,2.45765005696766,1.87397395420079,2161.902,2162.061,2159.701,2161.608,358.716857910156,44.9959182739258,0.511523067951202,-1.06218063831329,-0.456878393888474,0.657143831253052,-1.06666929835407,-0.458957999791384,0.660319108186354,0
2.19999694824219,-1.2039167881012,2.4478235244751,1.88826107978821,-1.20240821395574,2.44845371736898,1.88720505326679,2157.552,2159.14,2159.716,2160.886,358.793365478516,44.9959259033203,0.480641812086105,-1.06658804416656,-0.458773523569107,0.65990161895752,-1.07097597819164,-0.460811043810786,0.662985148161421,0
2.22000122070313,-1.22533142566681,2.43861246109009,1.90151226520538,-1.22387315175433,2.43921795429519,1.90049287228091,2156.901,2157.689,2156.956,2158.233,358.871124267578,44.9958572387695,0.449530124664307,-1.07072949409485,-0.460555642843246,0.662556946277618,-1.07501419914593,-0.462548577472581,0.665484999299265,0
2.23999786376953,-1.24682331085205,2.429368019104,1.91481363773346,-1.24540792547886,2.42995214277345,1.91382392305993,2156.77,2156.569,2152.868,2155.769,358.948944091797,44.9956550598145,0.418762892484665,-1.07460081577301,-0.462222069501877,0.66506952047348,-1.07877930973132,-0.464168599372462,0.667815782108711,0
2.26000213623047,-1.26838731765747,2.42009258270264,1.92815959453583,-1.26702351885107,2.42065155681516,1.92720500505083,2152.096,2153.409,2153.223,2155.198,359.027130126953,44.9956474304199,0.38722825050354,-1.07820057868958,-0.463770896196365,0.667300224304199,-1.08227271937422,-0.465671715947234,0.669978369091845,0
2.27999877929688,-1.29001808166504,2.41078853607178,1.9415488243103,-1.28869796983554,2.41132564607061,1.9406225227075,2152.558,2152.542,2149.488,2151.894,359.105590820313,44.9955139160156,0.355973094701767,-1.0815304517746,-0.465204924345016,0.669459223747253,-1.08549040888332,-0.467056197851165,0.67197027217779,0
2.30000305175781,-1.31170976161957,2.40145802497864,1.95497572422028,-1.31044231452835,2.40196966201596,1.95408330789913,2147.868,2149.443,2149.874,2151.259,359.184783935547,44.9955635070801,0.323939710855484,-1.08458733558655,-0.466521501541138,0.671343207359314,-1.08843358680109,-0.468322565086307,0.673792239511894,0
2.31999969482422,-1.33345723152161,2.39210367202759,1.96843898296356,-1.33223444283894,2.39259311800549,1.96757367342642,2148.645,2148.731,2145.775,2147.83,359.264495849609,44.9954452514648,0.292293667793274,-1.08737134933472,-0.46772238612175,0.673163294792175,-1.09109887036509,-0.469469362144493,0.675442177003072,0
2.34000396728516,-1.35525465011597,2.38272762298584,1.98193311691284,-1.35408543512393,2.38319124647132,1.98110047855794,2144.148,2145.6,2145.809,2147.33,359.344940185547,44.9954795837402,0.259906440973282,-1.08987963199615,-0.468804240226746,0.674705982208252,-1.09348726343002,-0.470497020956358,0.676920706085208,0
2.36000061035156,-1.37709701061249,2.37333226203918,1.99545669555664,-1.37597305876702,2.37377361348711,1.99464996024512,2144.992,2144.874,2141.565,2143.946,359.425720214844,44.9953308105469,0.227917358279228,-1.09211182594299,-0.469768524169922,0.676178157329559,-1.09559602313537,-0.471404361345641,0.678226128796969,0
2.37999725341797,-1.39897847175598,2.36391997337341,2.00900411605835,-1.39790005743958,2.36433903852774,2.00822381695123,2140.379,2141.769,2141.681,2143.442,359.507049560547,44.995361328125,0.195211604237556,-1.0940660238266,-0.470612496137619,0.677366614341736,-1.09742530100382,-0.472191448508328,0.679358538938131,0
2.40000152587891,-1.42089307308197,2.35449314117432,2.02257299423218,-1.4198692197338,2.35488632173988,2.02182377494768,2139.709,2140.366,2139.012,2140.623,359.589233398438,44.9953155517578,0.162396192550659,-1.09574151039124,-0.471337556838989,0.678448081016541,-1.09897493039424,-0.472858210743393,0.680317833349887,0
2.41999816894531,-1.44283580780029,2.34505438804626,2.03616070747375,-1.44185817738692,2.34542508756209,2.03543598721428,2139.563,2139.266,2135.011,2138.052,359.671203613281,44.9951438903809,0.130100026726723,-1.09713590145111,-0.471941947937012,0.679382622241974,-1.10024313330221,-0.473403883025206,0.681102911362803,0
2.44000244140625,-1.46480083465576,2.33560585975647,2.0497612953186,-1.46387808506052,2.33595053645515,2.04906735901791,2134.781,2135.969,2135.431,2137.677,359.753234863281,44.9951820373535,0.0970728397369385,-1.09825074672699,-0.472424864768982,0.680032312870026,-1.10123038958312,-0.473828671822132,0.681714070030222,0
2.45999908447266,-1.48678267002106,2.32614994049072,2.06337356567383,-1.48590651627916,2.32647231790489,2.06270400730194,2135.328,2135.182,2131.726,2134.222,359.835357666016,44.9950828552246,0.0644555613398552,-1.099085688591,-0.472788482904434,0.680608153343201,-1.10193556692257,-0.474132089930926,0.682150608395601,0
2.48000335693359,-1.50877547264099,2.31668949127197,2.07699179649353,-1.50795464064698,2.31698562594271,2.07635284658344,2130.648,2132.165,2132.054,2133.624,359.917907714844,44.9951553344727,0.0312147289514542,-1.0996413230896,-0.473031491041183,0.680908620357513,-1.10235893238473,-0.47431425226183,0.68241269178437,0
2.5,-1.53077375888824,2.30722641944885,2.09061455726624,-1.52999999932945,2.30750012397766,2.08999997377396,2131.561,2131.303,2127.936,2130.313,0.000706903752870858,44.995044708252,-0.0016030021943152,-1.09991598129272,-0.473154872655869,0.681142330169678,-1.10250000050292,-0.474374949932098,0.682500019669533,0
2.52000427246094,-1.55277192592621,2.29776334762573,2.10423636436462,-1.55205376834272,2.29801100328223,2.10365230735988,2127.012,2128.414,2127.993,2129.725,0.0839046761393547,44.9951095581055,359.965026855469,-1.09991037845612,-0.473157048225403,0.681096434593201,-1.10235882472314,-0.474314205938057,0.682412625136718,0
2.54000091552734,-1.57476425170898,2.2883026599884,2.11785578727722,-1.57409348237975,2.28852793005043,2.11729594024597,2127.911,2127.555,2123.872,2126.451,0.167139783501625,44.9949913024902,359.932098388672,-1.09962272644043,-0.473038703203201,0.68097710609436,-1.10193556692257,-0.474132089930926,0.682150608395601,0
2.55999755859375,-1.59674537181854,2.27884674072266,2.13146734237671,-1.59612191359838,2.27904971150017,2.13093258853001,2123.4,2124.633,2123.926,2125.922,0.250583320856094,44.9950485229492,359.898651123047,-1.09905481338501,-0.472798824310303,0.680578649044037,-1.10123038958312,-0.473828671822132,0.681714070030222,0
2.58000183105469,-1.61870944499969,2.26939797401428,2.14506864547729,-1.61814182127198,2.26957516039323,2.14456396033363,2122.728,2123.184,2121.391,2123.218,0.334556311368942,44.9950408935547,359.865173339844,-1.0982049703598,-0.472438365221024,0.680068969726563,-1.10024313330221,-0.473403883025206,0.681102911362804,0
2.59999847412109,-1.64065086841583,2.25995874404907,2.15865683555603,-1.64013077892511,2.26011392621545,2.15817617260023,2122.571,2122.077,2117.594,2120.704,0.418009996414185,44.9948883056641,359.832305908203,-1.09707224369049,-0.47195628285408,0.679412186145782,-1.09897493039424,-0.472858210743393,0.680317833349887,0
2.62000274658203,-1.66256427764893,2.2505316734314,2.1722264289856,-1.66209994121933,2.25066120942759,2.17177613059669,2117.922,2119.03,2117.968,2120.275,0.501321792602539,44.9949493408203,359.798889160156,-1.09566080570221,-0.471352994441986,0.678478538990021,-1.09742530100382,-0.472191448508328,0.679358538938131,0
2.63999938964844,-1.68444347381592,2.24111890792847,2.18577575683594,-1.68402693989188,2.24122663446822,2.18534998730279,2118.55,2118.109,2114.377,2117.024,0.584378659725189,44.9948692321777,359.765930175781,-1.09396862983704,-0.470629721879959,0.677469253540039,-1.09559602313537,-0.471404361345641,0.67822612879697,0
2.66000366210938,-1.70628345012665,2.23172330856323,2.19929957389832,-1.70592290617745,2.23180541187802,2.19890463348308,2114.051,2115.377,2114.61,2116.376,0.667581379413605,44.9949645996094,359.732543945313,-1.09199976921082,-0.469786792993546,0.67619252204895,-1.09348640563071,-0.470496651869278,0.67692017506657,0
2.68000030517578,-1.72807836532593,2.22234678268433,2.21279644966125,-1.72776555581996,2.22240712994983,2.2124262741215,2114.916,2114.409,2110.756,2113.267,0.750649511814117,44.9948844909668,359.699645996094,-1.08975124359131,-0.468824416399002,0.674843549728394,-1.09109887036509,-0.469469362144494,0.675442177003072,0
2.69999694824219,-1.74982285499573,2.21299195289612,2.22626090049744,-1.74955768413056,2.21303058593937,2.22591663964878,2110.524,2111.725,2110.816,2112.696,0.833821177482605,44.9949722290039,359.666320800781,-1.08722722530365,-0.46774286031723,0.673225581645966,-1.08843358680109,-0.468322565086308,0.673792239511893,0
2.72000122070313,-1.77151143550873,2.2036612033844,2.23969101905823,-1.77130202882336,2.20367460188472,2.23937742484041,2110.038,2110.313,2108.258,2110.098,0.91733592748642,44.9949722290039,359.633117675781,-1.08442497253418,-0.46654224395752,0.67150092124939,-1.08549040888332,-0.467056197851165,0.671970272177789,0
2.73999786376953,-1.79313826560974,2.1943564414978,2.2530837059021,-1.79297647980783,2.19434869114016,2.25279494249708,2109.953,2109.208,2104.554,2107.731,1.00010466575623,44.9948425292969,359.600524902344,-1.08134484291077,-0.465221762657166,0.669630348682404,-1.08227271937422,-0.465671715947234,0.669978369091845,0
2.76000213623047,-1.81469821929932,2.18508100509644,2.26643347740173,-1.81459207318004,2.18504810518187,2.26617602448799,2105.448,2106.411,2104.904,2107.281,1.08248353004456,44.9949150085449,359.567565917969,-1.0779926776886,-0.46378293633461,0.667490363121033,-1.07877930973132,-0.464168599372462,0.667815782108711,0
2.77999877929688,-1.83618545532227,2.17583632469177,2.27973890304565,-1.83612684690458,2.17578229366013,2.27950707526701,2106.19,2105.405,2101.423,2104.243,1.16429710388184,44.9948501586914,359.535095214844,-1.07436549663544,-0.462226331233978,0.665276527404785,-1.07501419914593,-0.462548577472581,0.665484999299265,0
2.80000305175781,-1.85759472846985,2.16662549972534,2.2929949760437,-1.85759178470316,2.16654653058634,2.29279489428112,2101.719,2102.899,2101.771,2103.612,1.24598228931427,44.9949607849121,359.502319335938,-1.07046985626221,-0.460553765296936,0.662800908088684,-1.07097597819164,-0.460811043810786,0.662985148161422,0
2.81999969482422,-1.87892091274261,2.15744996070862,2.30620002746582,-1.87896509797278,2.15735019098767,2.30602599334712,2102.676,2101.969,2098.101,2100.585,1.32727038860321,44.9949035644531,359.470123291016,-1.06630194187164,-0.458764880895615,0.660257518291473,-1.06666929835407,-0.458957999791384,0.660319108186353,0
2.84000396728516,-1.90015816688538,2.14831304550171,2.31934905052185,-1.90025771011236,2.14818857483073,2.3192071345693,2098.335,2099.423,2098.28,2100.133,1.40845727920532,44.9950103759766,359.437622070313,-1.06186854839325,-0.456861168146133,0.657453417778015,-1.06209255378819,-0.456988754464129,0.657485885279497,0
2.86000061035156,-1.92130148410797,2.13921642303467,2.33244061470032,-1.9214480311499,2.13907097167731,2.33232495272651,2099.491,2098.57,2094.444,2097.103,1.48911118507385,44.994930267334,359.40576171875,-1.0571653842926,-0.454841822385788,0.654583036899567,-1.05725102347782,-0.454905579228273,0.654488747383304,0
2.87999725341797,-1.94234538078308,2.13016223907471,2.34546971321106,-1.94253888918396,2.12999616467562,2.34538119854648,2095.227,2096.041,2094.559,2096.736,1.56942391395569,44.9950256347656,359.373596191406,-1.05220019817352,-0.452708899974823,0.651451349258423,-1.05214490868305,-0.452708560680416,0.651327819087361,0
2.90000152587891,-1.96328496932983,2.12115263938904,2.35843396186829,-1.96353299953007,2.12096298550123,2.3583775529389,2094.773,2094.823,2092.297,2094.179,1.64964294433594,44.9950370788574,359.341705322266,-1.0469696521759,-0.450462371110916,0.648216545581818,-1.04677411523767,-0.450397658303471,0.648003042098304,0
2.91999816894531,-1.98411440849304,2.11219048500061,2.37133073806763,-1.98440911693069,2.11198057539494,2.37130086407726,2094.632,2093.75,2089.033,2092.005,1.72883427143097,44.9949493408203,359.310577392578,-1.04147577285767,-0.448102444410324,0.644842863082886,-1.04114485287423,-0.447975543971863,0.644518260536375,0
2.94000244140625,-2.0048291683197,2.10327792167664,2.3841552734375,-2.00517798053537,2.10304431360073,2.38415778000673,2090.581,2091.097,2089.263,2091.727,1.80734705924988,44.9950408935547,359.279144287109,-1.03572642803192,-0.445631206035614,0.641224145889282,-1.03525504859546,-0.445441325732794,0.640872191117535,0
2.95999908447266,-2.02542328834534,2.09441685676575,2.39690589904785,-2.02581860575671,2.0941632292003,2.39693531026807,2091.223,2090.261,2086.17,2088.821,1.88499689102173,44.995002746582,359.248352050781,-1.0297178030014,-0.443048983812332,0.637529909610748,-1.02911152474823,-0.442797939051516,0.637069057199471,0
2.98000335693359,-2.04589247703552,2.08560991287231,2.4095778465271,-2.04634164528706,2.08533273863774,2.40964004938531,2087.202,2087.995,2086.405,2088.292,1.96219635009766,44.9951210021973,359.217437744141,-1.02345895767212,-0.44035866856575,0.633597731590271,-1.02271203275434,-0.440044416427654,0.633107466805174,0
3,-2.0662317276001,2.07685852050781,2.42216968536377,-2.06672639957428,2.07656174835205,2.42225918334961,2088.079,2087.094,2083.128,2085.553,2.03865742683411,44.9950828552246,359.187164306641,-1.01694560050964,-0.437559485435486,0.629597246646881,-1.01606400046349,-0.437183953857422,0.628992018127441,0
3.01999664306641,-2.08643531799316,2.06816554069519,2.43467688560486,-2.08697572864857,2.06784902775215,2.4347944826559,2084.103,2084.832,2083.299,2085.179,2.11469221115112,44.9952011108398,359.15673828125,-1.01018702983856,-0.434654206037521,0.625358700752258,-1.00916768936771,-0.434216663853534,0.624722873042298,0
3.04000091552734,-2.10649919509888,2.0595326423645,2.44709753990173,-2.10709234004513,2.05919341186127,2.44724762339747,2084.012,2083.672,2080.958,2082.836,2.19041395187378,44.9952239990234,359.126678466797,-1.00317919254303,-0.431642204523087,0.621030688285828,-1.00202309041976,-0.43114254252322,0.620300025949072,0
3.05999755859375,-2.12641763687134,2.05096197128296,2.45942878723145,-2.12705600675913,2.05060360379452,2.45960608409476,2083.884,2082.698,2077.914,2080.875,2.26484560966492,44.9951438903809,359.097381591797,-0.995925605297089,-0.428524166345596,0.616567134857178,-0.994638524886308,-0.427965170275055,0.615728628108227,0
3.08000183105469,-2.14618635177612,2.04245615005493,2.47166633605957,-2.14687713595163,2.04207512564123,2.47187630727625,2080.092,2080.393,2078.175,2080.565,2.33832263946533,44.9952392578125,359.068023681641,-0.988435029983521,-0.425303071737289,0.61187481880188,-0.987011339258122,-0.424683405378145,0.611007036871143,0
3.09999847412109,-2.16580033302307,2.03401660919189,2.48380851745605,-2.16653584520328,2.033616532251,2.4840459847772,2080.828,2079.552,2075.31,2077.931,2.41063237190247,44.9952087402344,359.039337158203,-0.980703711509705,-0.421978801488876,0.607114017009735,-0.979150439632689,-0.421301079877433,0.606140765536421,0
3.12000274658203,-2.18525552749634,2.02564525604248,2.49585103988647,-2.18604243256806,2.0252233926589,2.49612149158362,2076.979,2077.478,2075.667,2077.55,2.48221182823181,44.9953460693359,359.010620117188,-0.972742557525635,-0.418555229902267,0.602130591869354,-0.971053025860989,-0.417816988947023,0.601128080678429,0
3.13999938964844,-2.20454597473145,2.01734495162964,2.50779271125793,-2.20537738341953,2.01690410346351,2.50809074721212,2077.791,2076.745,2072.799,2074.929,2.55285739898682,44.9953422546387,358.982696533203,-0.964546918869019,-0.415031611919403,0.597085058689117,-0.962728579444533,-0.414235212212131,0.595974851798267,0
3.16000366210938,-2.22366881370544,2.00911664962769,2.51962924003601,-2.22455088103183,2.00865428308644,2.51996005559448,2074.545,2074.675,2072.639,2074.641,2.62273573875427,44.9954376220703,358.954772949219,-0.956127405166626,-0.411410987377167,0.591832518577576,-0.954174163352092,-0.410554485950274,0.590679260733698,0
3.18000030517578,-2.24261808395386,2.00096273422241,2.53135943412781,-2.24354380138856,2.00048216005771,2.53171757805356,2075.183,2073.979,2069.864,2072.193,2.69149398803711,44.9954261779785,358.927612304688,-0.947480142116547,-0.407692730426788,0.586506366729736,-0.94539982440085,-0.406779133026206,0.58524752694315,0
3.19999694824219,-2.26139068603516,1.99288511276245,2.5429790019989,-2.2623590635174,1.99238647840124,2.54336512160655,2071.959,2072.056,2069.815,2071.834,2.75933170318604,44.995532989502,358.900573730469,-0.938615798950195,-0.403880447149277,0.580977380275726,-0.936405971974636,-0.402909329586355,0.579679903854719,0
3.22000122070313,-2.27998113632202,1.98488569259644,2.55448603630066,-2.28099938900442,1.98436606709459,2.55490437104486,2071.562,2070.895,2068.098,2069.996,2.82640337944031,44.9955863952637,358.873870849609,-0.929531931877136,-0.39997398853302,0.575356662273407,-0.927192788821982,-0.398945154262308,0.573976504598449,0
3.23999786376953,-2.29838609695435,1.97696614265442,2.56587862968445,-2.29944628156995,1.97642888457015,2.56632387629027,2071.764,2070.235,2065.347,2068.032,2.89186024665833,44.9955291748047,358.84814453125,-0.920232176780701,-0.395974665880203,0.569628119468689,-0.917771149318993,-0.394891285994308,0.568144060931169,0
3.26000213623047,-2.31660032272339,1.96912837028503,2.57715249061584,-2.31770961544581,1.96857068222185,2.57762974996267,2068.181,2068.101,2065.808,2068.053,2.9560763835907,44.9956550598145,358.822418212891,-0.910727739334106,-0.391886293888092,0.563692688941956,-0.90813782126959,-0.39074633405868,0.562180571969535,0
3.27999877929688,-2.3346209526062,1.96137404441833,2.58830666542053,-2.33577134012187,1.96079922667992,2.58881081793642,2069.074,2067.62,2063.277,2065.481,3.01885461807251,44.9956550598145,358.797607421875,-0.901014149188995,-0.387708574533463,0.557705581188202,-0.898304216251578,-0.386515208538549,0.556093102023818,0
3.30000305175781,-2.35244274139404,1.95370519161224,2.59933710098267,-2.35364119854729,1.95311032582551,2.59987311156116,2065.62,2065.63,2063.697,2065.509,3.08060669898987,44.9957962036133,358.772827148438,-0.891104400157928,-0.383445858955383,0.551522970199585,-0.888267004546666,-0.382196476749158,0.549879589839776,0
3.31999969482422,-2.37006282806396,1.94612312316895,2.61024308204651,-2.37130160722417,1.94551154534655,2.61080574581408,2066.751,2065.197,2060.99,2063.036,3.14101481437683,44.9957962036133,358.748992919922,-0.880993485450745,-0.379097253084183,0.545296549797058,-0.878038122530657,-0.377795274579551,0.543547424602645,0
3.34000396728516,-2.38747668266296,1.93862986564636,2.62102055549622,-2.38876217417054,1.9379987511813,2.62161466851603,2063.522,2063.375,2061.22,2063.06,3.20031070709229,44.9959259033203,358.725280761719,-0.870694637298584,-0.374667346477509,0.538879692554474,-0.867614155697521,-0.373310132863173,0.537094492570531,0
3.36000061035156,-2.40468072891235,1.93122661113739,2.63166880607605,-2.406005803634,1.93057929915441,2.6322892965819,2064.594,2062.906,2058.627,2060.771,3.2581205368042,44.9959182739258,358.702484130859,-0.860203266143799,-0.370154976844788,0.532416701316833,-0.857007552155826,-0.36874640767338,0.530528499715627,0
3.37999725341797,-2.42167139053345,1.92391514778137,2.64218425750732,-2.42303550945299,1.9232518924954,2.64283149572124,2061.571,2061.267,2058.813,2060.696,3.31463766098022,44.9960327148438,358.679931640625,-0.849532604217529,-0.365564823150635,0.525772631168365,-0.846218976345105,-0.364104384899943,0.523849857357654,0
3.40000152587891,-2.43844509124756,1.91669750213623,2.65256547927856,-2.43985407218584,1.9160153348077,2.65324298723213,2061.479,2060.415,2057.333,2059.03,3.3699836730957,44.99609375,358.657958984375,-0.838680148124695,-0.360896795988083,0.519060432910919,-0.835248923368004,-0.359384277571698,0.517058871988738,0
3.41999816894531,-2.45499777793884,1.90957450866699,2.66281056404114,-2.45644516534361,1.90887665092339,2.66351366424015,2061.663,2059.727,2055.109,2057.616,3.42342185974121,44.9960784912109,358.636901855469,-0.82765144109726,-0.356152802705765,0.512257695198059,-0.824110582941664,-0.354591760855451,0.510163708672097,0
3.44000244140625,-2.47132682800293,1.90254759788513,2.67291641235352,-2.47281804716281,1.90183185728196,2.67364925803476,2058.781,2058.26,2055.481,2057.452,3.47524857521057,44.9961853027344,358.616180419922,-0.816457748413086,-0.351337194442749,0.505287945270538,-0.812800388649434,-0.349725300221754,0.503162159625937,0
3.45999908447266,-2.48742914199829,1.89561831951141,2.6828818321228,-2.48895692832918,1.89488774758421,2.68363999427827,2059.4,2057.714,2053.626,2055.568,3.52535080909729,44.9962272644043,358.596374511719,-0.805096566677094,-0.346449971199036,0.498273104429245,-0.801332006385299,-0.344790775723006,0.496062684689628,0
3.48000335693359,-2.50330018997192,1.88878893852234,2.69270396232605,-2.50487092366784,1.88804039997555,2.69349151548162,2056.699,2056.202,2053.983,2055.572,3.57410311698914,44.9963722229004,358.576843261719,-0.793580651283264,-0.341495871543884,0.491107136011124,-0.78970183472369,-0.339786637766397,0.488863054409187,0
3.5,-2.51893854141235,1.88205921649933,2.7023823261261,-2.5205447997813,1.88129636896134,2.70319439144611,2057.916,2055.87,2051.656,2053.591,3.62112164497375,44.9963798522949,358.558288574219,-0.781906485557556,-0.336474269628525,0.483912646770477,-0.777924000354857,-0.334718964672089,0.481572013878822,0
3.51999664306641,-2.53434038162231,1.87543153762817,2.71191358566284,-2.53598168290031,1.87465430941181,2.7127505574575,2055.038,2054.557,2052.104,2053.675,3.66665649414063,44.9965133666992,358.540100097656,-0.77008855342865,-0.331390380859375,0.476558953523636,-0.765999459475408,-0.329588167864767,0.474190155029786,0
3.54000091552734,-2.54950284957886,1.86890625953674,2.72129678726196,-2.55118444594166,1.86811298519115,2.72216179198813,2055.337,2053.86,2050.721,2052.271,3.71076583862305,44.9965782165527,358.522583007813,-0.758124053478241,-0.326243758201599,0.469163060188293,-0.753929052770513,-0.324394609067776,0.466717998286246,0
3.55999755859375,-2.56442332267761,1.86248588562012,2.73053050041199,-2.56613872308604,1.86167857751006,2.73141920191151,2055.459,2053.549,2048.949,2050.986,3.75278949737549,44.9965934753418,358.506164550781,-0.746020197868347,-0.321037143468857,0.461690634489059,-0.741727567798258,-0.319144650954242,0.459164697851087,0
3.58000183105469,-2.57909917831421,1.85617029666901,2.73961234092712,-2.58085326729328,1.85534732021446,2.74052820572674,2053.258,2052.013,2049.208,2051.28,3.79292154312134,44.9967002868652,358.490051269531,-0.733788013458252,-0.315774410963058,0.454087913036346,-0.729391385793765,-0.313836736470737,0.451528013536464,0
3.59999847412109,-2.59352779388428,1.84996104240417,2.74854135513306,-2.59531431270705,1.84912513636775,2.74948028171299,2053.802,2051.921,2047.766,2049.496,3.83103060722351,44.9967422485352,358.474975585938,-0.721426546573639,-0.310456544160843,0.446450412273407,-0.716935713767317,-0.308477408768949,0.443817359206151,0
3.62000274658203,-2.60770654678345,1.84385931491852,2.75731515884399,-2.60953046793176,1.84300832192796,2.75828075900647,2051.667,2050.729,2048.124,2049.59,3.86742615699768,44.996883392334,358.460388183594,-0.708948373794556,-0.305088311433792,0.438695818185806,-0.704356955827444,-0.303065120637236,0.436030508832034,0
3.63999938964844,-2.62163376808167,1.83786606788635,2.76593351364136,-2.6234885835008,1.83700253474321,2.76692149746096,2052.576,2050.493,2046.47,2048.084,3.90186166763306,44.9969329833984,358.446838378906,-0.696352362632751,-0.299669831991196,0.430921018123627,-0.691670720740692,-0.297606588091786,0.428177124984152,0
3.66000366210938,-2.63530683517456,1.83198201656342,2.77439403533936,-2.63719712493647,1.83110413233575,2.77540773763803,2050.534,2049.393,2046.77,2048.304,3.93451166152954,44.9970664978027,358.433746337891,-0.683651804924011,-0.294205993413925,0.423032134771347,-0.678873453515702,-0.29210028151913,0.420255006953505,0
3.68000030517578,-2.64872360229492,1.8262083530426,2.78269648551941,-2.65064357486757,1.82531850058072,2.78373173068862,2051.439,2049.306,2045.226,2046.819,3.96510553359985,44.9971084594727,358.421722412109,-0.670845508575439,-0.288697093725204,0.415126293897629,-0.665981146317811,-0.286553081901244,0.412274054652249,0
3.69999694824219,-2.66188263893127,1.8205451965332,2.79083895683289,-2.66383127580226,1.81964420129024,2.79189554578451,2049.675,2048.349,2045.444,2047.003,3.99374437332153,44.9972305297852,358.410247802734,-0.657946527004242,-0.283147901296616,0.407118588685989,-0.65299527533123,-0.280965624398954,0.404235181908735,0
