t,x_s1,x_s2,x_s3,x_s_d1,x_s_d2,x_s_d3,propellers_rpms1,propellers_rpms2,propellers_rpms3,propellers_rpms4,rollRad,pitchRad,yawRad,v_s1,v_s2,v_s3,v_s_d1,v_s_d2,v_s_d3,insideCount
0,-0.0599999986588955,2.94000005722046,1.17999994754791,-0.0599999986588955,2.94000005722046,1.17999994754791,0,0,0,0,0,0,0,0,0,0,-1.06581410364015E-15,4.44089209850063E-16,4.44089209850063E-16,0
0.0199966430664063,-0.0599999986588955,2.94000005722046,1.17811644077301,-0.0600018680476204,2.93999925287472,1.18000110478858,0,0,0,0,-0.01635288,0.0001297794,-0.01587137,-1.10653664009419E-09,-7.76775763711157E-08,-0.0941759571433067,-0.000279892991557604,-0.000120430134961378,0.000173267094926113,9
0.0400009155273438,-0.0599999986588955,2.94000005722046,1.17242503166199,-0.0600148724204753,2.93999365745638,1.18000915511487,0,0,0,0,-0.03270202,0.0005238493,-0.03175127,-1.08383135799528E-09,-7.60859677484405E-08,-0.284568399190903,-0.00111101934050116,-0.00047804058392963,0.00068777389696065,9
0.05999755859375,-0.0599058866500854,2.93990302085876,1.16596508026123,-0.0600498857373401,2.93997859220429,1.18003083002592,1868.27,3252.824,3183.801,1722.357,-0.04942241,0.0003296775,-0.01369504,0.00470564980059862,-0.00484918104484677,-0.322997689247131,-0.00247936261166862,-0.00106680046642749,0.00153484356504269,9
0.0800018310546875,-0.0598203726112843,2.93960738182068,1.16000318527222,-0.0601175574246769,2.93994947496775,1.18007272202403,1925.364,2314.317,3252.246,2829.49,-0.07543351,-0.002136388,0.02094843,0.00427573919296265,-0.0147787891328335,-0.298095911741257,-0.00437268608126799,-0.00188144466206175,0.00270690098422899,9
0.0999984741210938,-0.059937447309494,2.93904495239258,1.15498661994934,-0.0602281887669101,2.93990187339187,1.18014120809498,980.2372,1498.911,3914.859,3896.574,-0.1031975,-0.008062987,0.06330875,-0.00585373677313328,-0.028117036446929,-0.250827461481094,-0.00677637982016689,-0.00291568692648091,0.00419490191241918,8
0.1199951171875,-0.0604638569056988,2.93818354606628,1.15081322193146,-0.0603918861403606,2.93983143898525,1.18024254456713,346.2787,980.289,4173.038,4613.417,-0.1214337,-0.0154213,0.1040033,-0.0263204667717218,-0.0430692881345749,-0.208667814731598,-0.00967801353495435,-0.00416417885169243,0.00599115140585487,8
0.139999389648438,-0.0615636371076107,2.93704128265381,1.14728283882141,-0.0606185767455666,2.93973390035084,1.18038287685052,352.8262,747.0457,3975.425,4855.004,-0.1254008,-0.02116734,0.1351078,-0.0549889802932739,-0.0571149066090584,-0.176518499851227,-0.0130660253322238,-0.00562194567796536,0.00808849210174802,7
0.159996032714844,-0.06334088742733,2.93568086624146,1.14427483081818,-0.0609176604100223,2.93960521300545,1.18056802388615,821.1029,815.0446,3462.452,4692.423,-0.1184585,-0.02352423,0.1522707,-0.0888624936342239,-0.0680151432752609,-0.150400519371033,-0.0169249902365933,-0.00728235046931681,0.0104773752055438,7
0.180000305175781,-0.0658469572663307,2.9341721534729,1.1418251991272,-0.0612986871007165,2.9394412678651,1.18080389755851,1348.692,1083.309,3006.842,4255.214,-0.1079795,-0.02278015,0.1557781,-0.125303447246552,-0.0754309222102165,-0.12247883528471,-0.0212451141043368,-0.00914117907931815,0.0131517376757159,7
0.199996948242188,-0.0690850466489792,2.93255376815796,1.140061378479,-0.0617704296168641,2.93923829023936,1.18109592864822,1636.519,1381.273,2918.316,3666.303,-0.09982699,-0.02030074,0.1501551,-0.161904409527779,-0.080915279686451,-0.0881902128458023,-0.0260104776919234,-0.0111915819022102,0.0161017247421801,7
0.220001220703125,-0.0730103999376297,2.93082594871521,1.13903558254242,-0.0623420644491781,2.93899233174064,1.18144979784016,1641.322,1580.64,3148.413,3113.049,-0.09583918,-0.01735475,0.1421875,-0.196267932653427,-0.0863866433501244,-0.0512919761240482,-0.03121219533433,-0.0134297356845702,0.019321835755004,7
0.239997863769531,-0.0775501355528831,2.92897343635559,1.1386331319809,-0.0630217183703222,2.93869989564571,1.18187053599376,1524.191,1624.325,3417.624,2777.408,-0.09475687,-0.01467775,0.1377323,-0.226986929774284,-0.0926252380013466,-0.0201238095760345,-0.0368338920540454,-0.0158485947310391,0.02280193382306,7
0.260002136230469,-0.0826390385627747,2.92699217796326,1.13863551616669,-0.0638182299684225,2.938357178957,1.18236361461609,1438.893,1500.767,3533.425,2744.194,-0.09439041,-0.01258876,0.1393022,-0.254445374011993,-0.0990587621927261,0.000120110809803009,-0.0428675524613532,-0.0184447102433459,0.0265370570382875,7
0.279998779296875,-0.0882449075579643,2.9249005317688,1.1388521194458,-0.0647390625194898,2.93796097043536,1.18293365383054,1400.631,1276.032,3476.455,2977.685,-0.0932117,-0.01110591,0.1456845,-0.280293673276901,-0.104585185647011,0.0108284866437316,-0.0492963837173861,-0.0212108567320638,0.030516809833474,7
0.299995422363281,-0.0943706929683685,2.92273235321045,1.13920700550079,-0.0657923226682404,2.93750778201804,1.18358567203635,1350.495,1061.463,3345.334,3324.851,-0.09053363,-0.009935722,0.1533117,-0.30628913640976,-0.108407840132713,0.0177440941333771,-0.0561105313314725,-0.0241427940851591,0.0347350918094591,7
0.319999694824219,-0.101036012172699,2.92052555084229,1.13972508907318,-0.0669860785243584,2.93699414222283,1.18432466377777,1280.745,941.0214,3237.676,3590.649,-0.08597643,-0.008524246,0.1583619,-0.333266228437424,-0.110343508422375,0.0259048510342836,-0.0633008373176985,-0.0272365818771378,0.0391862337367069,7
0.339996337890625,-0.108251586556435,2.91831183433533,1.14046156406403,-0.068326768706371,2.93641728069206,1.18515461486636,1253.419,944.3726,3170.538,3649.829,-0.07944422,-0.006291984,0.158477,-0.360778719186783,-0.110679931938648,0.0368222631514072,-0.0708499516420146,-0.0304847548730522,0.0438594951176439,7
0.360000610351563,-0.116003155708313,2.91611456871033,1.14145267009735,-0.0698225328270578,2.93577369517774,1.1860805641102,1319.694,1047.151,3120.886,3498.029,-0.07154689,-0.0029625,0.1534725,-0.387578547000885,-0.109858013689518,0.0495554134249687,-0.0787518717320621,-0.0338847303337087,0.0487511600740379,8
0.379997253417969,-0.124251514673233,2.91394948959351,1.14270758628845,-0.0714791088463715,2.935060916796,1.18710606357981,1455.324,1181.7,3090.726,3231.357,-0.06361493,0.001258893,0.145037,-0.41241854429245,-0.108256384730339,0.0627472847700119,-0.0869889214763108,-0.0374289027221294,0.0538502862508218,8
0.400001525878906,-0.132943332195282,2.91182613372803,1.14421725273132,-0.0733044112230977,2.93427554017634,1.18823601270221,1579.429,1273.606,3105.055,2981.647,-0.05701828,0.005826223,0.1357466,-0.434590816497803,-0.10616534948349,0.0754839852452278,-0.0955558400788823,-0.0411150084648172,0.0591536169647403,8
0.419998168945313,-0.142023697495461,2.90974998474121,1.14595770835876,-0.0753034649285836,2.93341540321397,1.18947352217404,1631.429,1288.685,3158.755,2844.771,-0.05243977,0.01017599,0.1278561,-0.454018265008926,-0.103802308440208,0.0870240479707718,-0.104434660908044,-0.0449353170220673,0.0646500300148815,8
0.439994812011719,-0.151446118950844,2.90772414207458,1.1478955745697,-0.0774831213880516,2.93247755793201,1.19082283335389,1606.874,1238.023,3219.612,2842.855,-0.04965783,0.01397514,0.1224623,-0.471121370792389,-0.101290799677372,0.0968953818082809,-0.11361726969793,-0.0488863370519643,0.070334502284139,8
0.459999084472656,-0.161176830530167,2.9057514667511,1.14999687671661,-0.0798502821969742,2.93145903476675,1.19228821865812,1541.108,1158.04,3253.004,2938.55,-0.04788417,0.01718532,0.1193437,-0.486535638570786,-0.098639577627182,0.105067938566208,-0.123096124252221,-0.0529648233581361,0.0762023647937057,8
0.479995727539063,-0.171193659305573,2.9038360118866,1.15223872661591,-0.0824088828700873,2.93035814037613,1.19387211435783,1474.84,1086.36,3247.609,3066.927,-0.04628521,0.01998775,0.1173779,-0.500840783119202,-0.0957774743437767,0.112093910574913,-0.132852887402757,-0.0571628859694044,0.0822422659629699,8
0.5,-0.181481093168259,2.9019832611084,1.15461552143097,-0.085166398670376,2.92917165836334,1.1955791479969,1431.764,1046.282,3216.621,3169.495,-0.04433311,0.02264435,0.1152223,-0.514372646808624,-0.092637874186039,0.118836864829063,-0.142884000065179,-0.0614789935111996,0.0884520025491718,8
0.519996643066406,-0.192024305462837,2.90019869804382,1.15713453292847,-0.0881260274065667,2.92789821280061,1.19741129917127,1423.408,1045.066,3177.393,3210.581,-0.04192135,0.025379,0.1118849,-0.527159988880157,-0.0892261266708374,0.125949025154114,-0.153170920546857,-0.0659051680111775,0.0948200963613094,9
0.540000915527344,-0.20280459523201,2.89848589897156,1.15980982780457,-0.0912951145137283,2.92653464315245,1.19937311505516,1445.495,1073.374,3149.168,3184.357,-0.03929335,0.02828929,0.1070482,-0.539014875888824,-0.0856382623314857,0.133767440915108,-0.163710711144578,-0.0704401454577151,0.101344728821151,9
0.55999755859375,-0.213797867298126,2.89684534072876,1.16265273094177,-0.094676112580471,2.92507989413848,1.20146611391775,1484.376,1113.958,3138.354,3114.187,-0.03688638,0.03132842,0.1010571,-0.549663543701172,-0.0820314064621925,0.142145723104477,-0.17448465888317,-0.0750758741803766,0.108014315705644,9
0.580001831054688,-0.224976122379303,2.8952739238739,1.16566789150238,-0.0982762614093182,2.92353085067394,1.20369477754168,1521.122,1148.744,3146.049,3034.705,-0.03512763,0.03434581,0.09465499,-0.558914005756378,-0.0785759910941124,0.15075871348381,-0.185490414529404,-0.0798113433697334,0.11482740272751,9
0.599998474121094,-0.23631078004837,2.89376544952393,1.16885125637054,-0.102097262171133,2.92188678079254,1.20606015903275,1540.643,1167.03,3162.995,2979.419,-0.03429299,0.03716114,0.0886178,-0.5667325258255,-0.0754184052348137,0.159168377518654,-0.196709126405959,-0.0846384416756885,0.121772319800455,9
0.6199951171875,-0.247776105999947,2.89231204986572,1.172194480896,-0.106144683970236,2.92014528826426,1.20856570593183,1534.761,1167.252,3182.472,2963.876,-0.03442242,0.03963192,0.08345928,-0.573266386985779,-0.0726648345589638,0.167160332202911,-0.208134604141382,-0.0895545055543457,0.128845234789665,9
0.639999389648438,-0.259351342916489,2.89090442657471,1.17568707466125,-0.110424235525481,2.91830391678686,1.21121495220784,1505.883,1156.206,3195.201,2987.53,-0.03534494,0.04169738,0.07930026,-0.578763127326965,-0.070380374789238,0.174629017710686,-0.219761081350814,-0.0945570538913933,0.136042578028218,9
0.659996032714844,-0.271021127700806,2.88953256607056,1.17932033538818,-0.114936482147704,2.9163624231229,1.21400824781511,1467.693,1144.48,3196.886,3030.939,-0.03677613,0.04338634,0.0759045,-0.583488702774048,-0.0685954913496971,0.181660294532776,-0.231569557951997,-0.0996379114822372,0.143352587560098,9
0.680000305175781,-0.282774120569229,2.88818597793579,1.18308961391449,-0.119688496929273,2.91431776391831,1.21694997133476,1429.622,1139.708,3190.719,3074.714,-0.03844167,0.04477777,0.07288137,-0.587649583816528,-0.0673235580325127,0.188462749123573,-0.243559016194652,-0.104796640417365,0.150774633349401,9
0.699996948242188,-0.294601112604141,2.88685441017151,1.1869922876358,-0.124680083855354,2.91217002351282,1.22004000142426,1404.1,1146.255,3177.165,3102.472,-0.04017005,0.04596762,0.06985615,-0.591349303722382,-0.0665728151798248,0.195132181048393,-0.255710395848158,-0.11002503961202,0.158296916205407,9
0.720001220703125,-0.306493401527405,2.88552713394165,1.19102883338928,-0.129918284978346,2.90991617190799,1.22328269744952,1393.338,1162.863,3163.931,3106.598,-0.0419336,0.047021,0.06662829,-0.594614565372467,-0.0663587749004364,0.201827108860016,-0.268023157655716,-0.11532287703907,0.16591910230247,9
0.739997863769531,-0.318441808223724,2.884192943573,1.19519948959351,-0.135402141159277,2.90755662179454,1.22667746565781,1392.393,1185.123,3153.266,3094.173,-0.04383297,0.04795273,0.06321798,-0.597420692443848,-0.066708616912365,0.208532124757767,-0.280478211503383,-0.120681938755799,0.173629373950669,9
0.759994506835938,-0.330436944961548,2.88283967971802,1.19950473308563,-0.14113644597991,2.90508931062815,1.2302272735046,1392.617,1207.588,3149.993,3074.141,-0.04600132,0.04873471,0.05981059,-0.599756121635437,-0.0676612332463264,0.215265214443207,-0.293070637251543,-0.126100107763583,0.181424685349205,9
0.779998779296875,-0.342469751834869,2.88145446777344,1.20394253730774,-0.147126184485884,2.90251209348295,1.23393520697061,1386.65,1226.403,3151.087,3059.719,-0.04853931,0.04931758,0.0566533,-0.60164088010788,-0.0692551583051682,0.221888825297356,-0.305795832832518,-0.131575403921268,0.189302187598958,9
0.799995422363281,-0.354532718658447,2.88002419471741,1.2085086107254,-0.153369252164744,2.89982587587186,1.23779996326238,1375.029,1240.676,3153.359,3054.088,-0.05146931,0.04966173,0.05393389,-0.603148460388184,-0.0715183317661285,0.228304669260979,-0.318634718604462,-0.13709961779199,0.197250069492735,9
0.819999694824219,-0.366620510816574,2.87853479385376,1.2131986618042,-0.159872691993147,2.89702762739878,1.24182590231796,1352.769,1250.891,3156.595,3061.696,-0.054745,0.04973999,0.05175841,-0.604391038417816,-0.0744662657380104,0.234505608677864,-0.331587821991737,-0.142672976311719,0.205268657531342,9
0.839996337890625,-0.378730267286301,2.87697291374207,1.21800684928894,-0.166633637018892,2.89411858163313,1.24601124935738,1326.441,1259.574,3155.463,3078.669,-0.05825612,0.04955994,0.05010178,-0.605488240718842,-0.0780952349305153,0.240407392382622,-0.344636106234817,-0.148287288494656,0.213346167053785,8
0.860000610351563,-0.390861392021179,2.87532520294189,1.2229288816452,-0.173659158941841,2.89109569582005,1.2503603820997,1300.091,1269.099,3152.283,3096.98,-0.06187695,0.04915132,0.04886201,-0.606554746627808,-0.0823902934789658,0.246098875999451,-0.357780475378537,-0.153942943326036,0.221483157706883,8
0.879997253417969,-0.403014749288559,2.87357878684998,1.22796022891998,-0.180945630646592,2.88796053060595,1.25487105518773,1277.42,1280.976,3145.132,3113.668,-0.06551589,0.04855445,0.04791803,-0.607668101787567,-0.0873236879706383,0.251568734645844,-0.371001963495383,-0.159631780297098,0.229667888678032,8
0.900001525878906,-0.415192425251007,2.87172150611877,1.23309898376465,-0.188500167066783,2.88471002463366,1.2595476731043,1259.658,1295.193,3138.904,3123.243,-0.06911595,0.04780666,0.04717843,-0.608883678913116,-0.0928690209984779,0.256937474012375,-0.384301823631742,-0.165354338558695,0.237901135662636,8
0.919998168945313,-0.427396893501282,2.86974167823792,1.23834240436554,-0.196318384305134,2.8813460641717,1.26438752200817,1246.62,1310.915,3132.01,3128.254,-0.07266914,0.04693377,0.04661014,-0.610224902629852,-0.0989944413304329,0.262171506881714,-0.397661187980262,-0.171102499820431,0.246171218589148,8
0.939994812011719,-0.439631223678589,2.86762809753418,1.24368941783905,-0.204404317663683,2.87786691294234,1.26939309994354,1236.437,1326.573,3128.627,3128.166,-0.07618345,0.04594836,0.04623358,-0.61171567440033,-0.105674527585506,0.267352640628815,-0.4110765036434,-0.176874735369747,0.254475938044738,8
0.959999084472656,-0.451898634433746,2.86537051200867,1.24913775920868,-0.212762239776093,2.87427073255068,1.27456705187416,1225.948,1340.892,3126.286,3129.422,-0.07967485,0.04485115,0.04610686,-0.613374352455139,-0.112877614796162,0.272419780492783,-0.424544411524882,-0.18266959988136,0.262813214588797,8
0.979995727539063,-0.464203387498856,2.86295914649963,1.25468492507935,-0.22138664033507,2.87055989392801,1.27990596665734,1218.131,1353.399,3124.26,3130.35,-0.08314496,0.04364545,0.0462705,-0.615235090255737,-0.120569817721844,0.277360111474991,-0.438046240701377,-0.188479059778567,0.271171490030365,8
1,-0.476550221443176,2.8603847026825,1.26032972335815,-0.230284798736574,2.86673126495361,1.28541435058594,1205.2,1363.747,3125.053,3136.393,-0.08659002,0.04232668,0.04677226,-0.617343783378601,-0.128719910979271,0.282240271568298,-0.451584000205995,-0.194303979492187,0.279552008056641,8
1.01999664306641,-0.488945156335831,2.85763907432556,1.26606929302216,-0.239450461003889,2.86278753653895,1.29108833215045,1191.922,1372.37,3124.156,3146.459,-0.08996637,0.04090737,0.04760292,-0.619743883609772,-0.137284457683563,0.286977916955948,-0.465139182559269,-0.200136395770846,0.2879433116562,8
1.04000091552734,-0.501394808292389,2.8547146320343,1.27190244197845,-0.24889099213045,2.8587255397331,1.29693247063265,1179.576,1380.057,3124.169,3156.329,-0.09321756,0.03940682,0.04872312,-0.622485220432281,-0.146222546696663,0.291655212640762,-0.478714054341683,-0.205977283860805,0.296346803950333,8
1.05999755859375,-0.51390677690506,2.85160493850708,1.27782702445984,-0.258599401509697,2.85454828239877,1.30294243851408,1169.697,1387.568,3121.778,3166.99,-0.09630683,0.03784936,0.05008151,-0.625596821308136,-0.155480921268463,0.296228051185608,-0.492290296490434,-0.211818761581115,0.30475114456651,8
1.08000183105469,-0.526488900184631,2.84830474853516,1.2838431596756,-0.268583149539609,2.85025255453512,1.30912285413647,1161.957,1394.784,3121.114,3175.127,-0.09920488,0.03625776,0.05162897,-0.629106879234314,-0.165014803409576,0.30080434679985,-0.50587040849135,-0.217661904390701,0.313157880805523,8
1.09999847412109,-0.539149343967438,2.84480929374695,1.28995001316071,-0.278834517009062,2.84584167750307,1.31546893894041,1157.109,1401.868,3119.187,3182.612,-0.1019032,0.03465404,0.05332843,-0.633020997047424,-0.174770534038544,0.305342733860016,-0.519436284009554,-0.223498921639497,0.321555803983559,7
1.1199951171875,-0.551896274089813,2.84111523628235,1.29614889621735,-0.289357002179081,2.84131414609862,1.32198285851614,1154.086,1408.188,3120.157,3187.186,-0.1043964,0.03305398,0.05516011,-0.637349426746368,-0.184706434607506,0.309944242238998,-0.532985466132485,-0.229328756186667,0.329943393154705,7
1.13999938964844,-0.564737975597382,2.83721971511841,1.3024400472641,-0.300154365346813,2.83666834237095,1.3286669406667,1151.746,1413.553,3121.043,3192.76,-0.1066878,0.03146904,0.05712117,-0.642086505889893,-0.19477242231369,0.314559668302536,-0.546515580872639,-0.235150386571708,0.338319178707607,7
1.15999603271484,-0.577682673931122,2.83312129974365,1.30882406234741,-0.311217811600473,2.8319080505249,1.33551574092274,1154.485,1417.981,3121.613,3195.418,-0.1087821,0.02991255,0.05919517,-0.647233724594116,-0.204921215772629,0.31919938325882,-0.560008885098767,-0.240956178420931,0.346672176798798,7
1.18000030517578,-0.590738594532013,2.82881903648376,1.3153030872345,-0.322555076427271,2.82702994219644,1.34253404791935,1153.584,1420.97,3125.297,3200.774,-0.110698,0.02838466,0.06139806,-0.6527960896492,-0.215115696191788,0.323951721191406,-0.573468357077025,-0.246747413199059,0.355004231116904,7
1.19999694824219,-0.603913962841034,2.82431292533875,1.32187783718109,-0.334156660511822,2.8220381046756,1.34971598112778,1153.853,1422.728,3127.745,3207.676,-0.1124264,0.0268962,0.06371189,-0.658768773078918,-0.2253088504076,0.328736990690231,-0.58687652428584,-0.252516572968185,0.36330452533874,7
1.22000122070313,-0.617217123508453,2.81960368156433,1.3285505771637,-0.346030421585499,2.81692915700008,1.35706640485806,1154.983,1423.464,3132.017,3213.468,-0.1139519,0.02545786,0.06611194,-0.665158629417419,-0.235464662313461,0.333635956048965,-0.600236516861372,-0.258265004538453,0.371574997167698,7
1.23999786376953,-0.630656242370605,2.81469297409058,1.33532226085663,-0.358166167196084,2.81170748469733,1.36457900949675,1157.956,1423.86,3134.217,3220.178,-0.1152749,0.02408218,0.06856931,-0.671954095363617,-0.245536491274834,0.338587194681168,-0.613531154887641,-0.263985315871967,0.379805011417393,7
1.25999450683594,-0.64423930644989,2.80958318710327,1.34219598770142,-0.3705671011502,2.80637170925886,1.37225577835275,1161.446,1423.516,3138.544,3225.549,-0.1163935,0.02277817,0.07105622,-0.67915403842926,-0.255492001771927,0.343686640262604,-0.626758665639206,-0.269676744214496,0.387993470686331,7
1.27999877929688,-0.657974064350128,2.80427742004395,1.34917378425598,-0.383236695417198,2.80092033679326,1.3800988607405,1165.135,1422.782,3142.244,3231.917,-0.1173122,0.02155522,0.07354993,-0.686738312244415,-0.265292346477509,0.348892122507095,-0.639917282339435,-0.275338529371412,0.396139281255613,8
1.29999542236328,-0.671867847442627,2.79877948760986,1.35625803470612,-0.396163740917024,2.79535819025452,1.38810131770546,1173.673,1421.995,3145.034,3234.861,-0.1180398,0.02042641,0.07601499,-0.694689810276031,-0.274902641773224,0.354209750890732,-0.652990303744023,-0.280963485263868,0.404232104259424,8
1.31999969482422,-0.68592768907547,2.79309344291687,1.36345267295837,-0.409356423791328,2.7896817473746,1.39626821685929,1178.98,1420.366,3151.143,3238.873,-0.1186002,0.0193878,0.07845677,-0.702993512153625,-0.284301847219467,0.359729826450348,-0.665981146317813,-0.286553081901244,0.412274054652251,8
1.33999633789063,-0.700159966945648,2.78722429275513,1.37075984477997,-0.422802873722428,2.78389611561957,1.40459220990988,1185.801,1418.256,3155.781,3243.158,-0.1189975,0.01844583,0.08086145,-0.711618185043335,-0.293458670377731,0.365357339382172,-0.678873453515705,-0.29210028151913,0.420255006953505,8
1.36000061035156,-0.714571058750153,2.78117728233337,1.3781830072403,-0.436511415158101,2.77799771321212,1.41307845008695,1193.327,1415.394,3162.19,3245.849,-0.119235,0.01760221,0.08321925,-0.720549046993256,-0.302354276180267,0.371157318353653,-0.691670720740693,-0.297606588091785,0.42817712498415,8
1.37999725341797,-0.729166090488434,2.77495813369751,1.38572418689728,-0.450469530727146,2.77199192602736,1.42171918854144,1202.074,1412.465,3166.377,3249.509,-0.1193304,0.01685806,0.08552039,-0.729755282402039,-0.310960680246353,0.377057284116745,-0.704356955827446,-0.303065120637236,0.436030508832034,8
1.40000152587891,-0.743950486183167,2.76857280731201,1.39338707923889,-0.464685685951852,2.76587511158757,1.43051966583492,1209.79,1408.759,3172.925,3252.638,-0.1192958,0.01621196,0.0877568,-0.739223837852478,-0.319266110658646,0.383144468069077,-0.716935713767318,-0.308477408768949,0.443817359206152,8
1.41999816894531,-0.758928954601288,2.76202774047852,1.40117394924164,-0.47914673136562,2.75965292774086,1.43947174182117,1217.847,1405.1,3177.676,3256.824,-0.119144,0.01566483,0.08991488,-0.748922228813171,-0.32725065946579,0.389342814683914,-0.729391385793766,-0.313836736470737,0.451528013536465,8
1.43999481201172,-0.774105608463287,2.75532960891724,1.4090883731842,-0.493855616658466,2.75332410531803,1.44857724249882,1225.333,1400.883,3184.643,3259.734,-0.1188766,0.01521596,0.09198212,-0.758833885192871,-0.334908425807953,0.395722955465317,-0.7417228873516,-0.319142637088802,0.459161800431646,8
1.45999908447266,-0.789484083652496,2.74848508834839,1.41713261604309,-0.508815552717244,2.74688726276417,1.45783815555978,1232.833,1396.722,3190.227,3263.453,-0.1184968,0.014866,0.09394849,-0.768923223018646,-0.342225402593613,0.402212470769882,-0.753929052770513,-0.324394609067776,0.466717998286247,8
1.47999572753906,-0.805067241191864,2.74150133132935,1.42530858516693,-0.524012471663969,2.74034845309416,1.46724577231745,1244.656,1393.091,3193.954,3264.063,-0.1180217,0.01461853,0.09579039,-0.779162526130676,-0.349190086126328,0.408801376819611,-0.765994882555672,-0.329586198544069,0.474187321698441,8
1.5,-0.82085794210434,2.7343852519989,1.43362021446228,-0.539455198877605,2.73370387899399,1.4768055561018,1252.072,1388.757,3201.068,3266.143,-0.1174795,0.01446114,0.09752359,-0.789532005786896,-0.355806678533554,0.415580421686172,-0.777924000354858,-0.334718964672088,0.481572013878822,8
1.51999664306641,-0.836857795715332,2.72714376449585,1.4420690536499,-0.555129074991064,2.72695984797977,1.48650843206629,1259.813,1384.505,3206.291,3268.937,-0.1168739,0.0143928,0.09914191,-0.799992322921753,-0.36206990480423,0.422440707683563,-0.789701834723693,-0.339786637766398,0.488863054409188,8
1.54000091552734,-0.853068232536316,2.71978402137756,1.45065784454346,-0.571043070329722,2.72011250037111,1.49635995326965,1267.739,1379.875,3213.198,3269.798,-0.1162017,0.01441,0.1006408,-0.810524940490723,-0.367985367774963,0.429437220096588,-0.801332006385301,-0.344790775723006,0.496062684689629,8
1.55999755859375,-0.869490087032318,2.71231317520142,1.45938730239868,-0.587181951496087,2.71316839067337,1.50635068951315,1276.792,1375.813,3217.073,3271.4,-0.1154795,0.01450991,0.1020172,-0.821091830730438,-0.373547673225403,0.436474770307541,-0.812800388649436,-0.349725300221754,0.503162159625937,8
1.57999420166016,-0.886123716831207,2.70473790168762,1.46826004981995,-0.603548545866849,2.70612630234534,1.51648239107766,1284.556,1371.302,3223.095,3272.22,-0.1147183,0.01468471,0.1032716,-0.831678628921509,-0.378766506910324,0.443636983633041,-0.824106301004481,-0.354589918457504,0.510161057949003,8
1.59999847412109,-0.90296870470047,2.6970648765564,1.47727715969086,-0.620145926473056,2.69898491314762,1.52675696031579,1290.65,1366.908,3228.159,3274.738,-0.1139247,0.01492909,0.1044058,-0.842252194881439,-0.383646011352539,0.45085808634758,-0.835248923368005,-0.359384277571697,0.517058871988737,8
1.6199951171875,-0.920024454593658,2.68930101394653,1.48643946647644,-0.636958033083316,2.69175113334911,1.53716445517924,1300.237,1363.269,3231.246,3274.499,-0.1131092,0.01524411,0.1054012,-0.852787017822266,-0.388191103935242,0.458112567663193,-0.846214826007804,-0.364102599125749,0.523847288101157,8
1.63999938964844,-0.937289893627167,2.68145251274109,1.49574911594391,-0.653994195024907,2.68442094880091,1.54771065096602,1305.56,1359.068,3237.561,3275.32,-0.1122863,0.01561653,0.1062756,-0.863267540931702,-0.392419874668121,0.465480476617813,-0.857007552155828,-0.368746407673381,0.530528499715628,8
1.65999603271484,-0.954762935638428,2.6735258102417,1.50520598888397,-0.671237824488362,2.67700149677403,1.55838527903188,1311.568,1355.375,3241.259,3276.624,-0.1114554,0.01604464,0.107026,-0.873656868934631,-0.396339148283005,0.472841054201126,-0.867614155697522,-0.373310132863173,0.537094492570531,8
1.68000030517578,-0.972441732883453,2.66552662849426,1.51481103897095,-0.688698391434734,2.66948870260877,1.56919420173384,1317.648,1351.502,3246.409,3276.052,-0.1106139,0.01652321,0.1076531,-0.883942067623138,-0.399964809417725,0.480252742767334,-0.878038122530658,-0.377795274579551,0.543547424602645,8
1.69999694824219,-0.990323603153229,2.6574604511261,1.5245635509491,-0.706358800111611,2.66188992212981,1.58012683598675,1324.352,1348.386,3248.582,3276.385,-0.1097776,0.01704765,0.1081592,-0.894090831279755,-0.403303146362305,0.487625598907471,-0.888267004546665,-0.382196476749158,0.549879589839776,8
1.72000122070313,-1.00840544700623,2.64933300018311,1.53446447849274,-0.724228658537036,2.6542010212754,1.5911891296115,1329.214,1344.854,3253.279,3275.949,-0.1089526,0.01760861,0.1085513,-0.904095768928528,-0.406374096870422,0.49504566192627,-0.898304216251578,-0.386515208538549,0.556093102023817,8
1.73999786376953,-1.02668392658234,2.64114928245544,1.54451262950897,-0.742290383213093,2.64642956573347,1.60237019758524,1333.827,1341.993,3255.374,3276.842,-0.1081483,0.01820215,0.1088314,-0.913926482200623,-0.409188151359558,0.502410650253296,-0.908137821269591,-0.39074633405868,0.562180571969536,8
1.75999450683594,-1.04515540599823,2.6329140663147,1.55470848083496,-0.760546715064628,2.63857437616062,1.61367173667103,1337.467,1338.844,3259.742,3276.146,-0.1073589,0.01882235,0.1090019,-0.923577010631561,-0.411766707897186,0.50979346036911,-0.917767514700581,-0.394889722119545,0.568141810929231,8
1.77999877929688,-1.06381595134735,2.62463164329529,1.56505060195923,-0.779000609654483,2.63063418086074,1.62509557650306,1340.117,1336.114,3262.327,3276.925,-0.1065824,0.01946473,0.1090693,-0.933020174503326,-0.414121955633163,0.517106354236603,-0.927192788821983,-0.398945154262308,0.57397650459845,8
1.79999542236328,-1.08266079425812,2.61630630493164,1.57553720474243,-0.797633790944145,2.62261684350262,1.63663040334288,1346.832,1334.368,3262.414,3274.759,-0.1058287,0.0201306,0.1090205,-0.942240595817566,-0.416264533996582,0.524329304695129,-0.936402499096495,-0.402907835303912,0.579677753977713,7
1.81999969482422,-1.10168552398682,2.60794186592102,1.58616840839386,-0.816456197270346,2.61451808789761,1.64828236949435,1348.5,1332.009,3266.184,3274.099,-0.105115,0.02080431,0.1088822,-0.951235592365265,-0.418218553066254,0.531561493873596,-0.945399824400851,-0.406779133026206,0.585247526943151,7
1.83999633789063,-1.12088513374329,2.59954190254211,1.59694194793701,-0.835449117627072,2.60634596486888,1.66003989195343,1349.947,1330.157,3267.404,3274.731,-0.1044369,0.02148434,0.108657,-0.959979176521301,-0.419997543096542,0.538676619529724,-0.954174163352093,-0.410554485950274,0.590679260733698,7
1.86000061035156,-1.14025449752808,2.59110951423645,1.60785663127899,-0.854622615239374,2.59809614449182,1.6719092003358,1351.577,1328.145,3270.278,3273.156,-0.1037791,0.02216781,0.1083461,-0.968470990657806,-0.421621531248093,0.545736610889435,-0.962728579444532,-0.414235212212131,0.595974851798267,7
1.87999725341797,-1.15978813171387,2.58264756202698,1.61890947818756,-0.873957566090845,2.58977685529642,1.6838784559643,1354.137,1327.031,3269.704,3272.569,-0.1031506,0.02285247,0.1079532,-0.976688861846924,-0.423098534345627,0.552639663219452,-0.971053025860989,-0.417816988947023,0.601128080678429,7
1.90000152587891,-1.17948091030121,2.57415866851807,1.63009905815125,-0.893464153455626,2.58138371570432,1.69595396277071,1355.301,1325.598,3271.544,3270.936,-0.1025525,0.02353122,0.107486,-0.984637796878815,-0.424448013305664,0.559481620788574,-0.979150439632688,-0.421301079877433,0.606140765536421,7
1.91999816894531,-1.19932699203491,2.56564497947693,1.64142239093781,-0.913122862707269,2.57292512231409,1.70812364027167,1355.924,1324.836,3270.856,3271,-0.1019932,0.0242011,0.1069496,-0.992299139499664,-0.425680339336395,0.566166579723358,-0.987011339258123,-0.424683405378145,0.611007036871143,7
1.93999481201172,-1.2193204164505,2.55710864067078,1.65287792682648,-0.932936403420974,2.56439990927123,1.72038916582329,1355.435,1323.747,3272.74,3269.482,-0.1014616,0.02485848,0.1063483,-0.999678790569305,-0.426815718412399,0.572775840759277,-0.994635661494588,-0.427963938237592,0.615726855532351,7
1.95999908447266,-1.23945569992065,2.54855132102966,1.66446220874786,-0.952907658613767,2.55580683609405,1.73275232415044,1354.041,1323.074,3272.718,3269.603,-0.1009503,0.0255017,0.1056898,-1.00675988197327,-0.427863866090775,0.579216241836548,-1.00202309041976,-0.431142542523221,0.620300025949072,7
1.97999572753906,-1.25972628593445,2.53997468948364,1.67617166042328,-0.973016570682103,2.54715453300902,1.74520069864106,1357.259,1323.349,3270.126,3266.524,-0.100464,0.02613446,0.1049602,-1.01353824138641,-0.42883163690567,0.58547168970108,-1.00916501115878,-0.434215511495054,0.624721215103391,7
2,-1.28012681007385,2.53137993812561,1.68800473213196,-0.993273599084619,2.53843849960327,1.7577407641983,1355.321,1323,3271.403,3265.089,-0.1000177,0.02674345,0.1041884,-1.02002191543579,-0.429738283157349,0.591652870178223,-1.01606400046349,-0.437183953857422,0.628992018127441,6
2.01999664306641,-1.30065059661865,2.52276802062988,1.69995737075806,-1.01365835337184,2.52966750931758,1.77035989816261,1353.014,1323.026,3270.171,3265.342,-0.09960435,0.02732931,0.1033781,-1.02619540691376,-0.43059229850769,0.59763240814209,-1.02271203275434,-0.440044416427654,0.633107466805174,6
2.04000091552734,-1.32129192352295,2.51413989067078,1.7120269536972,-1.0341813929022,2.52083701875502,1.78306463727984,1351.314,1322.835,3270.761,3263.045,-0.09920222,0.02789277,0.1025289,-1.03206872940063,-0.431407809257507,0.60348105430603,-1.02911152474823,-0.442797939051516,0.637069057199471,6
2.05999755859375,-1.34204459190369,2.50549626350403,1.72420883178711,-1.05482201812353,2.5119559343546,1.79584216754118,1350.589,1323.433,3267.822,3262.067,-0.09881712,0.0284335,0.1016447,-1.03762876987457,-0.432185709476471,0.609095096588135,-1.03525504859546,-0.445441325732794,0.640872191117535,6
2.07999420166016,-1.36290240287781,2.4968376159668,1.7365003824234,-1.07558293843174,2.50302309033894,1.80869416619175,1348.826,1323.654,3267.399,3259.858,-0.09844748,0.02894825,0.1007312,-1.04288959503174,-0.432937860488892,0.614580452442169,-1.0411426556922,-0.447974598585819,0.644516900376035,6
2.09999847412109,-1.38385927677155,2.48816418647766,1.74889767169952,-1.09646699912883,2.4940372624541,1.82162239460902,1345.029,1324.057,3265.765,3260.126,-0.09809115,0.02943506,0.09979749,-1.04784321784973,-0.433668673038483,0.619864583015442,-1.04677411523768,-0.450397658303471,0.648003042098304,5
2.1199951171875,-1.40490913391113,2.47947645187378,1.76139628887177,-1.11745308225396,2.48500753716864,1.83461377976925,1345.58,1325.189,3262.091,3257.194,-0.09774441,0.02990065,0.09882646,-1.0524914264679,-0.43438047170639,0.624931573867798,-1.0521429102862,-0.45270770082608,0.651326581984514,5
2.13999938964844,-1.4260458946228,2.47077488899231,1.77399396896362,-1.138551967509,2.47592927627801,1.8476749948214,1341.47,1325.749,3262.149,3255.587,-0.09741524,0.03033583,0.09784302,-1.05684578418732,-0.435085892677307,0.629884421825409,-1.05725102347782,-0.454905579228273,0.654488747383304,4
2.15999603271484,-1.44726395606995,2.46205925941467,1.78668570518494,-1.15974228854654,2.4668116731246,1.86079281297862,1338.036,1326.657,3259.237,3255.288,-0.09709246,0.03074443,0.09684698,-1.06089437007904,-0.435784697532654,0.63458913564682,-1.06209255378819,-0.456988754464129,0.657485885279498,4
2.18000030517578,-1.46855688095093,2.45332956314087,1.79946839809418,-1.18103490068612,2.45765005696766,1.87397395420079,1335.46,1327.266,3258.344,3252.313,-0.09675904,0.03112815,0.09583765,-1.06465184688568,-0.436483472585678,0.639135003089905,-1.06666929835407,-0.458957999791384,0.660319108186354,3
2.19999694824219,-1.48991894721985,2.44458603858948,1.81233692169189,-1.20240821395574,2.44845371736898,1.88720505326679,1333.502,1328.465,3254.232,3251.046,-0.09642294,0.03148766,0.09482044,-1.06810903549194,-0.437176525592804,0.643424034118652,-1.07097597819164,-0.460811043810786,0.662985148161421,1
2.22000122070313,-1.5113445520401,2.4358286857605,1.82528817653656,-1.22387315175433,2.43921795429519,1.90049287228091,1330.461,1329.147,3252.819,3248.649,-0.09608153,0.03182072,0.09379991,-1.07128274440765,-0.437869399785995,0.647564053535461,-1.07501419914593,-0.462548577472581,0.665484999299265,0
2.23999786376953,-1.53282785415649,2.42705750465393,1.83831739425659,-1.24540792547886,2.42995214277345,1.91382392305993,1327.217,1330.241,3248.938,3248.116,-0.09573851,0.03212903,0.09277769,-1.07416605949402,-0.438557833433151,0.651460587978363,-1.07877930973132,-0.464168599372462,0.667815782108711,0
2.25999450683594,-1.554363489151,2.41827249526978,1.85142159461975,-1.26701526177039,2.4206551096063,1.92719989352455,1323.391,1330.869,3247.789,3245.785,-0.09537845,0.03241403,0.09175356,-1.07677447795868,-0.439247071743011,0.655207931995392,-1.08227143928024,-0.465671165158559,0.669977576652695,0
2.27999877929688,-1.57594537734985,2.40947389602661,1.86459600925446,-1.28869796983554,2.41132564607061,1.9406225227075,1318.793,1331.657,3244.883,3245.379,-0.09499282,0.03267766,0.09073222,-1.07910108566284,-0.439931690692902,0.658718407154083,-1.08549040888332,-0.467056197851165,0.67197027217779,0
2.29999542236328,-1.59756863117218,2.40066170692444,1.87783563137054,-1.31043401044317,2.40197323503182,1.95407816727483,1319.728,1333.038,3239.615,3241.313,-0.09458163,0.03292861,0.08969398,-1.08114981651306,-0.440603733062744,0.661982774734497,-1.08843251702753,-0.468322104792631,0.6737915772711,0
2.31999969482422,-1.61922717094421,2.39183640480042,1.89113819599152,-1.33223444283894,2.39259311800549,1.96757367342642,1315.413,1333.78,3238.38,3239.158,-0.09416299,0.03315651,0.08866623,-1.08293437957764,-0.441267788410187,0.665126800537109,-1.09109887036509,-0.469469362144493,0.675442177003072,0
2.33999633789063,-1.64091610908508,2.38299798965454,1.90449857711792,-1.35407709248145,2.38319483607731,1.98109531406483,1311.105,1334.532,3234.691,3238.879,-0.09372782,0.03336604,0.08764795,-1.08444607257843,-0.441917389631271,0.668020486831665,-1.09348640563071,-0.470496651869278,0.67692017506657,0
2.36000061035156,-1.66263008117676,2.37414693832397,1.91791355609894,-1.37597305876702,2.37377361348711,1.99464996024512,1307.91,1334.878,3233.163,3235.688,-0.09325378,0.03356121,0.08663338,-1.0857001543045,-0.442553132772446,0.670751750469208,-1.09559602313537,-0.471404361345641,0.678226128796969,0
2.37999725341797,-1.6843638420105,2.36528348922729,1.93137788772583,-1.39790005743958,2.36433903852774,2.00822381695123,1305.806,1335.701,3228.292,3234.06,-0.09274618,0.03374466,0.08562347,-1.08668828010559,-0.443162500858307,0.67321765422821,-1.09742530100382,-0.472191448508328,0.679358538938131,0
2.39999389648438,-1.70611238479614,2.3564088344574,1.94488859176636,-1.41986083522252,2.35488992936084,2.02181858453579,1303.271,1336.002,3226.071,3230.853,-0.09220237,0.0339164,0.08461916,-1.0874263048172,-0.443744570016861,0.675533056259155,-1.09897439291323,-0.472857979480329,0.680317500623536,0
2.41999816894531,-1.72787046432495,2.34752297401428,1.95844101905823,-1.44185817738692,2.34542508756209,2.03543598721428,1298.761,1336.278,3222.523,3230.613,-0.09162392,0.03407659,0.08362603,-1.08790898323059,-0.444290637969971,0.677624404430389,-1.10024313330221,-0.473403883025206,0.681102911362803,0
2.43999481201172,-1.74963355064392,2.33862709999084,1.97203087806702,-1.46386968334064,2.3359541514805,2.04906215795307,1299.373,1336.904,3217.472,3226.478,-0.09100661,0.03423487,0.08262052,-1.08814144134521,-0.444792419672012,0.679492592811584,-1.10123006676374,-0.473828532921971,0.681713870189648,0
2.45999908447266,-1.77139604091644,2.3297221660614,1.98565566539764,-1.48590651627916,2.32647231790489,2.06270400730194,1294.877,1336.997,3216.089,3224.318,-0.09036212,0.03438312,0.08162664,-1.08813345432281,-0.44525134563446,0.681242525577545,-1.10193556692257,-0.474132089930926,0.682150608395601,0
2.47999572753906,-1.7931535243988,2.32080912590027,1.99931049346924,-1.50794623031618,2.31698924467309,2.07634764018804,1291.692,1337.077,3211.964,3223.125,-0.08967876,0.03452759,0.08063751,-1.08787572383881,-0.445657342672348,0.68274188041687,-1.10235882472314,-0.474314205938057,0.682412625136718,0
2.5,-1.81490111351013,2.31188893318176,2.01299214363098,-1.52999999932945,2.30750012397766,2.08999997377396,1289.771,1336.794,3209.844,3219.11,-0.08894213,0.03467164,0.07964834,-1.08738088607788,-0.44600772857666,0.684085607528687,-1.10250000050292,-0.474374949932098,0.682500019669533,0
2.51999664306641,-1.83663380146027,2.30296325683594,2.026695728302,-1.55204535801192,2.29801462201262,2.10364710096447,1288.496,1336.834,3204.801,3216.898,-0.08816288,0.03481629,0.07866171,-1.08664047718048,-0.446289151906967,0.685182273387909,-1.10235893238473,-0.47431425226183,0.68241269178437,0
2.54000091552734,-1.85834729671478,2.29403328895569,2.04041862487793,-1.57409348237975,2.28852793005043,2.11729594024597,1286.418,1336.3,3202.432,3213.489,-0.08734156,0.03496124,0.07767817,-1.08566772937775,-0.446499824523926,0.68614137172699,-1.10193556692257,-0.474132089930926,0.682150608395601,0
2.55999755859375,-1.88003635406494,2.28510069847107,2.05415606498718,-1.59612191359838,2.27904971150017,2.13093258853001,1284.209,1335.949,3197.865,3211.944,-0.08648349,0.03510811,0.07669641,-1.08445560932159,-0.446629732847214,0.686874091625214,-1.10123038958312,-0.473828671822132,0.681714070030222,0
2.57999420166016,-1.90169668197632,2.27616715431213,2.06790542602539,-1.61813342708139,2.26957877217893,2.14455876392979,1281.731,1335.113,3195.933,3208.507,-0.08557802,0.03525906,0.07571265,-1.08301544189453,-0.446678191423416,0.687474071979523,-1.10024356351463,-0.47340406813359,0.681103177684783,0
2.59999847412109,-1.92332339286804,2.26723456382751,2.08166265487671,-1.64013077892511,2.26011392621545,2.15817617260023,1278.555,1334.306,3192.352,3207.047,-0.08461928,0.03541603,0.07472865,-1.08133935928345,-0.446635633707047,0.687857866287231,-1.09897493039424,-0.472858210743393,0.680317833349887,0
2.6199951171875,-1.9449120759964,2.25830483436584,2.09542298316956,-1.66209156852628,2.2506648119635,2.17177094750084,1280.995,1333.801,3186.819,3201.786,-0.08360941,0.03558687,0.07372226,-1.07942867279053,-0.446491658687592,0.688021779060364,-1.09742594550583,-0.472191725819537,0.679358937915576,0
2.63999938964844,-1.96645796298981,2.24937963485718,2.10918474197388,-1.68402693989188,2.24122663446822,2.18534998730279,1278.331,1332.872,3184.932,3198.523,-0.08257131,0.03576225,0.07271829,-1.07729125022888,-0.446247398853302,0.688086330890656,-1.09559602313537,-0.471404361345641,0.67822612879697,0
2.65999603271484,-1.98795628547668,2.24046182632446,2.12294340133667,-1.70591456353497,2.23180900148401,2.19889946898997,1275.681,1331.716,3181.029,3196.989,-0.08149752,0.03594542,0.0717136,-1.07491838932037,-0.445895493030548,0.687931001186371,-1.09348726343002,-0.470497020956359,0.676920706085208,0
2.68000030517578,-2.00940251350403,2.23155331611633,2.13669610023499,-1.72776555581996,2.22240712994983,2.2124262741215,1274.245,1330.202,3178.899,3192.809,-0.08037047,0.03613995,0.07069997,-1.07231914997101,-0.445434778928757,0.687632620334625,-1.09109887036509,-0.469469362144494,0.675442177003072,0
2.69999694824219,-2.0307924747467,2.22265625,2.15043807029724,-1.74955768413056,2.21303058593937,2.22591663964878,1274.163,1329.039,3173.852,3189.693,-0.07919868,0.03634759,0.06967527,-1.06948506832123,-0.444854319095612,0.687102973461151,-1.08843358680109,-0.468322565086308,0.673792239511893,0
2.72000122070313,-2.05212068557739,2.21377325057983,2.16416716575623,-1.77130202882336,2.20367460188472,2.23937742484041,1273.251,1327.44,3171.408,3185.366,-0.07798481,0.03656686,0.06864129,-1.06642544269562,-0.444153755903244,0.686451971530914,-1.08549040888332,-0.467056197851165,0.671970272177789,0
2.73999786376953,-2.07338333129883,2.20490670204163,2.17787885665894,-1.79297647980783,2.19434869114016,2.25279494249708,1272.272,1325.997,3166.643,3182.99,-0.07673792,0.03679841,0.0675972,-1.06313180923462,-0.443325072526932,0.685586035251617,-1.08227271937422,-0.465671715947234,0.669978369091845,0
2.75999450683594,-2.09457588195801,2.19605898857117,2.19157099723816,-1.81458384274179,2.18505164650952,2.26617092945464,1270.935,1324.138,3164.536,3178.741,-0.07545002,0.03704279,0.06653962,-1.05961346626282,-0.442370057106018,0.684603989124298,-1.07878069424208,-0.464169195088763,0.667816639186824,0
2.77999877929688,-2.11569309234619,2.18723368644714,2.20523953437805,-1.83612684690458,2.17578229366013,2.27950707526701,1268.461,1322.291,3161.018,3176.664,-0.07411844,0.03730055,0.06547172,-1.05586230754852,-0.441283047199249,0.683425307273865,-1.07501419914593,-0.462548577472581,0.665484999299265,0
2.79999542236328,-2.13673043251038,2.17843222618103,2.21888017654419,-1.85758361379882,2.16655004629821,2.2927898361021,1271.617,1320.689,3155.459,3170.869,-0.07274424,0.03757878,0.06437048,-1.05187797546387,-0.440057188272476,0.682036459445953,-1.07097756992209,-0.460811728687929,0.662986133518392,0
2.81999969482422,-2.1576840877533,2.16965818405151,2.2324914932251,-1.87896509797278,2.15735019098767,2.30602599334712,1270.17,1318.886,3153.533,3166.374,-0.07134981,0.0378678,0.06325997,-1.04766643047333,-0.438696384429932,0.680564701557159,-1.06666929835407,-0.458957999791384,0.660319108186353,0
2.83999633789063,-2.17854833602905,2.16091442108154,2.24606895446777,-1.90024960698239,2.14819206138118,2.31920211834584,1267.868,1316.813,3149.418,3164.671,-0.06993248,0.03816861,0.06214071,-1.04321837425232,-0.437196731567383,0.678879261016846,-1.06209435025759,-0.456989527434725,0.657486997379635,0
2.86000061035156,-2.19931888580322,2.15220332145691,2.25961017608643,-1.9214480311499,2.13907097167731,2.33232495272651,1267.639,1314.459,3147.1,3159.379,-0.06847306,0.03848527,0.06100044,-1.03854238986969,-0.435560613870621,0.677063345909119,-1.05725102347782,-0.454905579228273,0.654488747383304,0
2.87999725341797,-2.21999144554138,2.14352774620056,2.27311086654663,-1.94253888918396,2.12999616467562,2.34538119854648,1267.951,1312.491,3142.127,3155.658,-0.06698383,0.03881703,0.05984176,-1.03363037109375,-0.433781951665878,0.675032734870911,-1.05214490868305,-0.452708560680416,0.651327819087361,0
2.89999389648438,-2.24056124687195,2.13489055633545,2.2865686416626,-1.96352501326936,2.1209664217661,2.35837260906308,1267.535,1310.16,3139.49,3150.773,-0.06546636,0.03916181,0.05866619,-1.02848935127258,-0.431863248348236,0.672885417938232,-1.04677621342161,-0.450398561093403,0.648004340974112,0
2.91999816894531,-2.26102352142334,2.12629461288452,2.29997968673706,-1.98440911693069,2.11198057539494,2.37130086407726,1265.528,1307.81,3135.658,3148.358,-0.06392279,0.03951842,0.05747736,-1.02311372756958,-0.42980232834816,0.6705521941185,-1.04114485287423,-0.447975543971863,0.644518260536375,0
2.93999481201172,-2.28137373924255,2.11774277687073,2.31334018707275,-2.00517008215741,2.10304771205211,2.38415289053452,1268.325,1305.64,3130.477,3142.371,-0.06235152,0.03989287,0.05625385,-1.01750481128693,-0.427597463130951,0.668029725551605,-1.03525734386973,-0.445442313325187,0.640873612001643,0
2.95999908447266,-2.30160689353943,2.10923743247986,2.32664847373962,-2.02581860575671,2.0941632292003,2.39693531026807,1266.478,1303.447,3128.277,3138.109,-0.06077174,0.04027648,0.0550174,-1.0116662979126,-0.425254106521606,0.665417850017548,-1.02911152474823,-0.442797939051516,0.637069057199471,0
2.97999572753906,-2.32171869277954,2.10078191757202,2.33990049362183,-2.04633384260397,2.08533609591429,2.40963521915279,1265.09,1301.042,3124.078,3135.14,-0.05917597,0.0406711,0.0537645,-1.00559198856354,-0.42277204990387,0.662600159645081,-1.02271452148052,-0.440045487257004,0.633109007445237,0
3,-2.34170436859131,2.09237885475159,2.35309362411499,-2.06672639957428,2.07656174835205,2.42225918334961,1264.943,1298.494,3121.415,3129.573,-0.05755144,0.04107852,0.05248937,-0.999288260936737,-0.420154869556427,0.659652292728424,-1.01606400046349,-0.437183953857422,0.628992018127441,0
3.01999664306641,-2.36155986785889,2.08403086662292,2.36622357368469,-2.08697572864857,2.06784902775215,2.4347944826559,1265.504,1296.237,3116.201,3125.417,-0.05590987,0.04149781,0.05119365,-0.992749035358429,-0.417399793863297,0.656493484973907,-1.00916768936771,-0.434216663853534,0.624722873042298,0
3.04000091552734,-2.3812792301178,2.07574081420898,2.37928795814514,-2.10709234004513,2.05919341186127,2.44724762339747,1265.237,1293.749,3113.345,3120.073,-0.05425445,0.04192625,0.04987989,-0.985981404781342,-0.414511650800705,0.653224885463715,-1.00202309041976,-0.43114254252322,0.620300025949072,0
3.05999755859375,-2.40085887908936,2.06751108169556,2.39228320121765,-2.12705600675913,2.05060360379452,2.45960608409476,1264.671,1291.406,3108.463,3116.635,-0.05259424,0.04236292,0.04854929,-0.978980600833893,-0.411490499973297,0.649758636951447,-0.994638524886308,-0.427965170275055,0.615728628108227,0
3.07999420166016,-2.42029404640198,2.05934429168701,2.40520691871643,-2.14686960564145,2.04207836572333,2.47187164565552,1263.821,1288.871,3105.893,3111.377,-0.05092177,0.04280734,0.04720002,-0.97175407409668,-0.408342599868774,0.646183550357819,-0.987014293508169,-0.424684676509408,0.611008865692653,0
3.09999847412109,-2.43957996368408,2.05124282836914,2.41805529594421,-2.16653584520328,2.033616532251,2.4840459847772,1261.778,1286.417,3101.903,3108.331,-0.04923546,0.04325853,0.04583673,-0.964297890663147,-0.405068933963776,0.642421901226044,-0.979150439632689,-0.421301079877433,0.606140765536421,0
3.1199951171875,-2.45871210098267,2.04320907592773,2.43082475662231,-2.18603502400946,2.02522658035469,2.49611690533293,1264.928,1284.096,3096.517,3101.486,-0.04753263,0.04372167,0.04444057,-0.956614136695862,-0.401670128107071,0.638471126556396,-0.971056158224178,-0.417818336715394,0.601130019760458,0
3.13999938964844,-2.47768640518188,2.0352463722229,2.4435133934021,-2.20537738341953,2.01690410346351,2.50809074721212,1263.485,1281.938,3093.713,3096.604,-0.0458378,0.04418684,0.04303616,-0.9487065076828,-0.398152142763138,0.634429574012756,-0.962728579444533,-0.414235212212131,0.595974851798267,0
3.15999603271484,-2.496497631073,2.02735614776611,2.45611715316772,-2.22454360124808,2.00865741537402,2.51995554906156,1261.654,1279.467,3089.032,3093.896,-0.04414828,0.04465514,0.04162126,-0.94057309627533,-0.394517779350281,0.630187213420868,-0.95417746870157,-0.410555908149813,0.590681306902481,0
3.18000030517578,-2.51514196395874,2.01954054832458,2.46863389015198,-2.24354380138856,2.00048216005771,2.53171757805356,1261.366,1276.967,3086.333,3087.753,-0.04244706,0.04512838,0.04018773,-0.932222425937653,-0.390773773193359,0.625833094120026,-0.94539982440085,-0.406779133026206,0.58524752694315,0
3.19999694824219,-2.53361511230469,2.01180219650269,2.48105955123901,-2.2623590635174,1.99238647840124,2.54336512160655,1260.747,1274.766,3081.288,3083.814,-0.0407437,0.04560484,0.03874227,-0.923650920391083,-0.386920660734177,0.621278047561646,-0.936405971974636,-0.402909329586355,0.579679903854719,0
3.22000122070313,-2.55191230773926,2.00414276123047,2.49339151382446,-2.28099938900442,1.98436606709459,2.55490437104486,1260.541,1272.385,3077.906,3078.107,-0.03903555,0.04608347,0.03728293,-0.914865553379059,-0.382963359355927,0.61660224199295,-0.927192788821982,-0.398945154262308,0.573976504598449,0
3.23999786376953,-2.57002925872803,1.9965648651123,2.50562620162964,-2.29944628156995,1.97642888457015,2.56632387629027,1260.233,1270.211,3072.755,3073.94,-0.03733272,0.04656338,0.03581254,-0.905865550041199,-0.378903537988663,0.611740052700043,-0.917771149318993,-0.394891285994308,0.568144060931169,0
3.25999450683594,-2.58796262741089,1.98906993865967,2.51776170730591,-2.31770268688992,1.96857366338589,2.57762546085652,1259.178,1267.946,3069.537,3068.75,-0.03563416,0.04704251,0.03433233,-0.896658003330231,-0.374747455120087,0.606769740581512,-0.90814153446928,-0.390747931744771,0.562182870617026,0
3.27999877929688,-2.60570740699768,1.98166012763977,2.52979445457458,-2.33577134012187,1.96079922667992,2.58881081793642,1256.698,1265.718,3065.459,3065.56,-0.03393826,0.04752026,0.03284654,-0.887243628501892,-0.370498716831207,0.601632714271545,-0.898304216251578,-0.386515208538549,0.556093102023818,0
3.29999542236328,-2.62326002120972,1.9743367433548,2.54172086715698,-2.35363442159312,1.95311324175956,2.5998689163037,1258.783,1263.558,3060.17,3059.053,-0.0322381,0.04800117,0.03133831,-0.877626538276672,-0.366159915924072,0.596318244934082,-0.888270870184445,-0.382198140025101,0.549881982853707,0
3.31999969482422,-2.64061617851257,1.96710193157196,2.55353927612305,-2.37130160722417,1.94551154534655,2.61080574581408,1257.207,1261.724,3057.048,3053.879,-0.03055285,0.04847757,0.02982894,-0.867810726165771,-0.361736595630646,0.590915024280548,-0.878038122530657,-0.377795274579551,0.543547424602645,0
3.33999633789063,-2.65777206420898,1.9599574804306,2.56524562835693,-2.38875555478454,1.93800159931817,2.62161057080077,1255.381,1259.569,3052.215,3050.691,-0.02888092,0.04895005,0.0283188,-0.857798159122467,-0.357232391834259,0.58532327413559,-0.867618167158097,-0.373311858882592,0.53709697585572,0
3.36000061035156,-2.67472410202026,1.95290446281433,2.57683801651001,-2.406005803634,1.93057929915441,2.6322892965819,1254.867,1257.416,3048.918,3044.795,-0.02720952,0.0494196,0.02680151,-0.847597241401672,-0.352652877569199,0.579621016979218,-0.857007552155826,-0.36874640767338,0.530528499715627,0
3.37999725341797,-2.69146800041199,1.94594466686249,2.58831286430359,-2.42303550945299,1.9232518924954,2.64283149572124,1253.975,1255.506,3043.831,3040.746,-0.02554824,0.04988494,0.02528274,-0.837209165096283,-0.348000258207321,0.573741734027863,-0.846218976345105,-0.364104384899943,0.523849857357654,0
3.39999389648438,-2.70800065994263,1.9390789270401,2.59966802597046,-2.43984769972619,1.91601807669906,2.65323904237604,1253.131,1253.515,3040.321,3035.296,-0.02389388,0.05034542,0.02376221,-0.826641261577606,-0.343279361724854,0.567756116390228,-0.835253140422974,-0.35938609205264,0.51706148254665,0
3.41999816894531,-2.72431898117065,1.93230903148651,2.61090040206909,-2.45644516534361,1.90887665092339,2.66351366424015,1250.91,1251.602,3035.957,3031.872,-0.02224858,0.05079923,0.02224592,-0.815896689891815,-0.338493198156357,0.561616122722626,-0.824110582941664,-0.354591760855451,0.510163708672097,0
3.43999481201172,-2.74041843414307,1.92563605308533,2.62200665473938,-2.4728118459714,1.90183452548138,2.67364541920187,1252.217,1249.656,3030.734,3025.959,-0.02060914,0.05125022,0.02071997,-0.804981231689453,-0.333644658327103,0.555318236351013,-0.812804733542555,-0.349727169707881,0.503164849321754,0
3.45999908447266,-2.75629663467407,1.91906130313873,2.63298535346985,-2.48895692832918,1.89488774758421,2.68363999427827,1250.431,1248.098,3027.37,3021.067,-0.01899047,0.05169254,0.01920097,-0.793900012969971,-0.328738421201706,0.548940300941467,-0.801332006385299,-0.344790775723006,0.496062684689628,0
3.47999572753906,-2.77194976806641,1.91258573532104,2.64383339881897,-2.50486489870395,1.88804299234919,2.69348778574196,1248.214,1246.244,3022.672,3018.022,-0.01738938,0.05212675,0.01768916,-0.78265768289566,-0.323778718709946,0.542397499084473,-0.789706299681989,-0.339788558913217,0.488865818431069,0
3.5,-2.78737497329712,1.90621042251587,2.65454864501953,-2.5205447997813,1.88129636896134,2.70319439144611,1247.428,1244.427,3019.361,3012.284,-0.01579308,0.05255491,0.01617851,-0.771262466907501,-0.318770170211792,0.535757422447205,-0.777924000354857,-0.334718964672089,0.481572013878822,0
3.51999664306641,-2.80256938934326,1.89993596076965,2.66512775421143,-2.53598168290031,1.87465430941181,2.7127505574575,1246.517,1242.797,3014.231,3008.293,-0.01420903,0.05297558,0.01467446,-0.759717464447021,-0.313714563846588,0.528954386711121,-0.765999459475408,-0.329588167864767,0.474190155029786,0
3.54000091552734,-2.81752991676331,1.89376378059387,2.6755690574646,-2.55118444594166,1.86811298519115,2.72216179198813,1245.866,1241.128,3010.695,3002.724,-0.0126367,0.05338825,0.01317754,-0.748030006885529,-0.308615624904633,0.522063791751862,-0.753929052770513,-0.324394609067776,0.466717998286246,0
3.55999755859375,-2.83225393295288,1.88769435882568,2.68586945533752,-2.56613872308604,1.86167857751006,2.73141920191151,1244.498,1239.512,3005.639,2999.299,-0.01108408,0.05379166,0.01169235,-0.736204624176025,-0.303475767374039,0.515022218227386,-0.741727567798258,-0.319144650954242,0.459164697851087,0
3.57999420166016,-2.84673881530762,1.88172817230225,2.69602751731873,-2.58084770246059,1.8553497146065,2.74052476083022,1243.427,1237.887,3002.285,2994.078,-0.009545835,0.0541862,0.01021637,-0.724249601364136,-0.29829928278923,0.507903575897217,-0.729396114728537,-0.313838771199258,0.451530940972359,0
3.59999847412109,-2.86098194122314,1.87586641311646,2.70604062080383,-2.59531431270705,1.84912513636775,2.74948028171299,1240.756,1236.362,2998.089,2991.115,-0.008023039,0.05457059,0.008756577,-0.7121701836586,-0.29308894276619,0.50065678358078,-0.716935713767317,-0.308477408768949,0.443817359206151,0
3.6199951171875,-2.87498140335083,1.87010955810547,2.71590614318848,-2.60952509409627,1.84301063413925,2.75827743234631,1241.955,1234.685,2993.165,2985.367,-0.006508766,0.05494902,0.007298386,-0.699973583221436,-0.287847369909286,0.493278384208679,-0.704361775018033,-0.303067194200314,0.436033492140578,0
3.63999938964844,-2.88873481750488,1.86445784568787,2.72562289237976,-2.6234885835008,1.83700253474321,2.76692149746096,1240.281,1233.496,2989.701,2980.801,-0.005019526,0.05531637,0.00585832,-0.68766450881958,-0.282577216625214,0.485839903354645,-0.691670720740692,-0.297606588091786,0.428177124984152,0
3.65999603271484,-2.90223979949951,1.85891246795654,2.73518824577332,-2.63719194552437,1.83110636089208,2.77540453133521,1238.194,1231.95,2985.303,2977.832,-0.003552657,0.05567325,0.004437233,-0.675250291824341,-0.277282208204269,0.478272974491119,-0.678878353700696,-0.292102389931838,0.420258040401444,0
3.68000030517578,-2.91549468040466,1.85347294807434,2.74460077285767,-2.65064357486757,1.82531850058072,2.78373173068862,1237.316,1230.435,2981.887,2972.846,-0.002098571,0.05602099,0.003029401,-0.662739098072052,-0.271965652704239,0.470629930496216,-0.665981146317811,-0.286553081901244,0.412274054652249,0
3.69999694824219,-2.92849731445313,1.84814047813416,2.75385808944702,-2.66383127580226,1.81964420129024,2.79189554578451,1236.407,1229.081,2977.357,2968.929,-0.0006625945,0.05635937,0.001639093,-0.650136470794678,-0.2666295170784,0.462870895862579,-0.65299527533123,-0.280965624398954,0.404235181908735,0
3.71999359130859,-2.94124603271484,1.84291481971741,2.76295900344849,-2.6767584210412,1.81408201183655,2.79989806449274,1235.416,1227.71,2973.781,2964.385,0.0007550156,0.05668748,0.0002675976,-0.637449443340302,-0.261276423931122,0.455042898654938,-0.639922285921447,-0.275340682272968,0.396142378711232,0
3.73999786376953,-2.95373964309692,1.83779692649841,2.77190136909485,-2.68942811570037,1.808630596175,2.80774120902801,1233.667,1226.35,2969.749,2961.092,0.002152187,0.05700533,-0.001081243,-0.624684870243073,-0.255908608436584,0.447119891643524,-0.626763698705669,-0.269678909802388,0.38799658639423,0
3.75999450683594,-2.96597671508789,1.83278632164001,2.78068351745605,-2.70182915057228,1.80329477731443,2.81541804035694,1234.162,1224.9,2965.265,2956.316,0.003530518,0.05731459,-0.002416552,-0.611850261688232,-0.250528514385223,0.439101934432983,-0.613536214864365,-0.263987493038594,0.379808143784027,0
3.77999877929688,-2.97795605659485,1.82788348197937,2.78930449485779,-2.7139695770734,1.79807109095524,2.82293354268985,1232.38,1223.843,2962.18,2952.26,0.004879854,0.05761229,-0.003726295,-0.598951280117035,-0.245138749480247,0.431049048900604,-0.60023651686137,-0.258265004538452,0.371574997167698,0
3.79999542236328,-2.98967599868774,1.82308840751648,2.79776239395142,-2.72583886061506,1.79296406983666,2.83028119461452,1230.38,1222.461,2958.103,2949.689,0.006203913,0.05789899,-0.005009938,-0.585996568202972,-0.239742696285248,0.422895073890686,-0.586881630238189,-0.252518769916838,0.363307686166475,0
3.81999969482422,-3.00113582611084,1.8184015750885,2.80605626106262,-2.73744492223163,1.78797030575888,2.83746589962856,1230.088,1221.147,2954.951,2944.69,0.007512677,0.05817699,-0.00627494,-0.572993636131287,-0.234342932701111,0.414693474769592,-0.573468357077023,-0.246747413199059,0.355004231116903,0
3.83999633789063,-3.0123348236084,1.81382274627686,2.81418442726135,-2.74877791451009,1.78309403578861,2.84448156171422,1229.254,1219.974,2950.583,2941.446,0.008795611,0.05844467,-0.007514375,-0.559948682785034,-0.228941023349762,0.406403213739395,-0.560014026276881,-0.240958390526246,0.346675359432959,0
3.86000061035156,-3.02327251434326,1.80935215950012,2.82214593887329,-2.75984563331209,1.77833190558438,2.85133300688122,1228.668,1218.764,2947.454,2937.034,0.01005325,0.05870231,-0.008728244,-0.546868860721588,-0.223539382219315,0.398081183433533,-0.546515580872635,-0.235150386571708,0.338319178707605,0
3.87999725341797,-3.03394722938538,1.80498945713043,2.82993960380554,-2.77063893010371,1.77368785150474,2.85801457175126,1227.272,1217.576,2943.478,2934.338,0.01127934,0.0589486,-0.009913883,-0.533761739730835,-0.218140736222267,0.389687299728394,-0.532990631455729,-0.229330978680956,0.329946590735853,0
3.89999389648438,-3.04436016082764,1.80073428153992,2.83756494522095,-2.78116151864576,1.76916027562219,2.86452855531919,1226.64,1216.39,2940.579,2930.041,0.01247977,0.05918496,-0.01107289,-0.52063512802124,-0.212747871875763,0.381268262863159,-0.519441457145543,-0.223501147495394,0.321559006401168,0
3.91999816894531,-3.05451011657715,1.79658710956573,2.84502077102661,-2.79141684911929,1.7647476934202,2.87087709341145,1224.682,1215.304,2937.148,2927.592,0.01365097,0.0594102,-0.01220047,-0.507496356964111,-0.207363218069077,0.372794985771179,-0.505870408491346,-0.2176619043907,0.313157880805522,0
