t,x_s1,x_s2,x_s3,x_s_d1,x_s_d2,x_s_d3,propellers_rpms1,propellers_rpms2,propellers_rpms3,propellers_rpms4,rollRad,pitchRad,yawRad,v_s1,v_s2,v_s3,v_s_d1,v_s_d2,v_s_d3,insideCount
0,-0.0599999986588955,2.94000005722046,1.17999994754791,-0.0599999986588955,2.94000005722046,1.17999994754791,0,0,0,0,0,0,0,0,0,0,-1.06581410364015E-15,4.44089209850063E-16,4.44089209850063E-16,0
0.0199966430664063,-0.0599999986588955,2.94000005722046,1.1771354675293,-0.0600018680476204,2.93999925287472,1.18000110478858,0,0,0,0,0.0163538,-0.002474609,-2.024222E-05,3.71994488546079E-08,3.50004931704007E-08,-0.143225952982903,-0.000279892991557604,-0.000120430134961378,0.000173267094926113,5
0.0400009155273438,-0.0599999986588955,2.94000005722046,1.17048275470734,-0.0600148724204753,2.93999365745638,1.18000915511487,0,0,0,0,0.03270752,-0.004950816,-5.430172E-05,3.62924410524101E-08,3.44428769949445E-08,-0.332637369632721,-0.00111101934050116,-0.00047804058392963,0.00068777389696065,6
0.05999755859375,-0.0600004345178604,2.94013261795044,1.16416561603546,-0.0600498857373401,2.93997859220429,1.18003083002592,3185.473,2835.817,1501.023,2767.634,0.03127922,-0.00494336,-0.01646952,-2.17786164284917E-05,0.00662230560556054,-0.315859228372574,-0.00247936261166862,-0.00106680046642749,0.00153484356504269,6
0.0799942016601563,-0.0599162243306637,2.94038772583008,1.15857720375061,-0.0601175240668593,2.93994948932069,1.18007270137395,3065.683,3067.238,2155.073,2024.076,0.01897327,-0.004310593,-0.04351445,0.00421056058257818,0.0127498283982277,-0.279422104358673,-0.00437186567523228,-0.00188109166426407,0.00270639311381153,6
0.0999984741210938,-0.0596375651657581,2.94068765640259,1.15374851226807,-0.0602281887669101,2.93990187339187,1.18014120809498,2640.201,3831.766,2620.39,1134.782,-0.005854693,-0.002887932,-0.07014393,0.0139328734949231,0.0149971218779683,-0.241436272859573,-0.00677637982016689,-0.00291568692648091,0.00419490191241918,6
0.1199951171875,-0.059084914624691,2.94089889526367,1.1495703458786,-0.0603918861403606,2.93983143898525,1.18024254456713,2092.321,4101.94,3169.318,755.9096,-0.04012052,-0.0004506069,-0.08993442,0.0276325792074203,0.0105604007840157,-0.208909749984741,-0.00967801353495435,-0.00416417885169243,0.00599115140585487,5
0.139999389648438,-0.0582315064966679,2.94085621833801,1.14596688747406,-0.0606185767455666,2.93973390035084,1.18038287685052,1510.144,4074.802,3735.872,702.0605,-0.07649291,0.002388573,-0.09949676,0.0426703728735447,-0.00213142205029726,-0.180175065994263,-0.0130660253322238,-0.00562194567796536,0.00808849210174802,4
0.159996032714844,-0.057099487632513,2.94039487838745,1.14297831058502,-0.0609176604100223,2.93960521300545,1.18056802388615,1135.368,3846.936,4069.735,879.9127,-0.1062782,0.004335486,-0.09869994,0.0566009618341923,-0.0230698734521866,-0.149430751800537,-0.0169249902365933,-0.00728235046931681,0.0104773752055438,4
0.180000305175781,-0.0557377822697163,2.93938803672791,1.14071142673492,-0.0612986871007165,2.9394412678651,1.18080389755851,1100.784,3565.35,4010.016,1148.989,-0.1236282,0.004492516,-0.0899994,0.0680852830410004,-0.0503410175442696,-0.113343797624111,-0.0212451141043368,-0.00914117907931815,0.0131517376757159,3
0.199996948242188,-0.0541965439915657,2.9377772808075,1.13924884796143,-0.0617704296168641,2.93923829023936,1.18109592864822,1373.552,3339.622,3594.728,1386.237,-0.1278749,0.003023064,-0.07724978,0.0770619511604309,-0.0805371999740601,-0.073130190372467,-0.0260104776919234,-0.0111915819022102,0.0161017247421801,3
0.220001220703125,-0.0525143146514893,2.93557620048523,1.13858413696289,-0.0623420644491781,2.93899233174064,1.18144979784016,1790.593,3212.981,3017.05,1527.103,-0.1229757,0.0008615369,-0.06426048,0.0841115415096283,-0.110051535069942,-0.0332342982292175,-0.03121219533433,-0.0134297356845702,0.019321835755004,3
0.239997863769531,-0.0507196672260761,2.93284702301025,1.13860726356506,-0.0630217183703222,2.93869989564571,1.18187053599376,2159.486,3168.434,2517.198,1558.47,-0.1149665,-0.0009875001,-0.05362275,0.0897324681282043,-0.136454120278358,0.00115353241562843,-0.0368338920540454,-0.0158485947310391,0.02280193382306,3
0.259994506835938,-0.0488373599946499,2.92966485023499,1.13913798332214,-0.0638179029240226,2.93835731967507,1.18236341216003,2351.611,3159.241,2274.083,1495.764,-0.1090532,-0.00190416,-0.04623567,0.0941153988242149,-0.159107759594917,0.0265351571142673,-0.0428651747123285,-0.0184436871643672,0.0265355850983733,3
0.279998779296875,-0.0468918532133102,2.92608761787415,1.13999617099762,-0.0647390625194898,2.93796097043536,1.18293365383054,2352.566,3152.02,2324.306,1363.871,-0.1078138,-0.001744371,-0.04152188,0.0972752124071121,-0.178862661123276,0.0429108701646328,-0.0492963837173861,-0.0212108567320638,0.030516809833474,3
0.299995422363281,-0.0449088588356972,2.92214369773865,1.14106225967407,-0.0657923226682404,2.93750778201804,1.18358567203635,2229.629,3144.149,2572.475,1194.25,-0.1110858,-0.000737163,-0.03798626,0.0991499722003937,-0.197192519903183,0.0533039383590221,-0.0561105313314725,-0.0241427940851591,0.0347350918094591,3
0.319999694824219,-0.0429170355200768,2.91783547401428,1.14229416847229,-0.0669860785243584,2.93699414222283,1.18432466377777,2073.762,3132.723,2873.357,1032.532,-0.1169304,0.0006861268,-0.03397927,0.0995909571647644,-0.215406343340874,0.0615946240723133,-0.0633008373176985,-0.0272365818771378,0.0391862337367069,3
0.339996337890625,-0.0409490577876568,2.91315102577209,1.14370763301849,-0.068326768706371,2.93641728069206,1.18515461486636,1955.524,3107.119,3109.051,921.8162,-0.122841,0.002069497,-0.02837651,0.0983991548418999,-0.234224990010262,0.0706731677055359,-0.0708499516420146,-0.0304847548730522,0.0438594951176439,3
0.360000610351563,-0.0390402935445309,2.90807723999023,1.145343542099,-0.0698225328270578,2.93577369517774,1.1860805641102,1904.355,3065.963,3222.538,880.5309,-0.1267084,0.003092767,-0.02087066,0.0954383239150047,-0.253691911697388,0.0817948207259178,-0.0787518717320621,-0.0338847303337087,0.0487511600740379,3
0.379997253417969,-0.0372258238494396,2.90261030197144,1.14724373817444,-0.0714791088463715,2.935060916796,1.18710606357981,1924.142,3020.954,3206.89,896.2907,-0.1274195,0.003642182,-0.01188675,0.090723492205143,-0.273343205451965,0.0950097069144249,-0.0869889214763108,-0.0374289027221294,0.0538502862508218,3
0.399993896484375,-0.0355373807251453,2.89676141738892,1.14943158626556,-0.0733036822025899,2.9342758538535,1.18823556140379,1990.897,2989.486,3099.152,938.8292,-0.1250423,0.003791011,-0.00220776,0.0844220072031021,-0.292449921369553,0.109392926096916,-0.0955525119207663,-0.0411135764513579,0.0591515566763244,3
0.419998168945313,-0.0340021029114723,2.89055490493774,1.15190589427948,-0.0753034649285836,2.93341540321397,1.18947352217404,2072.182,2974.029,2953.398,987.3155,-0.1204995,0.003707744,0.007336798,0.0767640322446823,-0.310325115919113,0.123716041445732,-0.104434660908044,-0.0449353170220673,0.0646500300148815,3
0.439994812011719,-0.0326426774263382,2.88402485847473,1.15464186668396,-0.0774831213880516,2.93247755793201,1.19082283335389,2136.983,2973.245,2824.925,1022.499,-0.1150752,0.003563675,0.01614923,0.067971333861351,-0.326508283615112,0.136799722909927,-0.11361726969793,-0.0488863370519643,0.070334502284139,4
0.459999084472656,-0.0314785093069077,2.87720775604248,1.15760159492493,-0.0798502821969742,2.93145903476675,1.19228821865812,2167.927,2977.682,2749.162,1039.213,-0.1098682,0.003474452,0.02394556,0.0582085102796555,-0.340849339962006,0.147985681891441,-0.123096124252221,-0.0529648233581361,0.0762023647937057,4
0.479995727539063,-0.0305268801748753,2.87013864517212,1.16074800491333,-0.0824088828700873,2.93035814037613,1.19387211435783,2168.528,2983.827,2732.111,1033.279,-0.1055384,0.003481506,0.03074476,0.0475816130638123,-0.353459566831589,0.157320886850357,-0.132852887402757,-0.0571628859694044,0.0822422659629699,4
0.5,-0.0298036988824606,2.86284708976746,1.16405200958252,-0.085166398670376,2.92917165836334,1.1955791479969,2146.443,2989.984,2763.51,1008.339,-0.1022712,0.003568836,0.03679837,0.0361587107181549,-0.364580035209656,0.165200635790825,-0.142884000065179,-0.0614789935111996,0.0884520025491718,4
0.519996643066406,-0.0293244421482086,2.85535717010498,1.16749930381775,-0.0881260274065667,2.92789821280061,1.19741129917127,2116.966,2991.939,2816.377,978.9738,-0.09983552,0.003686023,0.0424071,0.0239630155265331,-0.374495595693588,0.172366619110107,-0.153170920546857,-0.0659051680111775,0.0948200963613094,4
0.540000915527344,-0.0291041005402803,2.84768867492676,1.17108547687531,-0.0912951145137283,2.92653464315245,1.19937311505516,2088.866,2992.628,2871.794,949.667,-0.09783228,0.003776807,0.04786185,0.011016771197319,-0.383421778678894,0.179306134581566,-0.163710711144578,-0.0704401454577151,0.101344728821151,4
0.55999755859375,-0.0291576236486435,2.8398585319519,1.17481637001038,-0.094676112580471,2.92507989413848,1.20146611391775,2070.927,2988.214,2907.894,936.0667,-0.09578378,0.003795465,0.05329097,-0.00267595332115889,-0.391505897045135,0.186543002724648,-0.17448465888317,-0.0750758741803766,0.108014315705644,5
0.579994201660156,-0.0294989757239819,2.8318829536438,1.17869818210602,-0.0982748462459366,2.92353145957921,1.20369390148813,2063.759,2986.601,2923.029,929.3233,-0.09339812,0.003716668,0.0587431,-0.0170672684907913,-0.398779779672623,0.194090977311134,-0.185486174984119,-0.0798095192118365,0.114824778247021,5
0.599998474121094,-0.0301412306725979,2.8237783908844,1.1827392578125,-0.102097262171133,2.92188678079254,1.20606015903275,2066.225,2983.308,2912.051,940.4617,-0.09049315,0.003538596,0.06410988,-0.0321126207709312,-0.405234098434448,0.202054604887962,-0.196709126405959,-0.0846384416756885,0.121772319800455,5
0.6199951171875,-0.0310955122113228,2.81556224822998,1.18694198131561,-0.106144683970236,2.92014528826426,1.20856570593183,2075.527,2987.613,2886.807,950.399,-0.08717538,0.003271609,0.06929193,-0.047714427113533,-0.410806566476822,0.210134044289589,-0.208134604141382,-0.0895545055543457,0.128845234789665,5
0.639999389648438,-0.0323712043464184,2.80725312232971,1.1913046836853,-0.110424235525481,2.91830391678686,1.21121495220784,2082.215,2991.231,2855.604,969.4839,-0.08359556,0.002940512,0.0741497,-0.0637844353914261,-0.415456652641296,0.218136474490166,-0.219761081350814,-0.0945570538913933,0.136042578028218,5
0.659996032714844,-0.0339757464826107,2.79886960983276,1.19582259654999,-0.114936482147704,2.9163624231229,1.21400824781511,2088.335,2999.174,2826.013,983.4701,-0.07999923,0.002566271,0.07859758,-0.0802279263734818,-0.419170320034027,0.225897908210754,-0.231569557951997,-0.0996379114822372,0.143352587560098,5
0.680000305175781,-0.0359147526323795,2.79043030738831,1.20048689842224,-0.119688496929273,2.91431776391831,1.21694997133476,2087.561,3007.644,2807.607,993.098,-0.07660956,0.002167913,0.08261321,-0.0969500243663788,-0.421968311071396,0.233213931322098,-0.243559016194652,-0.104796640417365,0.150774633349401,6
0.699996948242188,-0.03819265589118,2.78195190429688,1.20529115200043,-0.124680083855354,2.91217002351282,1.22004000142426,2083.341,3014.384,2796.29,1002.054,-0.0735384,0.001759302,0.08618885,-0.113895259797573,-0.423921883106232,0.240213051438332,-0.255710395848158,-0.11002503961202,0.158296916205407,6
0.720001220703125,-0.0408123545348644,2.77344989776611,1.21022593975067,-0.129918284978346,2.90991617190799,1.22328269744952,2075.148,3022.595,2799.369,999.5061,-0.07089069,0.001343907,0.08940919,-0.130984753370285,-0.425105661153793,0.246740639209747,-0.268023157655716,-0.11532287703907,0.16591910230247,6
0.739997863769531,-0.04377656057477,2.76493716239929,1.21528935432434,-0.135402141159277,2.90755662179454,1.22667746565781,2065.726,3025.127,2802.146,1005.583,-0.06857587,0.0009288783,0.09229106,-0.148209944367409,-0.425631552934647,0.253170818090439,-0.280478211503383,-0.120681938755799,0.173629373950669,6
0.759994506835938,-0.0470865182578564,2.75642561912537,1.22047460079193,-0.14113644597991,2.90508931062815,1.2302272735046,2057.568,3031.876,2814.802,995.9115,-0.06661897,0.0005064534,0.09495367,-0.165498405694962,-0.425574004650116,0.259261727333069,-0.293070637251543,-0.126100107763583,0.181424685349205,6
0.779998779296875,-0.0507440008223057,2.7479248046875,1.22578465938568,-0.147126184485884,2.90251209348295,1.23393520697061,2049.069,3030.312,2817.36,1006.207,-0.06481442,8.568441E-05,0.0973677,-0.182874172925949,-0.425035029649734,0.265501946210861,-0.305795832832518,-0.131575403921268,0.189302187598958,6
0.799995422363281,-0.054749172180891,2.73944354057312,1.23121535778046,-0.153369252164744,2.89982587587186,1.23779996326238,2047.594,3037.814,2824.154,995.0936,-0.06323623,-0.0003478088,0.0996322,-0.20025859773159,-0.424059927463531,0.271536201238632,-0.318634718604462,-0.13709961779199,0.197250069492735,6
0.819999694824219,-0.0591025613248348,2.73098921775818,1.23676955699921,-0.159872691993147,2.89702762739878,1.24182590231796,2041.186,3035.317,2820.971,1009.708,-0.06170704,-0.0007771104,0.1016802,-0.217669814825058,-0.422720223665237,0.277710914611816,-0.331587821991737,-0.142672976311719,0.205268657531342,6
0.839996337890625,-0.0638033002614975,2.72256827354431,1.24244427680969,-0.166633637018892,2.89411858163313,1.24601124935738,2043.358,3042.313,2819.635,1003.526,-0.06033498,-0.001213336,0.1035641,-0.235037609934807,-0.421043962240219,0.283734977245331,-0.344636106234817,-0.148287288494656,0.213346167053785,6
0.860000610351563,-0.0688504725694656,2.714186668396,1.24823999404907,-0.173659158941841,2.89109569582005,1.2503603820997,2039.805,3042.279,2813.153,1015.759,-0.05904761,-0.001639975,0.105229,-0.25235840678215,-0.419082045555115,0.289783328771591,-0.357780475378537,-0.153942943326036,0.221483157706883,6
0.879997253417969,-0.0742420107126236,2.70584940910339,1.25415360927582,-0.180945630646592,2.88796053060595,1.25487105518773,2041.831,3048.456,2809.009,1013.484,-0.05795305,-0.002061287,0.1067037,-0.269577115774155,-0.416865766048431,0.295678168535233,-0.371001963495383,-0.159631780297098,0.229667888678032,6
0.899993896484375,-0.0799755156040192,2.69756054878235,1.26018285751343,-0.18849723509595,2.8847112861788,1.25954585807468,2038.605,3050.074,2805.831,1020.441,-0.05703905,-0.00246662,0.1079702,-0.286674648523331,-0.414442509412766,0.301463723182678,-0.384296738353309,-0.165352150505452,0.237897987633041,7
0.919998168945313,-0.0860479176044464,2.68932342529297,1.26632523536682,-0.196318384305134,2.8813460641717,1.26438752200817,2038.191,3053.982,2804.943,1020.19,-0.05635036,-0.002853311,0.1090482,-0.303620874881744,-0.411855816841125,0.307117938995361,-0.397661187980262,-0.171102499820431,0.246171218589148,7
0.939994812011719,-0.0924559086561203,2.68114018440247,1.27257895469666,-0.204404317663683,2.87786691294234,1.26939309994354,2037.036,3056.986,2804.876,1021.136,-0.05590028,-0.003219229,0.1099508,-0.320399463176727,-0.409156799316406,0.312686741352081,-0.4110765036434,-0.176874735369747,0.254475938044738,7
0.959999084472656,-0.0991954803466797,2.67301225662231,1.27893996238708,-0.212762239776093,2.87427073255068,1.27456705187416,2034.02,3059.091,2811.164,1018.578,-0.05569788,-0.003560646,0.1107155,-0.336978703737259,-0.406390786170959,0.31804820895195,-0.424544411524882,-0.18266959988136,0.262813214588797,7
0.979995727539063,-0.106263116002083,2.66493988037109,1.28540992736816,-0.22138664033507,2.87055989392801,1.27990596665734,2032.921,3059.467,2811.975,1022.257,-0.05567072,-0.003872769,0.1113281,-0.353381633758545,-0.403613477945328,0.32349881529808,-0.438046240701377,-0.188479059778567,0.271171490030365,7
1,-0.113654091954231,2.65692281723022,1.29198312759399,-0.230284798736574,2.86673126495361,1.28541435058594,2032.574,3063.083,2823.159,1010.976,-0.05588963,-0.004163586,0.1118693,-0.369548976421356,-0.400854766368866,0.328662186861038,-0.451584000205995,-0.194303979492187,0.279552008056641,7
1.01999664306641,-0.12136510014534,2.64895939826965,1.29866564273834,-0.239450461003889,2.86278753653895,1.29108833215045,2031.018,3060.191,2820.7,1022.66,-0.05617991,-0.004418184,0.1122675,-0.385550528764725,-0.398172974586487,0.334128558635712,-0.465139182559269,-0.200136395770846,0.2879433116562,7
1.04000091552734,-0.129390716552734,2.64104795455933,1.30544853210449,-0.24889099213045,2.8587255397331,1.29693247063265,2034.339,3066.5,2835.792,1001.21,-0.05672693,-0.004658401,0.1126551,-0.401280403137207,-0.395573139190674,0.339146673679352,-0.478714054341683,-0.205977283860805,0.296346803950333,7
1.05999755859375,-0.137728095054626,2.63318562507629,1.31234300136566,-0.258599401509697,2.85454828239877,1.30294243851408,2031.612,3059.86,2827.176,1025.075,-0.05723239,-0.004853345,0.1128816,-0.416869759559631,-0.393119931221008,0.344725579023361,-0.492290296490434,-0.211818761581115,0.30475114456651,7
1.07999420166016,-0.146370932459831,2.62536978721619,1.31933462619781,-0.268579290074434,2.85025421515517,1.30912046494367,2039.336,3070.513,2847.929,989.0865,-0.05805532,-0.005045092,0.1131594,-0.43214163184166,-0.390788346529007,0.34958228468895,-0.50586523043438,-0.217659676417445,0.313154675341593,7
1.09999847412109,-0.155317142605782,2.61759662628174,1.32644081115723,-0.278834517009062,2.84584167750307,1.31546893894041,2032.87,3058.365,2832.758,1030.069,-0.05870939,-0.005176653,0.1132356,-0.447311162948608,-0.388659179210663,0.355311334133148,-0.519436284009554,-0.223498921639497,0.321555803983559,7
1.1199951171875,-0.16455951333046,2.60986304283142,1.33364176750183,-0.289357002179081,2.84131414609862,1.32198285851614,2048.056,3075.884,2858.665,974.4573,-0.05978797,-0.005319931,0.1134279,-0.462118327617645,-0.386676132678986,0.360045909881592,-0.532985466132485,-0.229328756186667,0.329943393154705,8
1.13999938964844,-0.174096643924713,2.60216426849365,1.34095966815948,-0.300154365346813,2.83666834237095,1.3286669406667,2035.099,3057.449,2839.428,1033.516,-0.0605981,-0.00538864,0.1133855,-0.476857364177704,-0.384943127632141,0.36589252948761,-0.546515580872639,-0.235150386571708,0.338319178707607,8
1.15999603271484,-0.183920577168465,2.59449672698975,1.34836900234222,-0.311217811600473,2.8319080505249,1.33551574092274,2055.333,3079.6,2873.394,960.1787,-0.06191157,-0.005480785,0.1135221,-0.491195052862167,-0.383372396230698,0.370466291904449,-0.560008885098767,-0.240956178420931,0.346672176798798,8
1.18000030517578,-0.194030970335007,2.5868546962738,1.35589957237244,-0.322555076427271,2.82702994219644,1.34253404791935,2038.59,3055.869,2847.364,1036.616,-0.06282983,-0.005485579,0.113384,-0.505520164966583,-0.382095813751221,0.376526802778244,-0.573468357077025,-0.246747413199059,0.355004231116904,8
1.19999694824219,-0.204418778419495,2.5792350769043,1.36351752281189,-0.334156660511822,2.8220381046756,1.34971598112778,2064.397,3084.189,2892.124,940.3464,-0.06436487,-0.005530853,0.1135144,-0.519390523433685,-0.380982756614685,0.380899876356125,-0.58687652428584,-0.252516572968185,0.36330452533874,8
1.21999359130859,-0.215085431933403,2.57163095474243,1.37126362323761,-0.346025842163694,2.81693112739735,1.35706356997782,2041.803,3052.493,2854.756,1043.753,-0.06531296,-0.005470133,0.1133008,-0.533333599567413,-0.380209356546402,0.387307167053223,-0.600231432569387,-0.258262816909651,0.371571849748761,8
1.23999786376953,-0.226020202040672,2.56403946876526,1.37909090518951,-0.358166167196084,2.81170748469733,1.36457900949675,2075.054,3089.675,2915.776,913.8568,-0.06704401,-0.005476525,0.1134788,-0.546738624572754,-0.379576504230499,0.391366571187973,-0.613531154887641,-0.263985315871967,0.379805011417393,8
1.25999450683594,-0.237227395176888,2.55645275115967,1.38705909252167,-0.3705671011502,2.80637170925886,1.37225577835275,2045.956,3047.17,2855.774,1059.768,-0.06790368,-0.005349225,0.1131809,-0.560358822345734,-0.379338353872299,0.398408353328705,-0.626758665639206,-0.269676744214496,0.387993470686331,8
1.27999877929688,-0.248692989349365,2.54886913299561,1.39509654045105,-0.383236695417198,2.80092033679326,1.3800988607405,2090.006,3099.705,2945.026,873.0151,-0.06988827,-0.005333779,0.1134785,-0.57328075170517,-0.379179835319519,0.401874244213104,-0.639917282339435,-0.275338529371412,0.396139281255613,8
1.29999542236328,-0.260425925254822,2.54127931594849,1.40329325199127,-0.396163740917024,2.79535819025452,1.38810131770546,2044.637,3035.682,2851.03,1094.634,-0.07050772,-0.005129781,0.1130608,-0.586646735668182,-0.379495561122894,0.409837245941162,-0.652990303744023,-0.280963485263868,0.404232104259424,8
1.31999969482422,-0.272407203912735,2.53368377685547,1.41154134273529,-0.409356423791328,2.7896817473746,1.39626821685929,2111.276,3115.386,2981.408,812.9902,-0.07280656,-0.005110073,0.1135451,-0.599066078662872,-0.379781126976013,0.412405282258987,-0.665981146317813,-0.286553081901244,0.412274054652251,8
1.33999633789063,-0.284652471542358,2.5260705947876,1.41997528076172,-0.422802873722428,2.78389611561957,1.40459220990988,2039.035,3018.74,2836.729,1150.233,-0.07302654,-0.004818724,0.1129545,-0.612262785434723,-0.380658745765686,0.421698063611984,-0.678873453515705,-0.29210028151913,0.420255006953505,8
1.36000061035156,-0.297135144472122,2.51844382286072,1.42843282222748,-0.436511415158101,2.77799771321212,1.41307845008695,2138.802,3138.438,3028.517,727.8195,-0.07576533,-0.004819256,0.1137168,-0.62413364648819,-0.381333380937576,0.422878116369247,-0.691670720740693,-0.297606588091785,0.42817712498415,9
1.37999725341797,-0.309880673885345,2.51078820228577,1.43711471557617,-0.450469530727146,2.77199192602736,1.42171918854144,2025.907,2993.189,2808.479,1237.57,-0.07536852,-0.004421913,0.1128641,-0.637275576591492,-0.382782936096191,0.434097230434418,-0.704356955827446,-0.303065120637236,0.436030508832034,9
1.39999389648438,-0.322850972414017,2.50311279296875,1.44577777385712,-0.464680216184654,2.76587746507559,1.43051627978847,2175.423,3172.465,3091.831,604.781,-0.0787518,-0.00447411,0.1140334,-0.648516356945038,-0.383764773607254,0.43315526843071,-0.716930938559026,-0.308475354130225,0.443814403124744,9
1.41999816894531,-0.336086183786392,2.49539661407471,1.45472085475922,-0.47914673136562,2.75965292774086,1.43947174182117,2000.183,2954.397,2760.8,1372.204,-0.07742076,-0.003938282,0.112783,-0.661759436130524,-0.385805279016495,0.447157174348831,-0.729391385793766,-0.313836736470737,0.451528013536465,9
1.43999481201172,-0.34953111410141,2.48765683174133,1.46358323097229,-0.493855616658466,2.75332410531803,1.44857724249882,2226.991,3223.294,3175.507,427.1281,-0.08175106,-0.004086354,0.1145344,-0.672249734401703,-0.386984139680862,0.443118214607239,-0.7417228873516,-0.319142637088802,0.459161800431646,9
1.45999908447266,-0.363247185945511,2.47986364364624,1.47280538082123,-0.508815552717244,2.74688726276417,1.45783815555978,1957.741,2898.818,2683.214,1572.756,-0.07908949,-0.003366236,0.1126966,-0.685802459716797,-0.389656394720078,0.461104869842529,-0.753929052770513,-0.324394609067776,0.466717998286247,9
1.47999572753906,-0.377153933048248,2.47204613685608,1.48185276985168,-0.524012471663969,2.74034845309416,1.46724577231745,2294.049,3295.7,3294.677,172.8817,-0.08482008,-0.003665575,0.1152938,-0.695336580276489,-0.390880614519119,0.452372550964355,-0.765994882555672,-0.329586198544069,0.474187321698441,9
1.5,-0.391344577074051,2.46416068077087,1.49137926101685,-0.539455198877605,2.73370387899399,1.4768055561018,1889.822,2817.044,2558.442,1876.343,-0.08016647,-0.002676477,0.1125583,-0.709531247615814,-0.394272744655609,0.476326316595078,-0.777924000354858,-0.334718964672088,0.481572013878822,9
1.51999664306641,-0.405708700418472,2.45624804496765,1.50066435337067,-0.555129074991064,2.72695984797977,1.48650843206629,2228.045,3527.022,3304.461,0,-0.08668163,-0.002544917,0.1167168,-0.718209147453308,-0.395634800195694,0.464255839586258,-0.789701834723693,-0.339786637766398,0.488863054409188,9
1.54000091552734,-0.420363306999207,2.44825887680054,1.5104866027832,-0.571043070329722,2.72011250037111,1.49635995326965,1891.438,2667.372,2446.436,2155.578,-0.08042587,-0.0009001484,0.1132346,-0.732730150222778,-0.399457007646561,0.491112321615219,-0.801332006385301,-0.344790775723006,0.496062684689629,9
1.55999755859375,-0.435182750225067,2.44024062156677,1.52005112171173,-0.587181951496087,2.71316839067337,1.50635068951315,2141.552,3703.502,3222.773,0,-0.08667524,0.0002433475,0.1179735,-0.740970253944397,-0.400916457176208,0.478225141763687,-0.812800388649436,-0.349725300221754,0.503162159625937,9
1.57999420166016,-0.450284510850906,2.43214964866638,1.53011441230774,-0.603548545866849,2.70612630234534,1.51648239107766,1998.788,2538.058,2444.339,2188.891,-0.08050523,0.002660011,0.1136914,-0.755087614059448,-0.404545992612839,0.503165125846863,-0.824106301004481,-0.354589918457504,0.510161057949003,9
1.59999847412109,-0.465545147657394,2.42403268814087,1.53992164134979,-0.620145926473056,2.69898491314762,1.52675696031579,2190.562,3671.225,3221.739,0,-0.08695274,0.004460065,0.1172173,-0.763033449649811,-0.405848741531372,0.490359783172607,-0.835248923368005,-0.359384277571697,0.517058871988737,9
1.6199951171875,-0.481072276830673,2.41584920883179,1.55017912387848,-0.636958033083316,2.69175113334911,1.53716445517924,2086.562,2523.426,2548.997,2020.476,-0.08230286,0.007148528,0.1121403,-0.776356816291809,-0.409168422222137,0.512876331806183,-0.846214826007804,-0.364102599125749,0.523847288101157,9
1.63999938964844,-0.496752262115479,2.40763807296753,1.56021511554718,-0.653994195024907,2.68442094880091,1.54771065096602,2201.442,3639.741,3258.436,0,-0.08934799,0.009170211,0.1146615,-0.784000158309937,-0.410559415817261,0.501800358295441,-0.857007552155828,-0.368746407673381,0.530528499715628,9
1.65999603271484,-0.512677371501923,2.39935946464539,1.57063949108124,-0.671237824488362,2.67700149677403,1.55838527903188,2125.407,2550.34,2715.006,1791.323,-0.08660547,0.01173615,0.109793,-0.796255707740784,-0.413932502269745,0.52121889591217,-0.867614155697522,-0.373310132863173,0.537094492570531,9
1.68000030517578,-0.52875030040741,2.39104461669922,1.58087766170502,-0.688698391434734,2.66948870260877,1.56919420173384,2242.152,3518.493,3353.065,0,-0.09383754,0.01345514,0.1117169,-0.803644716739655,-0.41574838757515,0.511906564235687,-0.878038122530658,-0.377795274579551,0.543547424602645,9
1.69999694824219,-0.545054137706757,2.38265156745911,1.59148347377777,-0.706358800111611,2.66188992212981,1.58012683598675,2119.811,2611.883,2849.751,1605.091,-0.0918471,0.0155373,0.1076312,-0.815193891525269,-0.419654250144958,0.530292928218842,-0.888267004546665,-0.382196476749158,0.549879589839776,9
1.71999359130859,-0.561502397060394,2.37420892715454,1.60193634033203,-0.72422180503422,2.6542039701462,1.59118488696678,2260.104,3448.741,3414.365,0,-0.09850234,0.01669347,0.1099129,-0.822413921356201,-0.422137230634689,0.522646248340607,-0.898300426012065,-0.386513577704374,0.556090755685004,9
1.73999786376953,-0.578175246715546,2.36567378044128,1.61276149749756,-0.742290383213093,2.64642956573347,1.60237019758524,2099.273,2657.774,2893.121,1540.268,-0.09593186,0.01821387,0.1068888,-0.83364349603653,-0.426752388477325,0.541260242462158,-0.908137821269591,-0.39074633405868,0.562180571969536,9
1.75999450683594,-0.594989538192749,2.35707879066467,1.62344360351563,-0.760546715064628,2.63857437616062,1.61367173667103,2294.411,3404.807,3429.075,0,-0.101615,0.01874065,0.1098512,-0.840712487697601,-0.429752945899963,0.53410416841507,-0.917767514700581,-0.394889722119545,0.568141810929231,9
1.77999877929688,-0.61202871799469,2.34838080406189,1.63452327251434,-0.779000609654483,2.63063418086074,1.62509557650306,2074.326,2687.255,2845.788,1589.468,-0.0977018,0.01978569,0.1075139,-0.85196179151535,-0.434896767139435,0.553980827331543,-0.927192788821983,-0.398945154262308,0.57397650459845,9
1.79999542236328,-0.629204988479614,2.33961963653564,1.64544820785522,-0.797633790944145,2.62261684350262,1.63663040334288,2304.65,3429.892,3396.292,0,-0.1025919,0.01988324,0.1112443,-0.858812749385834,-0.438063651323318,0.546249687671661,-0.936402499096495,-0.402907835303912,0.579677753977713,9
1.81999969482422,-0.646608829498291,2.33075261116028,1.65679371356964,-0.816456197270346,2.61451808789761,1.64828236949435,2055.997,2685.759,2757.03,1705.684,-0.097395,0.020706,0.1091122,-0.870188415050507,-0.443345546722412,0.567275583744049,-0.945399824400851,-0.406779133026206,0.585247526943151,9
1.83999633789063,-0.664144337177277,2.32182645797729,1.6679595708847,-0.835449117627072,2.60634596486888,1.66003989195343,2299.99,3481.362,3352.346,0,-0.1019346,0.02066628,0.1133303,-0.876774489879608,-0.446310728788376,0.558294177055359,-0.954174163352093,-0.410554485950274,0.590679260733698,9
1.86000061035156,-0.681909263134003,2.31279945373535,1.67955791950226,-0.854622615239374,2.59809614449182,1.6719092003358,2049.027,2662.987,2683.279,1817.871,-0.09596009,0.02150994,0.1109768,-0.888247609138489,-0.451344668865204,0.579918384552002,-0.962728579444532,-0.414235212212131,0.595974851798267,9
1.87999725341797,-0.699801027774811,2.30372166633606,1.69095480442047,-0.873957566090845,2.58977685529642,1.6838784559643,2283.038,3535.732,3319.656,0,-0.1004907,0.02157694,0.1153287,-0.894590318202972,-0.4538893699646,0.569842934608459,-0.971053025860989,-0.417816988947023,0.601128080678429,9
1.89999389648438,-0.717921555042267,2.29455327987671,1.70278084278107,-0.893456683142228,2.58138692997148,1.69594933829086,2057.107,2633.379,2654.478,1875.697,-0.09433769,0.02257396,0.1125909,-0.906022727489471,-0.458424508571625,0.591299712657928,-0.979147395688901,-0.421299770153459,0.606138881190213,9
1.91999816894531,-0.73616486787796,2.28534364700317,1.7143931388855,-0.913122862707269,2.57292512231409,1.70812364027167,2269.856,3561.329,3312.876,0,-0.09897798,0.02282659,0.1167488,-0.912164628505707,-0.460475772619247,0.580618023872375,-0.987011339258123,-0.424683405378145,0.611007036871143,9
1.93999481201172,-0.75463342666626,2.27605509757996,1.72642552852631,-0.932936403420974,2.56439990927123,1.72038916582329,2075.22,2614.588,2663.13,1872.646,-0.09300877,0.02395955,0.1136429,-0.923427760601044,-0.464445501565933,0.60161679983139,-0.994635661494588,-0.427963938237592,0.615726855532351,9
1.95999908447266,-0.773221015930176,2.26673412322998,1.7382425069809,-0.952907658613767,2.55580683609405,1.73275232415044,2259.899,3567.949,3320.121,0,-0.09774707,0.02435019,0.1175117,-0.929378628730774,-0.466048449277878,0.590850949287415,-1.00202309041976,-0.431142542523221,0.620300025949072,9
1.97999572753906,-0.792027711868286,2.25734424591064,1.75046503543854,-0.973016570682103,2.54715453300902,1.74520069864106,2090.431,2606.339,2693.986,1835.278,-0.09206654,0.02553499,0.1142027,-0.940341174602509,-0.469498544931412,0.611124753952026,-1.00916501115878,-0.434215511495054,0.624721215103391,9
2,-0.810949623584747,2.24792957305908,1.76247584819794,-0.993273599084619,2.53843849960327,1.7577407641983,2262.131,3550.94,3335.608,0,-0.09677821,0.0259351,0.1177687,-0.94608747959137,-0.470725655555725,0.600539803504944,-1.01606400046349,-0.437183953857422,0.628992018127441,9
2.01999664306641,-0.83008348941803,2.23845481872559,1.77488076686859,-1.01365835337184,2.52966750931758,1.77035989816261,2098.507,2612.4,2723.107,1788.548,-0.09128304,0.02705345,0.114404,-0.956694483757019,-0.473748415708542,0.620244562625885,-1.02271203275434,-0.440044416427654,0.633107466805174,9
2.03999328613281,-0.849327027797699,2.22896146774292,1.78707671165466,-1.03417354141348,2.52084039703127,1.78305977683431,2265.398,3532.176,3347.522,0,-0.0958738,0.02734453,0.1178015,-0.962182462215424,-0.47466117143631,0.609797298908234,-1.02910913225408,-0.442796909628122,0.637067576131623,9
2.05999755859375,-0.868775486946106,2.21941518783569,1.79965960979462,-1.05482201812353,2.5119559343546,1.79584216754118,2095.122,2622.427,2736.615,1761.532,-0.0903504,0.02832554,0.1144842,-0.97242283821106,-0.477331906557083,0.629142880439758,-1.03525504859546,-0.445441325732794,0.640872191117535,9
2.07999420166016,-0.888327538967133,2.20985627174377,1.81203258037567,-1.07558293843174,2.50302309033894,1.80869416619175,2270.156,3519.047,3348.489,0,-0.09476592,0.02844276,0.1178371,-0.977600038051605,-0.477951198816299,0.618649423122406,-1.0411426556922,-0.447974598585819,0.644516900376035,9
2.09999847412109,-0.908077239990234,2.20025014877319,1.82478857040405,-1.09646699912883,2.4940372624541,1.82162239460902,2084.538,2631.858,2730.293,1759.812,-0.0890641,0.02926652,0.114584,-0.987481832504272,-0.480293661355972,0.6377974152565,-1.04677411523768,-0.450397658303471,0.648003042098304,9
2.1199951171875,-0.927922785282135,2.19063854217529,1.83732569217682,-1.11745308225396,2.48500753716864,1.83461377976925,2269.148,3513.543,3344.64,0,-0.0933193,0.02920844,0.1179755,-0.992283225059509,-0.480591207742691,0.626858472824097,-1.0521429102862,-0.45270770082608,0.651326581984514,9
2.13999938964844,-0.947959840297699,2.18098664283752,1.85024797916412,-1.138551967509,2.47592927627801,1.8476749948214,2070.084,2635.201,2705.59,1785.61,-0.0872899,0.02990827,0.1147056,-1.0018492937088,-0.482592791318893,0.646116018295288,-1.05725102347782,-0.454905579228273,0.654488747383304,8
2.15999603271484,-0.968084394931793,2.17133593559265,1.86293864250183,-1.15974228854654,2.4668116731246,1.86079281297862,2257.455,3527.708,3329.693,0,-0.09142525,0.02974512,0.1182066,-1.00622963905334,-0.482531249523163,0.634531557559967,-1.06209255378819,-0.456988754464129,0.657485885279498,8
2.18000030517578,-0.988393604755402,2.1616530418396,1.87601482868195,-1.18103490068612,2.45765005696766,1.87397395420079,2058.083,2627.321,2673.168,1826.548,-0.08506722,0.03039521,0.1148376,-1.01546370983124,-0.484135270118713,0.653808057308197,-1.06666929835407,-0.458957999791384,0.660319108186354,8
2.19999694824219,-1.00878143310547,2.15197992324829,1.88884353637695,-1.20240821395574,2.44845371736898,1.88720505326679,2246.351,3541.998,3312.896,0,-0.08914665,0.03019639,0.1183622,-1.01939463615417,-0.483662337064743,0.641437232494354,-1.07097597819164,-0.460811043810786,0.662985148161421,7
2.21999359130859,-1.02934658527374,2.14228391647339,1.9020562171936,-1.22386495005255,2.43922148325834,1.90048779503681,2050.167,2615.358,2643.299,1863.986,-0.08256012,0.03084708,0.1147869,-1.02825820446014,-0.484808504581451,0.660635113716125,-1.07501271071614,-0.462547937042828,0.665484077890325,7
2.23999786376953,-1.04998087882996,2.13260579109192,1.91500627994537,-1.24540792547886,2.42995214277345,1.91382392305993,2230.974,3558.112,3297.605,0,-0.0866518,0.03066876,0.1182578,-1.03171384334564,-0.483898222446442,0.647504985332489,-1.07877930973132,-0.464168599372462,0.667815782108711,5
2.25999450683594,-1.07078373432159,2.1229145526886,1.92833685874939,-1.26701526177039,2.4206551096063,1.92719989352455,2047.864,2602.225,2618.795,1890.173,-0.07997846,0.03134635,0.1144282,-1.04014587402344,-0.484562069177628,0.666530132293701,-1.08227143928024,-0.465671165158559,0.669977576652695,5
2.27999877929688,-1.09164583683014,2.11325001716614,1.94139087200165,-1.28869796983554,2.41132564607061,1.9406225227075,2214.235,3571.877,3284.843,0,-0.08416441,0.03121261,0.1177925,-1.04309701919556,-0.483226418495178,0.652703464031219,-1.08549040888332,-0.467056197851165,0.67197027217779,2
2.29999542236328,-1.11266613006592,2.10358142852783,1.95481693744659,-1.31043401044317,2.40197323503182,1.95407816727483,2044.363,2587.649,2607.092,1904.376,-0.0775177,0.03192266,0.1137215,-1.05101358890533,-0.483419179916382,0.671305477619171,-1.08843251702753,-0.468322104792631,0.6737915772711,1
2.31999969482422,-1.13373506069183,2.0939474105835,1.96795654296875,-1.33223444283894,2.39259311800549,1.96757367342642,2202.952,3575.006,3276.517,0,-0.08178461,0.03181802,0.1169115,-1.05345451831818,-0.481696635484695,0.656982839107513,-1.09109887036509,-0.469469362144493,0.675442177003072,0
2.33999633789063,-1.15495085716248,2.08431839942932,1.98145747184753,-1.35407709248145,2.38319483607731,1.98109531406483,2041.637,2579.081,2604.331,1901.156,-0.07524762,0.0325231,0.1126552,-1.06078553199768,-0.48146003484726,0.675045847892761,-1.09348640563071,-0.470496651869278,0.67692017506657,0
2.36000061035156,-1.17620480060577,2.07473015785217,1.99466419219971,-1.37597305876702,2.37377361348711,1.99464996024512,2195.451,3569.073,3272.336,0,-0.07958164,0.03239585,0.115663,-1.06269955635071,-0.479403585195541,0.660335123538971,-1.09559602313537,-0.471404361345641,0.678226128796969,0
2.37999725341797,-1.19759297370911,2.06515407562256,2.00822234153748,-1.39790005743958,2.36433903852774,2.00822381695123,2034.741,2576.308,2603.302,1893.222,-0.07314159,0.03304785,0.111291,-1.06940984725952,-0.47880545258522,0.677906572818756,-1.09742530100382,-0.472191448508328,0.679358538938131,0
2.39999389648438,-1.21900844573975,2.05562496185303,2.02147889137268,-1.41986083522252,2.35488992936084,2.02181858453579,2188.11,3561.434,3268.38,0,-0.07750864,0.03285008,0.1141773,-1.07077753543854,-0.47647163271904,0.662832260131836,-1.09897439291323,-0.472857979480329,0.680317500623536,0
2.41999816894531,-1.24054563045502,2.04611349105835,2.03507876396179,-1.44185817738692,2.34542508756209,2.03543598721428,2022.306,2575.179,2598.956,1891.449,-0.07107391,0.03341877,0.1097532,-1.07685744762421,-0.475574195384979,0.679988086223602,-1.10024313330221,-0.473403883025206,0.681102911362803,0
2.43999481201172,-1.26209926605225,2.03665351867676,2.04837036132813,-1.46386968334064,2.3359541514805,2.04906215795307,2184.569,3553.907,3259.517,0,-0.07542977,0.03311605,0.1125635,-1.0776743888855,-0.473003149032593,0.664581120014191,-1.10123006676374,-0.473828532921971,0.681713870189648,0
2.45999908447266,-1.28376162052155,2.02721643447876,2.06199765205383,-1.48590651627916,2.32647231790489,2.06270400730194,2007.29,2576.14,2587.875,1896.193,-0.06895723,0.03358225,0.1081208,-1.08312261104584,-0.471843987703323,0.68136340379715,-1.10193556692257,-0.474132089930926,0.682150608395601,0
2.47999572753906,-1.30542898178101,2.01783561706543,2.07530617713928,-1.50794623031618,2.31698924467309,2.07634764018804,2179.833,3545.213,3252.179,0,-0.07329765,0.03315767,0.1108886,-1.0833683013916,-0.469049066305161,0.665431022644043,-1.10235882472314,-0.474314205938057,0.682412625136718,0
2.5,-1.32719361782074,2.00848245620728,2.08894872665405,-1.52999999932945,2.30750012397766,2.08999997377396,1989.501,2576.45,2566.74,1914.797,-0.06667703,0.03352478,0.1063957,-1.08822476863861,-0.46765348315239,0.682131588459015,-1.10250000050292,-0.474374949932098,0.682500019669533,0
2.51999664306641,-1.34895133972168,1.99918961524963,2.10226082801819,-1.55204535801192,2.29801462201262,2.10364710096447,2166.915,3551.225,3237.574,0,-0.0710052,0.03301259,0.1092053,-1.08788812160492,-0.464643537998199,0.665607511997223,-1.10235893238473,-0.47431425226183,0.68241269178437,0
2.53999328613281,-1.37079453468323,1.98992931842804,2.11590480804443,-1.57408507527774,2.28853154739156,2.11729073584934,1972.838,2569.586,2539.78,1944.939,-0.06420189,0.03332128,0.1046413,-1.09215748310089,-0.463007599115372,0.682200193405151,-1.10193578218388,-0.474132182551855,0.682150741652607,0
2.55999755859375,-1.39261901378632,1.98073399066925,2.12920379638672,-1.59612191359838,2.27904971150017,2.13093258853001,2154.894,3555.599,3223.452,0,-0.06852526,0.03275847,0.1074585,-1.09123229980469,-0.459767132997513,0.664949297904968,-1.10123038958312,-0.473828671822132,0.681714070030222,0
2.57999420166016,-1.41451776027679,1.97157645225525,2.14283537864685,-1.61813342708139,2.26957877217893,2.14455876392979,1960.59,2560.705,2508.076,1977.807,-0.06154246,0.03303814,0.1027422,-1.09492933750153,-0.457876116037369,0.681581377983093,-1.10024356351463,-0.47340406813359,0.681103177684783,0
2.59999847412109,-1.43638575077057,1.96248853206635,2.15610766410828,-1.64013077892511,2.26011392621545,2.15817617260023,2136.698,3570.595,3204.567,0,-0.06592496,0.03247577,0.105571,-1.09340786933899,-0.454402446746826,0.663613259792328,-1.09897493039424,-0.472858210743393,0.680317833349887,0
2.6199951171875,-1.45831561088562,1.95344352722168,2.16970801353455,-1.66209156852628,2.2506648119635,2.17177094750084,1949.199,2545.657,2483.531,2008.135,-0.05884894,0.03276509,0.1006854,-1.09648895263672,-0.452241778373718,0.680012941360474,-1.09742594550583,-0.472191725819537,0.679358937915576,0
2.63999938964844,-1.48020315170288,1.9444727897644,2.182936668396,-1.68402693989188,2.24122663446822,2.18534998730279,2125.684,3575.16,3189.351,0,-0.06330494,0.03221798,0.1034196,-1.09438300132751,-0.448537051677704,0.661436915397644,-1.09559602313537,-0.471404361345641,0.67822612879697,0
2.65999603271484,-1.50213944911957,1.93555045127869,2.19648623466492,-1.70591456353497,2.23180900148401,2.19889946898997,1940.395,2535.071,2468.683,2021.412,-0.05625235,0.03250686,0.0983627,-1.09680688381195,-0.446110874414444,0.677480041980743,-1.09348726343002,-0.470497020956359,0.676920706085208,0
2.68000030517578,-1.52402186393738,1.92670679092407,2.20965528488159,-1.72776555581996,2.22240712994983,2.2124262741215,2116.154,3574.371,3178.139,0,-0.06080316,0.03195539,0.1009662,-1.09412050247192,-0.44220182299614,0.658449947834015,-1.09109887036509,-0.469469362144494,0.675442177003072,0
2.69999694824219,-1.54593884944916,1.91791570186615,2.22313666343689,-1.74955768413056,2.21303058593937,2.22591663964878,1930.026,2529.3,2460.817,2023.893,-0.05383953,0.03221467,0.09579442,-1.09585440158844,-0.439548075199127,0.674073934555054,-1.08843358680109,-0.468322565086308,0.673792239511893,0
2.71999359130859,-1.56779074668884,1.9092059135437,2.23622989654541,-1.77129374718429,2.20367816524265,2.23937229811132,2108.656,3567.193,3171.097,0,-0.05847343,0.03162068,0.09828157,-1.09259033203125,-0.435476630926132,0.654667258262634,-1.08549158402443,-0.467056703481556,0.671970999646117,0
2.73999786376953,-1.58966326713562,1.90055322647095,2.2496280670166,-1.79297647980783,2.19434869114016,2.25279494249708,1914.966,2527.069,2455.76,2024.405,-0.05155933,0.03181862,0.09306272,-1.09363007545471,-0.432646125555038,0.669911623001099,-1.08227271937422,-0.465671715947234,0.669978369091845,0
2.75999450683594,-1.61145961284637,1.89198422431946,2.26263308525085,-1.81458384274179,2.18505164650952,2.26617092945464,2105.257,3557.901,3161.912,0,-0.05622466,0.03114233,0.09547051,-1.08980560302734,-0.42845156788826,0.650252223014832,-1.07878069424208,-0.464169195088763,0.667816639186824,0
2.77999877929688,-1.63326263427734,1.88347446918488,2.27593612670898,-1.83612684690458,2.17578229366013,2.27950707526701,1897.731,2528.75,2447.034,2026.511,-0.04932547,0.03124885,0.09026425,-1.09016060829163,-0.425483256578445,0.665155410766602,-1.07501419914593,-0.462548577472581,0.665484999299265,0
2.79999542236328,-1.65497803688049,1.87505102157593,2.28883790969849,-1.85758361379882,2.16655004629821,2.2927898361021,2101.955,3544.911,3155.896,0,-0.05399719,0.0304595,0.09263303,-1.08577752113342,-0.421183943748474,0.645086526870728,-1.07097756992209,-0.460811728687929,0.662986133518392,0
2.81999969482422,-1.67668831348419,1.86668884754181,2.30203747749329,-1.87896509797278,2.15735019098767,2.30602599334712,1877.362,2531.115,2428.316,2041.759,-0.04697869,0.03046453,0.08742801,-1.08550155162811,-0.418103128671646,0.659978091716766,-1.06666929835407,-0.458957999791384,0.660319108186353,0
2.83999633789063,-1.69829964637756,1.85841464996338,2.31482625007629,-1.90024960698239,2.14819206138118,2.31920211834584,2091.03,3546.49,3142.379,0,-0.05163763,0.02958224,0.08985985,-1.0805675983429,-0.413704603910446,0.639437198638916,-1.06209435025759,-0.456989527434725,0.657486997379635,0
2.85999298095703,-1.71989345550537,1.85020470619202,2.3279128074646,-1.92143996495749,2.13907444233456,2.33231995936916,1857.694,2526.634,2401.762,2070.9,-0.04443005,0.02951834,0.0846439,-1.07968902587891,-0.410502344369888,0.654329597949982,-1.0572529212638,-0.454906395792563,0.654489922203231,0
2.87999725341797,-1.74137771129608,1.84208512306213,2.34057593345642,-1.94253888918396,2.12999616467562,2.34538119854648,2081.496,3547.365,3128.019,0,-0.04907141,0.02857502,0.0871155,-1.07421612739563,-0.405981212854385,0.633159995079041,-1.05214490868305,-0.452708560680416,0.651327819087361,0
2.89999389648438,-1.76283288002014,1.83403241634369,2.35353994369507,-1.96352501326936,2.1209664217661,2.35837260906308,1842.319,2519.716,2368.928,2105.062,-0.04166196,0.02847026,0.08180407,-1.0727653503418,-0.402628421783447,0.648202836513519,-1.04677621342161,-0.450398561093403,0.648004340974112,0
2.91999816894531,-1.78416812419891,1.82607316970825,2.36606764793396,-1.98440911693069,2.11198057539494,2.37130086407726,2065.928,3559.422,3108.379,0,-0.04634912,0.02751636,0.0843189,-1.06676006317139,-0.397965878248215,0.626387476921082,-1.04114485287423,-0.447975543971863,0.644518260536375,0
2.93999481201172,-1.80546247959137,1.81818437576294,2.37889409065247,-2.00517008215741,2.10304771205211,2.38415289053452,1827.829,2506.73,2341.87,2138.231,-0.03881877,0.02741315,0.07888588,-1.0647177696228,-0.394435405731201,0.641327440738678,-1.03525734386973,-0.445442313325187,0.640873612001643,0
2.95999908447266,-1.82662653923035,1.81039202213287,2.391273021698,-2.02581860575671,2.0941632292003,2.39693531026807,2056.546,3562.491,3092.142,0,-0.04357358,0.02646993,0.08134032,-1.05819892883301,-0.389620870351791,0.618947744369507,-1.02911152474823,-0.442797939051516,0.637069057199471,0
2.97999572753906,-1.8477371931076,1.8026739358902,2.40394639968872,-2.04633384260397,2.08533609591429,2.40963521915279,1815.945,2497.698,2323.825,2155.804,-0.03603949,0.02636661,0.07577468,-1.05554151535034,-0.385905355215073,0.633669078350067,-1.02271452148052,-0.440045487257004,0.633109007445237,0
3,-1.86870765686035,1.79505479335785,2.41616368293762,-2.06672639957428,2.07656174835205,2.42225918334961,2047.846,3561.413,3079.731,0,-0.04089124,0.02542434,0.07813357,-1.04851913452148,-0.380954176187515,0.610866785049438,-1.01606400046349,-0.437183953857422,0.628992018127441,0
3.01999664306641,-1.88961219787598,1.78751337528229,2.42866969108582,-2.08697572864857,2.06784902775215,2.4347944826559,1802.767,2492.86,2312.884,2163.047,-0.0334232,0.02530077,0.07248527,-1.04522681236267,-0.377079904079437,0.625298678874969,-1.00916768936771,-0.434216663853534,0.624722873042298,0
3.03999328613281,-1.91036641597748,1.78007280826569,2.44071269035339,-2.10708469520508,2.05919670122237,2.4472428908773,2041.21,3553.793,3071.856,0,-0.03836177,0.02432917,0.07475519,-1.03771078586578,-0.372023582458496,0.602146089076996,-1.00202586176059,-0.431143734953757,0.620301741541063,0
3.05999755859375,-1.93104207515717,1.77271246910095,2.4530394077301,-2.12705600675913,2.05060360379452,2.45960608409476,1785.719,2491.562,2304.519,2167.948,-0.03092622,0.02415876,0.06908241,-1.03378868103027,-0.368030101060867,0.616341471672058,-0.994638524886308,-0.427965170275055,0.615728628108227,0
3.07999420166016,-1.95155811309814,1.76545453071594,2.46489834785461,-2.14686960564145,2.04207836572333,2.47187164565552,2037.577,3545.074,3062.023,0,-0.03590846,0.02312567,0.07130115,-1.02579951286316,-0.362897872924805,0.592950522899628,-0.987014293508169,-0.424684676509408,0.611008865692653,0
3.09999847412109,-1.97198367118835,1.7582780122757,2.47703719139099,-2.16653584520328,2.033616532251,2.4840459847772,1766.961,2493.161,2292.926,2174.649,-0.02847345,0.02288498,0.06565608,-1.0212641954422,-0.358812510967255,0.60693895816803,-0.979150439632689,-0.421301079877433,0.606140765536421,0
3.1199951171875,-1.99223983287811,1.75120568275452,2.48870062828064,-2.18603502400946,2.02522658035469,2.49611690533293,2034.554,3532.522,3055.092,0,-0.03347487,0.02176544,0.06785308,-1.01281547546387,-0.353616803884506,0.583166778087616,-0.971056158224178,-0.417818336715394,0.601130019760458,0
3.13999938964844,-2.01239418983459,1.74421668052673,2.50064516067505,-2.20537738341953,2.01690410346351,2.50809074721212,1746.303,2495.166,2272.942,2191.909,-0.02592854,0.0214438,0.06222031,-1.00771331787109,-0.349451988935471,0.597230553627014,-0.962728579444533,-0.414235212212131,0.595974851798267,0
3.15999603271484,-2.03237056732178,1.73733282089233,2.51210594177246,-2.22454360124808,2.00865741537402,2.51995554906156,2025.427,3532.513,3041.293,0,-0.03093581,0.02025403,0.06447644,-0.998822569847107,-0.344190865755081,0.573035299777985,-0.95417746870157,-0.410555908149813,0.590681306902481,0
3.18000030517578,-2.05223417282104,1.73053419589996,2.52384901046753,-2.24354380138856,2.00048216005771,2.53171757805356,1726.607,2491.352,2247.087,2219.764,-0.02323608,0.0198782,0.05884491,-0.993181705474854,-0.339932292699814,0.587150990962982,-0.94539982440085,-0.406779133026206,0.58524752694315,0
3.19999694824219,-2.07191157341003,1.72384250164032,2.53509759902954,-2.2623590635174,1.99238647840124,2.54336512160655,2019.036,3530.755,3026.498,0,-0.02825827,0.01864167,0.06112571,-0.983871698379517,-0.334585905075073,0.562424182891846,-0.936405971974636,-0.402909329586355,0.579679903854719,0
3.21999359130859,-2.09146547317505,1.71723830699921,2.54662990570068,-2.28099231507127,1.9843691108104,2.55489999194326,1708.87,2486.07,2219.978,2248.814,-0.02041792,0.01823177,0.05543723,-0.977712333202362,-0.330207884311676,0.576613783836365,-0.927196343299057,-0.398946683654493,0.573978704989081,0
3.23999786376953,-2.11082553863525,1.71074318885803,2.55765700340271,-2.29944628156995,1.97642888457015,2.56632387629027,2009.184,3533.409,3010.937,0,-0.02548326,0.01697938,0.05772534,-0.967998445034027,-0.324760884046555,0.551354587078094,-0.917771149318993,-0.394891285994308,0.568144060931169,0
3.25999450683594,-2.13005208969116,1.70433807373047,2.56896877288818,-2.31770268688992,1.96857366338589,2.57762546085652,1694.946,2479.358,2193.713,2274.734,-0.01756621,0.01655472,0.05195293,-0.961324870586395,-0.320247918367386,0.565589606761932,-0.90814153446928,-0.390747931744771,0.562182870617026,0
3.27999877929688,-2.14907646179199,1.69804430007935,2.57976484298706,-2.33577134012187,1.96079922667992,2.58881081793642,1998.674,3535.654,2996.632,0,-0.02272742,0.01530693,0.05422302,-0.951218783855438,-0.314699739217758,0.539799571037292,-0.898304216251578,-0.386515208538549,0.556093102023818,0
3.29999542236328,-2.1679573059082,1.69184279441833,2.59084415435791,-2.35363442159312,1.95311324175956,2.5998689163037,1679.796,2471.817,2174.147,2296.034,-0.01479066,0.0148817,0.04836907,-0.944026470184326,-0.310057520866394,0.553961753845215,-0.888270870184445,-0.382198140025101,0.549881982853707,0
3.31999969482422,-2.18662786483765,1.68575441837311,2.60139942169189,-2.37130160722417,1.94551154534655,2.61080574581408,1990.61,3533.775,2984.592,0,-0.02004242,0.01364219,0.05059017,-0.933545768260956,-0.304422348737717,0.527765214443207,-0.878038122530657,-0.377795274579551,0.543547424602645,0
3.33999633789063,-2.20514440536499,1.67976129055023,2.61223530769348,-2.38875555478454,1.93800159931817,2.62161057080077,1665.526,2467.464,2159.796,2308.063,-0.01213762,0.01320795,0.04468622,-0.925831139087677,-0.299669146537781,0.54179322719574,-0.867618167158097,-0.373311858882592,0.53709697585572,0
3.35999298095703,-2.22344422340393,1.6738817691803,2.62254047393799,-2.40599926516969,1.93058211247293,2.63228524896102,1985.276,3526.535,2975.514,0,-0.01747566,0.01195728,0.04684851,-0.914990901947021,-0.293968886137009,0.515257060527802,-0.857011633930453,-0.36874816394697,0.530531026528563,0
3.37999725341797,-2.24157977104187,1.66809916496277,2.63312387466431,-2.42303550945299,1.9232518924954,2.64283149572124,1648.478,2466.353,2148.021,2317.174,-0.009592174,0.0114965,0.04093232,-0.906761229038239,-0.289131790399551,0.529168128967285,-0.846218976345105,-0.364104384899943,0.523849857357654,0
3.39999389648438,-2.25949144363403,1.66243124008179,2.64317154884338,-2.43984769972619,1.91601807669906,2.65323904237604,1982.528,3517.963,2965.412,0,-0.01499466,0.01021209,0.04305373,-0.895580649375916,-0.283387154340744,0.502386033535004,-0.835253140422974,-0.35938609205264,0.51706148254665,0
3.41999816894531,-2.27722835540771,1.65686178207397,2.65349555015564,-2.45644516534361,1.90887665092339,2.66351366424015,1630.461,2468.072,2134.555,2326.135,-0.007129282,0.009706455,0.03716421,-0.886851906776428,-0.278487294912338,0.516198813915253,-0.824110582941664,-0.354591760855451,0.510163708672097,0
3.43999481201172,-2.29473543167114,1.65140724182129,2.66327691078186,-2.4728118459714,1.90183452548138,2.67364541920187,1980.131,3506.376,2957.947,0,-0.01258983,0.008369481,0.03926651,-0.8753502368927,-0.272713154554367,0.489073634147644,-0.812804733542555,-0.349727169707881,0.503164849321754,0
3.45999908447266,-2.3120584487915,1.64605188369751,2.67333650588989,-2.48895692832918,1.89488774758421,2.68363999427827,1610.869,2470.141,2116.423,2341.674,-0.00467438,0.007809298,0.03340065,-0.866155207157135,-0.26776522397995,0.502976059913635,-0.801332006385299,-0.344790775723006,0.496062684689628,0
3.47999572753906,-2.32914566993713,1.64081263542175,2.68284630775452,-2.50486489870395,1.88804299234919,2.69348778574196,1973.672,3502.673,2946.65,0,-0.01018126,0.006429082,0.03554329,-0.854355216026306,-0.261965781450272,0.475489616394043,-0.789706299681989,-0.339788558913217,0.488865818431069,0
3.5,-2.34604001045227,1.63567352294922,2.69263601303101,-2.5205447997813,1.88129636896134,2.70319439144611,1592.378,2468.424,2094.479,2363.904,-0.002183259,0.005829096,0.02969958,-0.844724714756012,-0.256967008113861,0.489486128091812,-0.777924000354857,-0.334718964672089,0.481572013878822,0
3.51999664306641,-2.36269330978394,1.63065052032471,2.70186758041382,-2.53598168290031,1.87465430941181,2.7127505574575,1969.259,3497.84,2934.674,0,-0.007738614,0.004419842,0.03186461,-0.832654774188995,-0.251135498285294,0.461573094129562,-0.765999459475408,-0.329588167864767,0.474190155029786,0
3.53999328613281,-2.37914562225342,1.62572884559631,2.71138119697571,-2.55117869390181,1.86811546013321,2.72215823120146,1575.355,2465.799,2071.852,2386.819,0.0003361459,0.003793404,0.0260093,-0.82261323928833,-0.246075510978699,0.47567892074585,-0.753933682518821,-0.324396601119134,0.466720864320997,0
3.55999755859375,-2.39535117149353,1.620924949646,2.72032809257507,-2.56613872308604,1.86167857751006,2.73141920191151,1963,3495.495,2922.503,0,-0.005281581,0.002374733,0.02818579,-0.810294806957245,-0.240206778049469,0.447340935468674,-0.741727567798258,-0.319144650954242,0.459164697851087,0
3.57999420166016,-2.41134834289551,1.61622309684753,2.72955942153931,-2.58084770246059,1.8553497146065,2.74052476083022,1561.51,2462.555,2049.345,2407.49,0.002827,0.001734118,0.02230054,-0.799857676029205,-0.235080644488335,0.461560755968094,-0.729396114728537,-0.313838771199258,0.451530940972359,0
3.59999847412109,-2.42709469795227,1.61163973808289,2.73821544647217,-2.59531431270705,1.84912513636775,2.74948028171299,1955.907,3493.891,2910.856,0,-0.002894324,0.0003216924,0.02447876,-0.787308692932129,-0.229179233312607,0.432801246643066,-0.716935713767317,-0.308477408768949,0.443817359206151,0
3.6199951171875,-2.44262409210205,1.60715973377228,2.74715638160706,-2.60952509409627,1.84301063413925,2.75827743234631,1546.202,2458.577,2031.677,2425.87,0.005210637,-0.000320112,0.01857037,-0.776486933231354,-0.223999112844467,0.447045892477036,-0.704361775018033,-0.303067194200314,0.436033492140578,0
3.63999938964844,-2.45789909362793,1.60279786586761,2.75551557540894,-2.6234885835008,1.83700253474321,2.76692149746096,1951.147,3489.219,2900.78,0,-0.0006098639,-0.001721467,0.02072925,-0.763727605342865,-0.218079835176468,0.417963832616806,-0.691670720740692,-0.297606588091786,0.428177124984152,0
3.65999603271484,-2.47294950485229,1.59854078292847,2.76415944099426,-2.63719194552437,1.83110636089208,2.77540453133521,1531.639,2457.221,2017.867,2437.436,0.007452935,-0.002366485,0.01482313,-0.752532064914703,-0.212864682078362,0.432191908359528,-0.678878353700696,-0.292102389931838,0.420258040401444,0
3.67999267578125,-2.48774099349976,1.59440183639526,2.77222347259521,-2.65063849381582,1.82532068681534,2.78372858527554,1932.798,3492.352,2877.698,19.8555,0.001663239,-0.003710849,0.01699582,-0.739587366580963,-0.206945106387138,0.403203994035721,-0.665986083416798,-0.286555206197011,0.41227711095171,0
3.69999694824219,-2.50230169296265,1.59036803245544,2.78056168556213,-2.66383127580226,1.81964420129024,2.79189554578451,1525.416,2455.489,2011.443,2432.577,0.009581775,-0.0043303,0.01116681,-0.728029906749725,-0.201697632670403,0.41691517829895,-0.65299527533123,-0.280965624398954,0.404235181908735,0
3.71999359130859,-2.5166003704071,1.58645224571228,2.78833198547363,-2.6767584210412,1.81408201183655,2.79989806449274,1912.586,3483.855,2842.549,66.99179,0.003998942,-0.005572931,0.01323314,-0.714935123920441,-0.195783987641335,0.388514369726181,-0.639922285921447,-0.275340682272968,0.396142378711232,0
3.73999786376953,-2.53066110610962,1.58264231681824,2.79635453224182,-2.68942811570037,1.808630596175,2.80774120902801,1529.99,2462.481,2017.065,2395.25,0.01157398,-0.006149239,0.007522004,-0.703019320964813,-0.190495014190674,0.401126801967621,-0.626763698705669,-0.269678909802388,0.38799658639423,0
3.75999450683594,-2.54445695877075,1.57895016670227,2.80382990837097,-2.70182915057228,1.80329477731443,2.81541804035694,1890.791,3461.355,2801.957,137.0788,0.006300987,-0.007269364,0.009337055,-0.689790010452271,-0.184598848223686,0.373767763376236,-0.613536214864365,-0.263987493038594,0.379808143784027,0
3.77999877929688,-2.55800700187683,1.57536458969116,2.81152653694153,-2.7139695770734,1.79807109095524,2.82293354268985,1540.354,2482.229,2035.904,2325.627,0.01331778,-0.007805725,0.003806328,-0.677510321140289,-0.179282411932945,0.384836375713348,-0.60023651686137,-0.258265004538452,0.371574997167698,0
3.79999542236328,-2.57129001617432,1.57189559936523,2.81870532035828,-2.72583886061506,1.79296406983666,2.83028119461452,1866.053,3428.505,2758.298,225.2396,0.008412057,-0.008807606,0.00529964,-0.664146363735199,-0.17343644797802,0.358941465616226,-0.586881630238189,-0.252518769916838,0.363307686166475,0
3.81999969482422,-2.58432006835938,1.56853294372559,2.82606768608093,-2.73744492223163,1.78797030575888,2.83746589962856,1551.237,2513.124,2066.12,2232.569,0.01471478,-0.009314672,5.855217E-05,-0.651508569717407,-0.168136671185493,0.368122160434723,-0.573468357077023,-0.246747413199059,0.355004231116903,0
3.83999633789063,-2.59708046913147,1.56528532505035,2.8329484462738,-2.74877791451009,1.78309403578861,2.84448156171422,1838.237,3385.727,2712.924,329.678,0.01026748,-0.01020949,0.001218906,-0.638014733791351,-0.162389412522316,0.344035267829895,-0.560014026276881,-0.240958390526246,0.346675359432959,0
3.85999298095703,-2.6095814704895,1.56214225292206,2.8399715423584,-2.75984146370944,1.77833369964791,2.85133042569855,1562.753,2552.205,2102.337,2124.735,0.0158072,-0.01070058,-0.00362616,-0.625049889087677,-0.157155618071556,0.351149022579193,-0.546520735526767,-0.235152604475377,0.338322369684062,0
3.87999725341797,-2.62181043624878,1.55911147594452,2.8465530872345,-2.77063893010371,1.77368785150474,2.85801457175126,1809.429,3335.666,2665.805,445.3787,0.01192222,-0.01150379,-0.002784069,-0.611442446708679,-0.151547327637672,0.32908046245575,-0.532990631455729,-0.229330978680956,0.329946590735853,0
3.89999389648438,-2.6337742805481,1.5561830997467,2.85323524475098,-2.78116151864576,1.76916027562219,2.86452855531919,1576.305,2596.087,2137.86,2011.251,0.01672275,-0.01198849,-0.007175088,-0.598202347755432,-0.146409124135971,0.334111928939819,-0.519441457145543,-0.223501147495394,0.321559006401168,0
3.91999816894531,-2.6454644203186,1.55336403846741,2.85951733589172,-2.79141684911929,1.7647476934202,2.87087709341145,1782.526,3282.765,2616.773,564.7656,0.01344418,-0.01271553,-0.006636065,-0.584505319595337,-0.140958368778229,0.314108312129974,-0.505870408491346,-0.2176619043907,0.313157880805522,0
