t,x_s1,x_s2,x_s3,x_s_d1,x_s_d2,x_s_d3,propellers_rpms1,propellers_rpms2,propellers_rpms3,propellers_rpms4,rollRad,pitchRad,yawRad,v_s1,v_s2,v_s3,v_s_d1,v_s_d2,v_s_d3,insideCount
0,-0.0599999986588955,2.94000005722046,1.17999994754791,-0.0599999986588955,2.94000005722046,1.17999994754791,0,0,0,0,0,45.0048027038574,0,0,0,0,-1.06581410364015E-15,4.44089209850063E-16,-7.105427357601E-16,0
0.0200042724609375,-0.0599999986588955,2.94000005722046,1.1790189743042,-0.0600018701838461,2.93999925195556,1.1800010908333,0,0,0,0,0.00112506025470793,44.8630180358887,0.909283995628357,-3.60929135467813E-08,2.95208444356376E-08,-0.0490499772131443,-0.000280105751305916,-0.000120521679537258,0.000171112232507361,5
0.0400009155273438,-0.0599999986588955,2.94000005722046,1.17411398887634,-0.0600148724204753,2.93999365745638,1.18000903369676,0,0,0,0,0.00304076820611954,44.7212371826172,1.81856417655945,-3.62307304158094E-08,2.93641413406931E-08,-0.245249927043915,-0.00111101934050116,-0.00047804058392963,0.000678704377995865,6
0.0600051879882813,-0.0600350871682167,2.94003486633301,1.16684293746948,-0.0600499046557519,2.93997858406422,1.18003043434262,2306.972,2000.173,2127.798,3382.377,-0.00213768915273249,44.8046226501465,1.28309500217438,-0.001754404976964,0.00174322747625411,-0.363554209470749,-0.00247998555168399,-0.00106706850011317,0.001514984474111,6
0.0800018310546875,-0.0601342283189297,2.9401330947876,1.15967166423798,-0.0601175574246769,2.93994947496775,1.18007176236346,2848.37,2760.047,2606.465,2299.015,359.914337158203,44.8777122497559,0.619924545288086,-0.00495700351893902,0.00491339154541492,-0.358561396598816,-0.00437268608126799,-0.00188144466206175,0.00267120569262453,6
0.0999984741210938,-0.0602752827107906,2.94026303291321,1.15338182449341,-0.0602281887669101,2.93990187339187,1.18013934532406,2871.961,2897.508,2628.005,2213.48,359.724731445313,44.9187927246094,0.190212309360504,-0.00705273216590285,0.00649323407560587,-0.314490914344788,-0.00677637982016689,-0.00291568692648091,0.00413958468881675,5
0.120002746582031,-0.0604444369673729,2.94038772583008,1.14806044101715,-0.0603919599823235,2.93983140721312,1.18023939060396,2725.749,2926.561,2634.779,2219.375,359.427764892578,44.935115814209,0.0502595156431198,-0.00845770258456469,0.00623438553884625,-0.266067236661911,-0.00967921398219614,-0.00416469537060396,0.00591288078056661,5
0.139999389648438,-0.0606513172388077,2.94048070907593,1.14373028278351,-0.0606185767455666,2.93973390035084,1.18037782724834,2551.948,2770.07,2667.379,2379.383,359.090759277344,44.9478645324707,0.144043207168579,-0.0103439828380942,0.00464898720383644,-0.216508343815804,-0.0130660253322238,-0.00562194567796536,0.00798183098414958,5
0.160003662109375,-0.0609211623668671,2.94052791595459,1.14032280445099,-0.0609177895434042,2.93960515744296,1.18056061167741,2443.295,2553.573,2687.212,2529.392,358.804534912109,44.9652938842773,0.340526908636093,-0.0134922759607434,0.00235738791525364,-0.170371189713478,-0.0169265510445065,-0.00728302204135792,0.0103401658994673,5
0.180000305175781,-0.0612807758152485,2.94052505493164,1.13772785663605,-0.0612986871007165,2.9394412678651,1.18079329605139,2417.443,2395.096,2654.612,2596.383,358.625640869141,44.9838714599609,0.518688976764679,-0.0179807469248772,-0.000144312158226967,-0.129749953746796,-0.0212451141043368,-0.00914117907931815,0.0129783086828701,5
0.200004577636719,-0.0617485381662846,2.94047331809998,1.13583743572235,-0.0617706280683152,2.93923820485124,1.181081597424,2450.59,2337.823,2561.988,2580.279,358.551177978516,44.9966087341309,0.617895603179932,-0.0233881995081902,-0.00259019457735121,-0.0945184230804443,-0.026012379510746,-0.0111924002017188,0.0158905567279358,5
0.220001220703125,-0.0623322576284409,2.94037485122681,1.13456809520721,-0.0623420644491781,2.93899233174064,1.18143067899198,2497.07,2360.038,2442.747,2516.136,358.52587890625,44.9992218017578,0.641196191310883,-0.0291858930140734,-0.00492127565667033,-0.0634647384285927,-0.03121219533433,-0.0134297356845702,0.0190670430730375,5
0.239997863769531,-0.06303321570158,2.94023036956787,1.13386452198029,-0.0630217183703222,2.93869989564571,1.18184586896662,2511.663,2408.128,2348.504,2446.549,358.476745605469,44.9927062988281,0.627782464027405,-0.0350477583706379,-0.0072292392142117,-0.0351815968751907,-0.0368338920540454,-0.0158485947310391,0.0225012498742643,5
0.260002136230469,-0.0638523921370506,2.94003653526306,1.13368916511536,-0.0638182299684225,2.938357178957,1.18233244547258,2475.296,2437.111,2311.789,2397.056,358.355865478516,44.9817504882813,0.619227170944214,-0.0409587025642395,-0.00969046168029308,-0.00876974686980247,-0.0428675524613532,-0.0184447102433459,0.0261871188636747,4
0.279998779296875,-0.0647950619459152,2.93978667259216,1.13401007652283,-0.0647390625194898,2.93796097043536,1.18289496770872,2398.875,2429.128,2331.003,2372.437,358.162994384766,44.9714889526367,0.63829243183136,-0.0471334643661976,-0.0124884834513068,0.016046866774559,-0.0492963837173861,-0.0212108567320638,0.0301143915580518,4
0.300003051757813,-0.0658717378973961,2.93947196006775,1.13479292392731,-0.0657927507678135,2.93750759781875,1.18353864941714,2313.659,2391.22,2375.573,2364.03,357.940216064453,44.9649963378906,0.685055136680603,-0.0538337789475918,-0.0157368872314692,0.0391453392803669,-0.0561132031658829,-0.0241439437008635,0.0342786801847687,4
0.319999694824219,-0.0670956820249557,2.93908333778381,1.13599848747253,-0.0669860785243584,2.93699414222283,1.1842676347221,2254.928,2343.555,2404.234,2358.68,357.74462890625,44.9626617431641,0.745574235916138,-0.0611974149942398,-0.0194298699498177,0.0602807812392712,-0.0633008373176985,-0.0272365818771378,0.0386694937272938,4
0.340003967285156,-0.068479135632515,2.93861436843872,1.1375857591629,-0.0683273092598492,2.93641704810699,1.18508697164892,2239.287,2303.309,2392.776,2348.47,357.614715576172,44.9632110595703,0.80388480424881,-0.0691725462675095,-0.0234478116035461,0.0793607383966446,-0.0708528993697216,-0.0304860231979345,0.0432829305872703,4
0.360000610351563,-0.0700305476784706,2.93806195259094,1.1395149230957,-0.0698225328270578,2.93577369517774,1.18600038039362,2262.075,2279.418,2340.783,2330.636,357.552398681641,44.9647369384766,0.8504838347435,-0.0775704830884933,-0.0276176836341619,0.0964572429656982,-0.0787518717320621,-0.0338847303337087,0.0481082895423912,4
0.3800048828125,-0.0717542469501495,2.93742609024048,1.14175128936768,-0.0714797725314022,2.93506063123087,1.18701276226829,2296.919,2269.3,2273.837,2308.811,357.524688720703,44.965763092041,0.884550750255585,-0.0861850902438164,-0.0317947417497635,0.111816950142384,-0.0869921272359981,-0.0374302820709642,0.0531421330430943,4
0.400001525878906,-0.0736522376537323,2.93670749664307,1.14426505565643,-0.0733044112230977,2.93427554017634,1.18812740557212,2317.072,2266.254,2221.041,2286.732,357.486877441406,44.9656372070313,0.911221325397491,-0.0948996916413307,-0.0359258204698563,0.125690340995789,-0.0955558400788823,-0.0411150084648172,0.0583735715847086,4
0.419998168945313,-0.0757268145680428,2.93590617179871,1.14703130722046,-0.0753034649285836,2.93341540321397,1.18934859628618,2304.567,2261.941,2203.823,2268.496,357.406768798828,44.9645919799805,0.936975955963135,-0.103728987276554,-0.0400612503290176,0.138315007090569,-0.104434660908044,-0.0449353170220673,0.0637975046779765,4
0.44000244140625,-0.0779824703931808,2.93501996994019,1.15002763271332,-0.077483988232608,2.93247718495301,1.19068064394622,2264.213,2253.154,2219.529,2254.399,357.282318115234,44.9632873535156,0.965965509414673,-0.112782664597034,-0.0443141981959343,0.149817377328873,-0.113620829717891,-0.048887868829098,0.0694091918565748,4
0.459999084472656,-0.0804261341691017,2.93404412269592,1.15323328971863,-0.0798502821969742,2.93145903476675,1.19212617600376,2214.881,2240.162,2249.379,2243.791,357.138214111328,44.962459564209,0.998935997486115,-0.122183263301849,-0.0487902164459229,0.160283520817757,-0.123096124252221,-0.0529648233581361,0.075197501428542,4
0.480003356933594,-0.0830659419298172,2.93297362327576,1.15662896633148,-0.0824098964715798,2.93035770425173,1.19368980442212,2177.74,2225.4,2270.761,2235.46,357.00927734375,44.962574005127,1.03387057781219,-0.131990507245064,-0.0535283237695694,0.169783383607864,-0.132856662250146,-0.057164510180779,0.0811600617812823,4
0.5,-0.085909329354763,2.93180394172668,1.16019630432129,-0.085166398670376,2.92917165836334,1.195373708601,2168.3,2213.139,2265.984,2227.265,356.921234130859,44.9636459350586,1.06796193122864,-0.14216935634613,-0.058483675122261,0.178366705775261,-0.142884000065179,-0.0614789935111996,0.0872856059789651,5
0.520004272460938,-0.088961660861969,2.93053293228149,1.16391921043396,-0.088127196023106,2.92789770997757,1.19718241350145,2182.516,2204.218,2237.865,2219.583,356.876220703125,44.9653739929199,1.09926736354828,-0.152616590261459,-0.063555508852005,0.1861452460289,-0.153174893518032,-0.065906877469682,0.0935721522030874,5
0.540000915527344,-0.092226043343544,2.92916011810303,1.16778326034546,-0.0912951145137283,2.92653464315245,1.19911764547298,2207.983,2199.531,2198.551,2211.561,356.855560302734,44.9672355651855,1.12742841243744,-0.163219138979912,-0.0686437115073204,0.193203434348106,-0.163710711144578,-0.0704401454577151,0.100008318782952,5
0.55999755859375,-0.0957043170928955,2.92768621444702,1.17177665233612,-0.094676112580471,2.92507989413848,1.20118304443252,2224.373,2196.347,2169.421,2204.666,356.830749511719,44.9688568115234,1.15340960025787,-0.173913508653641,-0.0736980587244034,0.199670761823654,-0.17448465888317,-0.0750758741803766,0.106589955332319,5
0.580001831054688,-0.0993984639644623,2.92611145973206,1.17588901519775,-0.0982762614093182,2.92353085067394,1.20338231917284,2222.355,2193.772,2160.833,2198.365,356.781768798828,44.9700317382813,1.17855358123779,-0.184707760810852,-0.0787363201379776,0.205620244145393,-0.185490414529404,-0.0798113433697334,0.113313199715174,5
0.599998474121094,-0.103311747312546,2.92443490028381,1.18011164665222,-0.102097262171133,2.92188678079254,1.2057165089127,2202.666,2190.557,2172.675,2193.112,356.705688476563,44.9708786010742,1.20399856567383,-0.195664048194885,-0.083823099732399,0.211134284734726,-0.196709126405959,-0.0846384416756885,0.120166535736014,5
0.620002746582031,-0.1074488312006,2.92265439033508,1.18443751335144,-0.106146271928021,2.92014460501038,1.20818998578963,2174.723,2185.756,2195.508,2189.524,356.616424560547,44.9717216491699,1.22988498210907,-0.206854358315468,-0.0890269801020622,0.216294318437576,-0.208139001499973,-0.0895563976148993,0.127148868071264,5
0.639999389648438,-0.111815109848976,2.92076683044434,1.18886005878448,-0.110424235525481,2.91830391678686,1.21080332699501,2155.138,2181.629,2211.601,2186.19,356.536285400391,44.972827911377,1.25557124614716,-0.21831351518631,-0.0943800508975983,0.221129506826401,-0.219761081350814,-0.0945570538913933,0.134248615293163,5
0.660003662109375,-0.116415545344353,2.9187695980072,1.19337451457977,-0.114938248900541,2.91636166293851,1.21356086732604,2150.217,2177.865,2213.798,2184.14,356.481018066406,44.9743843078613,1.280158162117,-0.23002228140831,-0.0998618230223656,0.225723594427109,-0.231574097577923,-0.0996398647564507,0.141465002567821,5
0.680000305175781,-0.12125389277935,2.91666126251221,1.19797658920288,-0.119688496929273,2.91431776391831,1.21646271972064,2162.253,2176.573,2198.901,2181.898,356.453704833984,44.9762802124023,1.30300211906433,-0.241917222738266,-0.105413660407066,0.230103194713593,-0.243559016194652,-0.104796640417365,0.148786402329814,5
0.700004577636719,-0.126332461833954,2.91444182395935,1.20266366004944,-0.124682034788652,2.91216918408072,1.21951319407631,2179.741,2176.055,2178.666,2180.805,356.442565917969,44.978271484375,1.32403326034546,-0.253929197788239,-0.110972680151463,0.234354540705681,-0.255715062526221,-0.110027047553219,0.156212341342407,5
0.720001220703125,-0.131652757525444,2.91211175918579,1.20743358135223,-0.129918284978346,2.90991617190799,1.22271193760712,2194.419,2177.195,2161.636,2179.409,356.430908203125,44.9800567626953,1.34364426136017,-0.266014605760574,-0.11650375276804,0.238494589924812,-0.268023157655716,-0.11532287703907,0.163731164592979,5
0.739997863769531,-0.13721626996994,2.90967154502869,1.21228551864624,-0.135402141159277,2.90755662179454,1.22606193977416,2195.905,2177.506,2159.142,2179.144,356.404876708984,44.9815139770508,1.36244308948517,-0.278175383806229,-0.122013635933399,0.24259652197361,-0.280478211503383,-0.120681938755799,0.171339762631236,5
0.760002136230469,-0.143025174736977,2.90712070465088,1.21721887588501,-0.14113868194985,2.90508834855275,1.22956630302617,2186.742,2177.839,2168.752,2178.736,356.362609863281,44.9826545715332,1.38073658943176,-0.290445685386658,-0.127540409564972,0.246665850281715,-0.293075466693575,-0.12610218573757,0.179035229250634,5
0.779998779296875,-0.149082496762276,2.90445828437805,1.22223365306854,-0.147126184485884,2.90251209348295,1.2332239748923,2173.229,2178.005,2183.98,2178.565,356.312469482422,44.9836502075195,1.39872944355011,-0.302866548299789,-0.133126303553581,0.250738263130188,-0.305795832832518,-0.131575403921268,0.186805902427515,5
0.800003051757813,-0.155391693115234,2.90168237686157,1.22733092308044,-0.153371683173492,2.89982482987671,1.23703925258147,2161.9,2177.177,2197.967,2179.506,356.267059326172,44.9847602844238,1.41607463359833,-0.315460026264191,-0.138793215155602,0.254862815141678,-0.318639638509124,-0.13710173468952,0.194651982891718,5
0.819999694824219,-0.161955922842026,2.89879179000854,1.23251140117645,-0.159872691993147,2.89702762739878,1.24101061742316,2161.65,2177.85,2200.825,2179.861,356.237487792969,44.9860763549805,1.43226051330566,-0.328211963176727,-0.144530609250069,0.259025812149048,-0.331587821991737,-0.142672976311719,0.202561826128828,5
0.840003967285156,-0.168777599930763,2.89578580856323,1.23777723312378,-0.166636266402775,2.89411745028271,1.2451423794865,2169.289,2178.405,2195.637,2181.328,356.225189208984,44.9875793457031,1.44694709777832,-0.341084152460098,-0.150303795933723,0.263289779424667,-0.344641102544584,-0.148289438267168,0.210535871526136,5
0.860000610351563,-0.175858169794083,2.89266443252563,1.24312996864319,-0.173659158941841,2.89109569582005,1.24943255494854,2183.165,2180.765,2183.698,2182.099,356.224487304688,44.9891090393066,1.46005606651306,-0.354028880596161,-0.156073123216629,0.26763641834259,-0.357780475378537,-0.153942943326036,0.218562509354528,5
0.8800048828125,-0.183198526501656,2.88942813873291,1.24857234954834,-0.180948461186242,2.88795931270381,1.25388547594233,2192.861,2182.524,2176.155,2183.84,356.224029541016,44.9904632568359,1.47186243534088,-0.36701700091362,-0.161815226078033,0.272120505571365,-0.371007022483504,-0.159633957038354,0.226642400584755,5
0.900001525878906,-0.190799355506897,2.88607740402222,1.25410664081573,-0.188500167066783,2.88471002463366,1.25849869522271,2197.25,2185.185,2174.155,2184.813,356.216217041016,44.9915351867676,1.48270988464355,-0.380042940378189,-0.167532026767731,0.276715666055679,-0.384301823631742,-0.165354338558695,0.234763987144933,5
0.919998168945313,-0.198661893606186,2.88261246681213,1.25973606109619,-0.196318384305134,2.8813460641717,1.26327472213274,2192.444,2186.338,2182.266,2186.746,356.1982421875,44.9923706054688,1.49290561676025,-0.393125683069229,-0.173245593905449,0.281468629837036,-0.397661187980262,-0.171102499820431,0.242925014356675,5
0.94000244140625,-0.206787616014481,2.8790328502655,1.26546311378479,-0.204407453948074,2.87786556348678,1.26821620855017,2185.284,2187.663,2193.199,2188.16,356.17578125,44.9930725097656,1.50233244895935,-0.40628719329834,-0.178981959819794,0.286351382732391,-0.411081631631503,-0.176876941799768,0.251123353961324,5
0.959999084472656,-0.215178370475769,2.87533783912659,1.27129065990448,-0.212762239776093,2.87427073255068,1.27332001683864,2180.797,2189.203,2201.584,2189.471,356.156799316406,44.9937744140625,1.51098728179932,-0.419537633657455,-0.184754610061646,0.291375279426575,-0.424544411524882,-0.18266959988136,0.259347556115652,5
0.980003356933594,-0.223835736513138,2.87152671813965,1.27722203731537,-0.221389982382338,2.87055845593844,1.27859057016353,2179.936,2189.812,2206.404,2191.682,356.147003173828,44.9946060180664,1.51857316493988,-0.432868361473083,-0.190557688474655,0.296569675207138,-0.438051398499298,-0.18848127903492,0.267598763685948,5
1,-0.23276075720787,2.86759924888611,1.28325986862183,-0.230284798736574,2.86673126495361,1.28402427467346,2186.752,2191.985,2202.873,2192.923,356.148834228516,44.9955177307129,1.52482628822327,-0.446251302957535,-0.196369990706444,0.301894664764404,-0.451584000205995,-0.194303979492187,0.275865618896484,5
1.02000427246094,-0.241953894495964,2.86355590820313,1.28940773010254,-0.239454009753966,2.86278600961093,1.28962560260127,2194.309,2193.389,2198.39,2195.117,356.157745361328,44.9964408874512,1.52974009513855,-0.459657043218613,-0.202166885137558,0.307395249605179,-0.465144357597929,-0.200138622445408,0.284149429622012,5
1.04000091552734,-0.251415133476257,2.85939717292786,1.29566824436188,-0.24889099213045,2.8587255397331,1.29539050787386,2202.643,2196.101,2192.616,2196.314,356.168487548828,44.9972152709961,1.53341424465179,-0.47306153178215,-0.207932785153389,0.313027918338776,-0.478714054341683,-0.205977283860805,0.292438945611829,5
1.05999755859375,-0.2611443400383,2.85512375831604,1.30204486846924,-0.258599401509697,2.85454828239877,1.3013212236669,2204.562,2197.474,2193.565,2198.404,356.1748046875,44.9978218078613,1.53611552715302,-0.486459761857986,-0.213667422533035,0.318832039833069,-0.492290296490434,-0.211818761581115,0.30073246008742,5
1.08000183105469,-0.271141529083252,2.85073614120483,1.30854022502899,-0.268583149539609,2.85025255453512,1.30742013954506,2203.196,2199.233,2197.835,2199.725,356.176300048828,44.9982414245605,1.53786849975586,-0.499857485294342,-0.219383060932159,0.324765205383301,-0.50587040849135,-0.217661904390701,0.309028338595312,5
1.09999847412109,-0.281406819820404,2.84623432159424,1.31515681743622,-0.278834517009062,2.84584167750307,1.31368253996271,2200.361,2201.008,2203.606,2200.85,356.175415039063,44.99853515625,1.53893935680389,-0.513264715671539,-0.225094228982925,0.330831587314606,-0.519436284009554,-0.223498921639497,0.317315520258069,5
1.12000274658203,-0.291940569877625,2.84161806106567,1.32189786434174,-0.289361068555186,2.84131239645058,1.32011304603864,2196.167,2201.317,2211.012,2202.825,356.175964355469,44.9988555908203,1.53923201560974,-0.526687026023865,-0.230809181928635,0.337051302194595,-0.532990631455731,-0.229330978680957,0.325595659601518,5
1.13999938964844,-0.302742838859558,2.83688759803772,1.32876527309418,-0.300154365346813,2.83666834237095,1.32670650262257,2197.205,2202.897,2212.655,2203.657,356.183074951172,44.999195098877,1.53852367401123,-0.540115356445313,-0.236524745821953,0.34337118268013,-0.546515580872639,-0.235150386571708,0.333857840147634,5
1.16000366210938,-0.313813507556915,2.83204293251038,1.33576190471649,-0.311222084148811,2.83190621216671,1.33346759933036,2199.41,2203.294,2212.977,2205.526,356.196960449219,44.9996337890625,1.53668665885925,-0.553533554077148,-0.242228209972382,0.34983366727829,-0.560014026276883,-0.240958390526247,0.342103829805999,6
1.18000030517578,-0.325151860713959,2.82708477973938,1.34288954734802,-0.322555076427271,2.82702994219644,1.34039074746542,2205.731,2205.243,2208.443,2206.125,356.216827392578,45.0000305175781,1.53364360332489,-0.566917836666107,-0.247903674840927,0.356380522251129,-0.573468357077025,-0.246747413199059,0.350322870541114,6
1.20000457763672,-0.336756944656372,2.82201385498047,1.35015070438385,-0.334161138043845,2.82203617811866,1.34748070939796,2209.086,2205.862,2206.836,2207.764,356.237884521484,45.0003776550293,1.52952659130096,-0.580252945423126,-0.253540486097336,0.363055884838104,-0.586881630238192,-0.252518769916838,0.358516829805271,6
1.22000122070313,-0.348627507686615,2.81683111190796,1.35754668712616,-0.346030421585499,2.81692915700008,1.35473146949704,2212.3,2207.725,2204.919,2208.126,356.257965087891,45.0005683898926,1.52445197105408,-0.593529164791107,-0.259136497974396,0.369799256324768,-0.600236516861372,-0.258265004538453,0.366675121644476,6
1.23999786376953,-0.360762476921082,2.81153726577759,1.36507976055145,-0.358166167196084,2.81170748469733,1.36214500711597,2210.234,2207.881,2208.56,2209.568,356.274780273438,45.0006790161133,1.51859664916992,-0.60674923658371,-0.264697819948196,0.376653522253036,-0.613531154887641,-0.263985315871967,0.374796608555988,6
1.26000213623047,-0.373160779476166,2.80613255500793,1.37275099754333,-0.370571882958536,2.80636965178032,1.36972346528788,2207.962,2208.625,2212.208,2210.056,356.290893554688,45.0007019042969,1.5118168592453,-0.619915783405304,-0.27023309469223,0.383563250303268,-0.626763698705669,-0.269678909802388,0.382880163084648,6
1.27999877929688,-0.385821372270584,2.80061769485474,1.3805615901947,-0.383236695417198,2.80092033679326,1.37746020158837,2206.914,2209.659,2214.368,2210.24,356.308837890625,45.0006942749023,1.50434923171997,-0.633028447628021,-0.275746554136276,0.390530288219452,-0.639917282339435,-0.275338529371412,0.39091548206889,6
1.30000305175781,-0.398743003606796,2.79499292373657,1.38851320743561,-0.396168722856641,2.79535604666509,1.38536017535082,2205.148,2209.126,2217.303,2211.473,356.330078125,45.0007629394531,1.49610328674316,-0.646082282066345,-0.281235873699188,0.397579818964005,-0.652995275331231,-0.280965624398954,0.398904623909522,6
1.31999969482422,-0.411924242973328,2.78925895690918,1.39660608768463,-0.409356423791328,2.7896817473746,1.39341633606181,2207.822,2210.106,2215.179,2211.302,356.356689453125,45.0008277893066,1.48692727088928,-0.65906286239624,-0.286692947149277,0.404645711183548,-0.665981146317813,-0.286553081901244,0.406837489854705,6
1.34000396728516,-0.425363391637802,2.78341674804688,1.40484166145325,-0.422808053134535,2.78389388706324,1.40163372651904,2208.999,2209.633,2214.5,2212.29,356.386505126953,45.0009269714355,1.47681653499603,-0.67195737361908,-0.292107939720154,0.411776304244995,-0.678878353700697,-0.292102389931837,0.414716192587956,6
1.36000061035156,-0.439058393239975,2.77746725082397,1.41321980953217,-0.436511415158101,2.77799771321212,1.41000489654248,2212.556,2210.669,2210.826,2211.883,356.418792724609,45.0009613037109,1.46574878692627,-0.684751093387604,-0.297473251819611,0.418905764818192,-0.691670720740693,-0.297606588091785,0.422530849991739,6
1.37999725341797,-0.453007131814957,2.77141141891479,1.4217414855957,-0.450469530727146,2.77199192602736,1.41853169153152,2212.04,2210.111,2211.355,2212.603,356.450286865234,45.0009460449219,1.45385706424713,-0.697438418865204,-0.302786499261856,0.426081091165543,-0.704356955827446,-0.303065120637236,0.430280673041441,6
1.40000152587891,-0.467207431793213,2.76525044441223,1.43040633201599,-0.464685685951852,2.76587511158757,1.42721611891956,2211.433,2210.363,2211.665,2212.278,356.481475830078,45.000862121582,1.44104504585266,-0.710015594959259,-0.308050096035004,0.433244466781616,-0.716935713767318,-0.308477408768949,0.437964839979263,6
1.41999816894531,-0.481657087802887,2.75898504257202,1.43921434879303,-0.47914673136562,2.75965292774086,1.43605014590267,2210.876,2210.861,2211.668,2211.732,356.512786865234,45.0007019042969,1.42765283584595,-0.722481429576874,-0.313267320394516,0.440402209758759,-0.729391385793766,-0.313836736470737,0.445573815653291,6
1.44000244140625,-0.496353805065155,2.75261616706848,1.44816589355469,-0.493861275572861,2.75332167044526,1.44503903134294,2207.552,2209.673,2214.661,2212.223,356.54443359375,45.0005798339844,1.41367650032043,-0.734835684299469,-0.318440020084381,0.447578012943268,-0.741727567798258,-0.319144650954242,0.453109796737511,6
1.45999908447266,-0.511295258998871,2.74614477157593,1.45726001262665,-0.508815552717244,2.74688726276417,1.45417436589355,2207.729,2209.923,2213.667,2211.309,356.579223632813,45.0004463195801,1.39900207519531,-0.747071981430054,-0.323567003011703,0.454705834388733,-0.753929052770513,-0.324394609067776,0.460563493506643,6
1.48000335693359,-0.526478886604309,2.73957180976868,1.46649670600891,-0.524018315758597,2.74034593854351,1.46346149660107,2206.181,2208.552,2214.477,2211.652,356.616607666016,45.0003776550293,1.38358521461487,-0.759183943271637,-0.328643649816513,0.461837261915207,-0.765999459475408,-0.329588167864767,0.467937116607681,6
1.5,-0.5419020652771,2.73289847373962,1.47587478160858,-0.539455198877605,2.73370387899399,1.47289164761066,2208.27,2208.853,2211.077,2210.458,356.657653808594,45.0002784729004,1.36735665798187,-0.771158814430237,-0.333663403987885,0.468901932239532,-0.777924000354858,-0.334718964672088,0.475221632552146,6
1.52000427246094,-0.557561814785004,2.72612595558167,1.48539388179779,-0.555135099954955,2.72695725560613,1.48247025449879,2207.493,2207.508,2210.611,2210.591,356.699920654297,45.0002021789551,1.35038483142853,-0.782988846302032,-0.338620513677597,0.475956380367279,-0.789706299681991,-0.339788558913217,0.482419255351937,6
1.54000091552734,-0.573455154895782,2.71925568580627,1.49505245685577,-0.571043070329722,2.72011250037111,1.49218818536175,2208.944,2207.759,2207.437,2209.192,356.743591308594,45.0000457763672,1.33269786834717,-0.794664919376373,-0.343512117862701,0.482929259538651,-0.801332006385301,-0.344790775723006,0.489521218161413,6
1.55999755859375,-0.589578807353973,2.71228885650635,1.50485002994537,-0.587181951496087,2.71316839067337,1.50204717602401,2206.427,2206.206,2208.421,2209.183,356.786590576172,44.9999046325684,1.31440162658691,-0.806185245513916,-0.348337948322296,0.489878445863724,-0.812800388649436,-0.349725300221754,0.496527073925997,6
1.58000183105469,-0.605929732322693,2.70522689819336,1.51478481292725,-0.60355483331529,2.70612359703193,1.51204911403357,2204.944,2205.611,2208.105,2208.012,356.830444335938,44.9997177124023,1.29533576965332,-0.817546427249908,-0.353099703788757,0.49673980474472,-0.824110582941666,-0.354591760855452,0.503436295127019,6
1.59999847412109,-0.622504711151123,2.69807100296021,1.52485525608063,-0.620145926473056,2.69898491314762,1.52218435394475,2204.491,2205.375,2206.495,2206.645,356.875732421875,44.9994964599609,1.27582979202271,-0.828745067119598,-0.357797503471375,0.503524899482727,-0.835248923368005,-0.359384277571697,0.510240533483095,5
1.62000274658203,-0.639300286769867,2.69082236289978,1.53506052494049,-0.636964489205914,2.69174835545992,1.53245855146976,2201.408,2203.408,2207.72,2206.486,356.921875,44.9993476867676,1.25584638118744,-0.839778304100037,-0.362429648637772,0.510263860225677,-0.846218976345106,-0.364104384899943,0.516941967662505,5
1.63999938964844,-0.656313061714172,2.68348240852356,1.54539823532104,-0.653994195024907,2.68442094880091,1.54286173301126,2201.836,2203.102,2205.022,2204.728,356.970794677734,44.9991645812988,1.23530113697052,-0.85063898563385,-0.366993486881256,0.516884744167328,-0.857007552155828,-0.368746407673381,0.523532540272869,5
1.66000366210938,-0.673539459705353,2.6760528087616,1.55586719512939,-0.671244443874359,2.67699864863716,1.55339964084857,2199.58,2201.052,2205.127,2204.446,357.021118164063,44.9990425109863,1.21417951583862,-0.861322343349457,-0.371485024690628,0.52345073223114,-0.867618167158098,-0.373311858882592,0.530014399402375,5
1.68000030517578,-0.690975904464722,2.66853475570679,1.56646490097046,-0.688698391434734,2.66948870260877,1.56406198504972,2200.619,2200.726,2201.5,2202.537,357.073883056641,44.9988822937012,1.19242537021637,-0.87181955575943,-0.375900566577911,0.529887139797211,-0.878038122530658,-0.377795274579551,0.536379787539275,5
1.70000457763672,-0.708618342876434,2.66092991828918,1.57719004154205,-0.706365577065784,2.66188700619576,1.57485459306073,2198.201,2198.696,2201.482,2202.057,357.127044677734,44.9987487792969,1.17010140419006,-0.882126450538635,-0.380237013101578,0.536256670951843,-0.888270870184447,-0.382198140025102,0.542630813402096,5
1.72000122070313,-0.726463139057159,2.65323996543884,1.58803975582123,-0.724228658537036,2.6542010212754,1.58576687078363,2198.566,2198.373,2198.293,2199.95,357.181640625,44.9985618591309,1.14724469184875,-0.89223700761795,-0.384493380784988,0.542486071586609,-0.898304216251578,-0.386515208538549,0.548760027947228,5
1.73999786376953,-0.744506061077118,2.64546656608582,1.59901261329651,-0.742290383213093,2.64642956573347,1.59680049654058,2195.246,2196.153,2198.978,2199.453,357.236114501953,44.998405456543,1.12392449378967,-0.902149975299835,-0.388668835163116,0.548642933368683,-0.908137821269591,-0.39074633405868,0.554767223802352,5
1.76000213623047,-0.762743353843689,2.63761138916016,1.61010575294495,-0.76055371708895,2.63857136338517,1.60795728221164,2193.74,2195.013,2197.639,2197.707,357.292236328125,44.9982376098633,1.09994375705719,-0.911861300468445,-0.392763525247574,0.554658830165863,-0.917771149318994,-0.394891285994308,0.560652073582612,4
1.77999877929688,-0.781170666217804,2.62967586517334,1.62131679058075,-0.779000609654483,2.63063418086074,1.61922620102184,2193.588,2194.33,2194.713,2195.763,357.35009765625,44.9980392456055,1.07564389705658,-0.921366214752197,-0.396775484085083,0.56054949760437,-0.927192788821983,-0.398945154262308,0.566407606133204,4
1.80000305175781,-0.799783885478973,2.621661901474,1.63264381885529,-0.797640935141499,2.62261376955408,1.63061328498531,2190.437,2191.925,2194.981,2195.134,357.408416748047,44.9979095458984,1.0509991645813,-0.930661618709564,-0.400701940059662,0.566350281238556,-0.936405971974637,-0.402909329586356,0.572035795952272,4
1.81999969482422,-0.818578660488129,2.61357116699219,1.64408361911774,-0.816456197270346,2.61451808789761,1.64210723501345,2190.622,2191.171,2191.625,2192.892,357.468780517578,44.9977378845215,1.02594304084778,-0.93974232673645,-0.404541224241257,0.571988761425018,-0.945399824400851,-0.406779133026206,0.577530000053147,3
1.84000396728516,-0.837550759315491,2.60540533065796,1.65563428401947,-0.835456397410825,2.6063428325813,1.65371416078699,2187.466,2188.665,2191.759,2192.209,357.529541015625,44.997631072998,1.0004415512085,-0.94860565662384,-0.40829074382782,0.577532351016998,-0.95417746870157,-0.410555908149813,0.582892125984018,3
1.86000061035156,-0.856695711612701,2.59716629981995,1.66729235649109,-0.854622615239374,2.59809614449182,1.66542250417552,2187.624,2187.979,2188.279,2189.763,357.592224121094,44.9974746704102,0.974472403526306,-0.95724630355835,-0.411949276924133,0.582903325557709,-0.962728579444532,-0.414235212212131,0.588115866099442,0
1.87999725341797,-0.876008868217468,2.58885598182678,1.67905580997467,-0.873957566090845,2.58977685529642,1.67723392393473,2184.322,2185.489,2188.375,2188.994,357.655181884766,44.9973602294922,0.948068380355835,-0.965661764144897,-0.41551461815834,0.588175237178802,-0.971053025860989,-0.417816988947023,0.593201140514831,0
1.90000152587891,-0.895485877990723,2.5804762840271,1.6909214258194,-0.893464153455626,2.58138371570432,1.68915019376158,2183.067,2184.155,2186.259,2186.923,357.719940185547,44.9972343444824,0.921053290367126,-0.973847806453705,-0.418986201286316,0.593279182910919,-0.979150439632688,-0.421301079877433,0.598147724230311,0
1.91999816894531,-0.915121853351593,2.57202911376953,1.70288610458374,-0.913122862707269,2.57292512231409,1.7011593924753,2183.065,2183.313,2182.685,2184.664,357.786071777344,44.9970664978027,0.89382266998291,-0.9817995429039,-0.42236140370369,0.598233580589294,-0.987011339258123,-0.424683405378145,0.60294982514457,0
1.94000244140625,-0.934912085533142,2.56351637840271,1.71494770050049,-0.932943991899774,2.5643966441608,1.71326781099638,2179.639,2180.653,2182.725,2183.894,357.85205078125,44.996955871582,0.866342902183533,-0.989514827728271,-0.425638139247894,0.60307914018631,-0.994638524886308,-0.427965170275055,0.607609153824943,0
1.95999908447266,-0.954851984977722,2.55493998527527,1.72710239887238,-0.952907658613767,2.55580683609405,1.72546330346508,2179.406,2179.738,2179.414,2181.328,357.919403076172,44.9968070983887,0.838576376438141,-0.99699079990387,-0.428816258907318,0.607736706733704,-1.00202309041976,-0.431142542523221,0.612120269675456,0
1.98000335693359,-0.974936425685883,2.54630208015442,1.73934805393219,-0.973024270010337,2.54715122020317,1.73775222745372,2175.545,2176.971,2179.846,2180.535,357.986755371094,44.9967308044434,0.810467064380646,-1.00422656536102,-0.431894570589066,0.612283527851105,-1.00916768936771,-0.434216663853535,0.616484793683489,0
2,-0.99516087770462,2.53760457038879,1.75168073177338,-0.993273599084619,2.53843849960327,1.75012222660065,2175.399,2176.111,2176.367,2177.824,358.055999755859,44.9965972900391,0.781995296478271,-1.01121878623962,-0.434872657060623,0.616635084152222,-1.01606400046349,-0.437183953857422,0.620697642517089,0
2.02000427246094,-1.0155200958252,2.52884960174561,1.76409816741943,-1.01366615605493,2.52966415204104,1.76257972143423,2171.824,2173.389,2176.383,2176.969,358.125640869141,44.9965171813965,0.753154754638672,-1.01796495914459,-0.437748163938522,0.62087345123291,-1.02271452148052,-0.440045487257004,0.624760342027063,0
2.04000091552734,-1.03600931167603,2.52003908157349,1.77659642696381,-1.0341813929022,2.52083701875502,1.77511215949027,2172.073,2172.574,2172.415,2174.17,358.197326660156,44.996395111084,0.723982632160187,-1.02446067333221,-0.440519869327545,0.624912321567535,-1.02911152474823,-0.442797939051516,0.628668171500036,0
2.05999755859375,-1.05662333965302,2.51117563247681,1.7891731262207,-1.05482201812353,2.5119559343546,1.78772119534738,2168.685,2169.878,2172.142,2173.267,358.269134521484,44.9963226318359,0.694513440132141,-1.03070330619812,-0.443184971809387,0.628835201263428,-1.03525504859546,-0.445441325732794,0.632421154350513,0
2.08000183105469,-1.07735729217529,2.50226068496704,1.80182456970215,-1.07559088172821,2.50301967256038,1.80040857003175,2167.474,2168.284,2169.64,2171.046,358.342498779297,44.9962387084961,0.664545476436615,-1.03668987751007,-0.445742964744568,0.63256961107254,-1.04114485287423,-0.447975543971863,0.636019143875825,0
2.09999847412109,-1.09820556640625,2.49329686164856,1.81454718112946,-1.09646699912883,2.4940372624541,1.8131614643864,2167.358,2167.323,2165.906,2168.493,358.416778564453,44.9961013793945,0.63448965549469,-1.04241621494293,-0.44819176197052,0.636131823062897,-1.04677411523768,-0.450397658303471,0.63945797241075,0
2.12000274658203,-1.11916303634644,2.48428630828857,1.82733857631683,-1.11746110947495,2.48500408327971,1.82598643879021,2163.616,2164.491,2165.901,2167.645,358.490447998047,44.996021270752,0.604295313358307,-1.04788172245026,-0.450529992580414,0.639572203159332,-1.05214490868305,-0.452708560680417,0.64273890631695,0
2.13999938964844,-1.14022469520569,2.4752311706543,1.84019470214844,-1.138551967509,2.47592927627801,1.83887051484687,2163.161,2163.409,2162.597,2164.887,358.565124511719,44.9959182739258,0.573932886123657,-1.0530858039856,-0.452758699655533,0.642805576324463,-1.05725102347782,-0.454905579228273,0.645858152165725,0
2.16000366210938,-1.16138541698456,2.46613359451294,1.85311305522919,-1.15975039167652,2.46680818657414,1.85182030137592,2158.966,2160.491,2163.063,2164.037,358.639526367188,44.9958763122559,0.543301284313202,-1.05802810192108,-0.454877018928528,0.645915627479553,-1.0620943502576,-0.456989527434725,0.648816864916866,0
2.18000030517578,-1.18263959884644,2.45699596405029,1.86608934402466,-1.18103490068612,2.45765005696766,1.86482267579167,2158.682,2159.485,2159.567,2161.155,358.715759277344,44.9957885742188,0.512387335300446,-1.06270682811737,-0.456885397434235,0.648813486099243,-1.06666929835407,-0.458957999791384,0.651611629318345,0
2.19999694824219,-1.20398187637329,2.44782042503357,1.87912106513977,-1.20240821395574,2.44845371736898,1.8778792993441,2155.106,2156.732,2159.326,2160.186,358.792388916016,44.9957580566406,0.481172949075699,-1.06711935997009,-0.45878130197525,0.65158599615097,-1.07097597819164,-0.460811043810786,0.654242512826705,0
2.22000122070313,-1.22540724277496,2.43860912322998,1.89220416545868,-1.22387315175433,2.43921795429519,1.89099189489151,2154.019,2155.196,2156.6,2157.759,358.870849609375,44.9956970214844,0.449520319700241,-1.0712628364563,-0.460563868284225,0.654157936573029,-1.07501419914593,-0.462548577472581,0.656709398992482,0
2.23999786376953,-1.24690985679626,2.42936444282532,1.90533518791199,-1.24540792547886,2.42995214277345,1.90414715211632,2154.318,2154.151,2152.349,2155.196,358.950469970703,44.9955863952637,0.417868673801422,-1.07513248920441,-0.462230056524277,0.656554043292999,-1.07877930973132,-0.464168599372462,0.659009446295705,0
2.26000213623047,-1.26848435401917,2.42008876800537,1.91851162910461,-1.26702351885107,2.42065155681516,1.91735178080271,2150.824,2151.313,2151.961,2154.305,359.029205322266,44.9955444335938,0.386149644851685,-1.07872700691223,-0.463777661323547,0.658820629119873,-1.08227271937422,-0.465671715947234,0.661143515732969,0
2.27999877929688,-1.29012513160706,2.41078495979309,1.93172907829285,-1.28869796983554,2.41132564607061,1.93059236468599,2150.482,2150.173,2148.517,2151.478,359.108459472656,44.9954719543457,0.354360461235046,-1.08204734325409,-0.465208411216736,0.66087281703949,-1.08549040888332,-0.467056197851165,0.663109152043028,0
2.30000305175781,-1.31182706356049,2.40145444869995,1.9449850320816,-1.31044231452835,2.40196966201596,1.94387564554502,2146.172,2147.198,2148.99,2150.674,359.186828613281,44.9954605102539,0.322355896234512,-1.08509397506714,-0.46652227640152,0.662798225879669,-1.08843358680109,-0.468322565086307,0.664907093505606,0
2.31999969482422,-1.33358442783356,2.3921000957489,1.95827507972717,-1.33223444283894,2.39259311800549,1.9571881166705,2145.511,2146.22,2145.889,2147.643,359.266448974609,44.9953956604004,0.290162652730942,-1.08786749839783,-0.467721372842789,0.664501488208771,-1.09109887036509,-0.469469362144493,0.666535273643923,0
2.34000396728516,-1.35539174079895,2.38272404670715,1.97159659862518,-1.35408543512393,2.38319124647132,1.97053654687939,2141.572,2143.435,2145.923,2146.74,359.346221923828,44.9953880310059,0.257747113704681,-1.09036636352539,-0.468803882598877,0.666079103946686,-1.09348726343002,-0.470497020956358,0.667994305697154,0
2.36000061035156,-1.37724351882935,2.3733286857605,1.98494529724121,-1.37597305876702,2.37377361348711,1.98390735461333,2141.83,2142.484,2141.87,2143.735,359.427947998047,44.9953308105469,0.22520349919796,-1.09258878231049,-0.469769716262817,0.667437195777893,-1.09559602313537,-0.471404361345641,0.669282514094601,0
2.37999725341797,-1.39913415908813,2.36391639709473,1.99831867218018,-1.39790005743958,2.36433903852774,1.99730221593832,2138.56,2139.732,2141.219,2142.824,359.509674072266,44.9953193664551,0.192514881491661,-1.09453141689301,-0.470615059137344,0.668668389320374,-1.09742530100382,-0.472191448508328,0.67039999139912,0
2.40000152587891,-1.42105793952942,2.35448956489563,2.01171255111694,-1.4198692197338,2.35488632173988,2.01072283436184,2137.573,2138.101,2138.427,2140.429,359.592559814453,44.9952964782715,0.159528568387032,-1.09619343280792,-0.471340149641037,0.6696937084198,-1.09897493039424,-0.472858210743393,0.671346635812238,0
2.41999816894531,-1.44300949573517,2.34505081176758,2.02512335777283,-1.44185817738692,2.34542508756209,2.02415554546122,2137.747,2137.032,2134.385,2137.805,359.675842285156,44.9952125549316,0.12666942179203,-1.09757208824158,-0.471943140029907,0.670536518096924,-1.10024313330221,-0.473403883025206,0.672121361178802,0
2.44000244140625,-1.46498286724091,2.33560228347778,2.03854846954346,-1.46387808506052,2.33595053645515,2.03760716344514,2133.818,2134.103,2134.406,2137.072,359.757629394531,44.9952163696289,0.0937927961349487,-1.09866762161255,-0.472423195838928,0.671250700950623,-1.10123038958312,-0.473828671822132,0.672724460634977,0
2.45999908447266,-1.48697245121002,2.32614660263062,2.05198335647583,-1.48590651627916,2.32647231790489,2.05106398832971,2133.196,2133.021,2131.364,2134.111,359.839691162109,44.9951705932617,0.0609129667282104,-1.09948360919952,-0.472784012556076,0.671740829944611,-1.10193556692257,-0.474132089930926,0.673155242467576,0
2.48000335693359,-1.50897300243378,2.31668615341187,2.06542539596558,-1.50795464064698,2.31698562594271,2.06453284345182,2128.739,2130.197,2131.95,2133.3,359.920928955078,44.9951934814453,0.0279131922870874,-1.10002028942108,-0.473025232553482,0.672104001045227,-1.10235893238473,-0.47431425226183,0.67341386982192,0
2.5,-1.53097856044769,2.30722284317017,2.07887029647827,-1.52999999932945,2.30750012397766,2.0780000090599,2128.391,2129.126,2128.644,2130.38,0.00359213049523532,44.9951591491699,-0.00516451196745038,-1.10027956962585,-0.473149210214615,0.672246336936951,-1.10250000050292,-0.474374949932098,0.673500046133994,0
2.52000427246094,-1.55298376083374,2.29776000976563,2.09231543540955,-1.55205376834272,2.29801100328223,2.09147231240783,2124.761,2126.528,2128.396,2129.403,0.0863666161894798,44.9951782226563,359.961639404297,-1.10025835037231,-0.473152995109558,0.672257483005524,-1.10235882472314,-0.474314205938057,0.673413804053136,0
2.54000091552734,-1.57498288154602,2.2882993221283,2.10575652122498,-1.57409348237975,2.28852793005043,2.10493602979009,2125.419,2125.454,2124.092,2126.556,0.170741483569145,44.9951400756836,359.928436279297,-1.09995663166046,-0.473036885261536,0.672053515911102,-1.10193556692257,-0.474132089930926,0.673155242467576,0
2.55999755859375,-1.59697031974792,2.27884340286255,2.11919093132019,-1.59612191359838,2.27904971150017,2.11839285467467,2122.237,2122.849,2123.419,2125.621,0.254533231258392,44.9951553344727,359.895141601563,-1.0993709564209,-0.472797155380249,0.671718537807465,-1.10123038958312,-0.473828671822132,0.672724460634977,0
2.58000183105469,-1.61894035339355,2.2693943977356,2.13261461257935,-1.61814182127198,2.26957516039323,2.13184447265859,2121.142,2121.262,2120.881,2123.269,0.33884659409523,44.9951477050781,359.861694335938,-1.09850323200226,-0.472435712814331,0.671179294586182,-1.10024313330221,-0.473403883025206,0.672121361178803,0
2.59999847412109,-1.64088726043701,2.25995564460754,2.14602375030518,-1.64013077892511,2.26011392621545,2.14527718375796,2121.044,2120.237,2117.288,2120.672,0.423045814037323,44.9950942993164,359.828491210938,-1.09735214710236,-0.471951812505722,0.670458197593689,-1.09897493039424,-0.472858210743393,0.671346635812239,0
2.62000274658203,-1.66280579566956,2.25052881240845,2.15941596031189,-1.66209994121933,2.25066120942759,2.15869780218149,2117.115,2117.386,2117.389,2120.062,0.505592942237854,44.9951286315918,359.795349121094,-1.0959187746048,-0.471345275640488,0.669612169265747,-1.09742530100382,-0.472191448508328,0.67039999139912,0
2.63999938964844,-1.68468999862671,2.24111652374268,2.17278671264648,-1.68402693989188,2.24122663446822,2.17209266350648,2116.438,2116.286,2114.62,2117.188,0.588261365890503,44.9951095581055,359.762298583984,-1.09420835971832,-0.470620423555374,0.66854339838028,-1.09559602313537,-0.471404361345641,0.669282514094601,0
2.66000366210938,-1.70653438568115,2.23172092437744,2.18613362312317,-1.70592290617745,2.23180541187802,2.18546856763052,2112.235,2113.65,2115.058,2116.403,0.670129716396332,44.9951553344727,359.729187011719,-1.09222054481506,-0.469776570796967,0.667348682880402,-1.09348640563071,-0.470496651869278,0.667993781680938,0
2.68000030517578,-1.72833347320557,2.22234463691711,2.19945240020752,-1.72776555581996,2.22240712994983,2.19881190144931,2112.153,2112.712,2111.708,2113.471,0.753242373466492,44.9951400756836,359.696166992188,-1.08995854854584,-0.46881639957428,0.665935337543488,-1.09109887036509,-0.469469362144494,0.666535273643922,0
2.69999694824219,-1.75008201599121,2.21298980712891,2.21274042129517,-1.74955768413056,2.21303058593937,2.21212437257479,2108.856,2110.141,2111.242,2112.727,0.836161673069,44.995174407959,359.663146972656,-1.08741891384125,-0.467736542224884,0.664400160312653,-1.08843358680109,-0.468322565086308,0.664907093505606,0
2.72000122070313,-1.77177405357361,2.20365905761719,2.22599363327026,-1.77130202882336,2.20367460188472,2.22540765343382,2108.062,2108.631,2108.594,2110.415,0.920131921768188,44.995189666748,359.630004882813,-1.08460354804993,-0.466538071632385,0.662661254405975,-1.08549040888332,-0.467056197851165,0.663109152043028,0
2.73999786376953,-1.79340410232544,2.19435453414917,2.23920845985413,-1.79297647980783,2.19434869114016,2.23864823731709,2108.698,2107.639,2104.482,2107.904,1.00433766841888,44.9951438903809,359.59716796875,-1.08150994777679,-0.46521869301796,0.660745322704315,-1.08227271937422,-0.465671715947234,0.661143515732969,0
2.76000213623047,-1.81496691703796,2.18507933616638,2.25238251686096,-1.81459207318004,2.18504810518187,2.25185286600349,2105.337,2105.059,2104.155,2107.233,1.08668923377991,44.995174407959,359.564483642578,-1.07813775539398,-0.463777095079422,0.658705413341522,-1.07877930973132,-0.464168599372462,0.659009446295705,0
2.77999877929688,-1.83645677566528,2.1758348941803,2.26551151275635,-1.83612684690458,2.17578229366013,2.2650081232283,2105.055,2103.886,2101.206,2104.598,1.16852200031281,44.995174407959,359.532012939453,-1.07449388504028,-0.462218046188354,0.656454503536224,-1.07501419914593,-0.462548577472581,0.656709398992482,0
2.80000305175781,-1.85786819458008,2.16662406921387,2.27859306335449,-1.85759178470316,2.16654653058634,2.2781207187757,2100.716,2101.465,2101.939,2103.805,1.24866080284119,44.9952430725098,359.499572753906,-1.07057881355286,-0.460541844367981,0.654077589511871,-1.07097597819164,-0.460811043810786,0.654242512826704,0
2.81999969482422,-1.87919628620148,2.15744876861572,2.29162287712097,-1.87896509797278,2.15735019098767,2.29117734232814,2100.283,2100.527,2099.174,2101.043,1.32933878898621,44.9952430725098,359.467315673828,-1.06639885902405,-0.458753496408463,0.651491582393646,-1.06666929835407,-0.458957999791384,0.651611629318345,0
2.84000396728516,-1.90043544769287,2.14831209182739,2.30459856987,-1.90025771011236,2.14818857483073,2.30418466681955,2096.597,2098.133,2099.259,2100.369,1.40953099727631,44.9953002929688,359.435119628906,-1.06195151805878,-0.456850528717041,0.648787677288055,-1.06209255378819,-0.456988754464129,0.648815767481742,0
2.86000061035156,-1.92158007621765,2.13921546936035,2.31751608848572,-1.9214480311499,2.13907097167731,2.31712950327294,2097.255,2097.167,2095.497,2097.664,1.49089467525482,44.9952926635742,359.403137207031,-1.0572407245636,-0.454835027456284,0.645875811576843,-1.05725102347782,-0.454905579228273,0.645858152165725,0
2.87999725341797,-1.94262516498566,2.13016152381897,2.33037304878235,-1.94253888918396,2.12999616467562,2.3300135793296,2094.486,2094.936,2094.758,2096.865,1.5714864730835,44.9953384399414,359.371276855469,-1.05226242542267,-0.452703028917313,0.642843782901764,-1.05214490868305,-0.452708560680416,0.642738906316949,0
2.90000152587891,-1.96356570720673,2.12115240097046,2.34316539764404,-1.96353299953007,2.12096298550123,2.34283855373341,2093.817,2093.502,2092.294,2094.757,1.65220010280609,44.9953689575195,359.339477539063,-1.0470210313797,-0.450457006692886,0.639622569084167,-1.04677411523767,-0.450397658303471,0.63945797241075,0
2.91999816894531,-1.98439598083496,2.11219048500061,2.35589003562927,-1.98440911693069,2.11198057539494,2.35559144808806,2094.012,2092.502,2088.968,2092.488,1.73224520683289,44.9953460693359,359.30810546875,-1.04151606559753,-0.448096454143524,0.636235117912292,-1.04114485287423,-0.447975543971863,0.636019143875825,0
2.94000244140625,-2.00511074066162,2.10327816009521,2.36854457855225,-2.00517798053537,2.10304431360073,2.36827882277243,2090.509,2090.155,2089.063,2091.9,1.81007206439972,44.9953956604004,359.277008056641,-1.03574931621552,-0.445621490478516,0.632729768753052,-1.03525504859546,-0.445441325732794,0.632421154350513,0
2.95999908447266,-2.02570533752441,2.09441709518433,2.38112497329712,-2.02581860575671,2.0941632292003,2.38088785862954,2090.052,2089.183,2086.639,2089.345,1.88726365566254,44.9954223632813,359.246246337891,-1.02972960472107,-0.443037986755371,0.629023671150208,-1.02911152474823,-0.442797939051516,0.628668171500036,0
2.98000335693359,-2.0461745262146,2.08561038970947,2.39362907409668,-2.04634164528706,2.08533273863774,2.39342506322291,2086.014,2086.917,2087.324,2088.801,1.96295392513275,44.9955024719238,359.215667724609,-1.02345669269562,-0.440345674753189,0.625206589698792,-1.02271203275434,-0.440044416427654,0.624758821703072,0
3,-2.0665135383606,2.07685947418213,2.40605282783508,-2.06672639957428,2.07656174835205,2.40587779151916,2086.021,2085.99,2084.514,2086.283,2.03922271728516,44.995532989502,359.185333251953,-1.01693773269653,-0.437549114227295,0.621192276477814,-1.01606400046349,-0.437183953857422,0.620697642517089,0
3.01999664306641,-2.0867166519165,2.06816649436951,2.41839408874512,-2.08697572864857,2.06784902775215,2.41824779066609,2083.015,2083.904,2084.244,2085.649,2.11482882499695,44.9955978393555,359.155151367188,-1.010169506073,-0.434645056724548,0.617067098617554,-1.00916768936771,-0.434216663853534,0.616484793683489,0
3.04000091552734,-2.10677981376648,2.0595338344574,2.4306492805481,-2.10709234004513,2.05919341186127,2.43053671465473,2082.618,2082.776,2081.809,2083.496,2.19097685813904,44.9956283569336,359.125152587891,-1.00315690040588,-0.431636184453964,0.612758278846741,-1.00202309041976,-0.43114254252322,0.612120269675456,0
3.05999755859375,-2.12669801712036,2.05096340179443,2.44281530380249,-2.12705600675913,2.05060360379452,2.44273220712343,2083.314,2081.824,2078.273,2081.48,2.26676845550537,44.99560546875,359.095703125,-0.995898127555847,-0.428520351648331,0.608300745487213,-0.994638524886308,-0.427965170275055,0.607609153824944,0
3.08000183105469,-2.14646577835083,2.04245758056641,2.45489001274109,-2.14687713595163,2.04207512564123,2.45484062564451,2080.521,2079.643,2077.95,2081.014,2.34034395217896,44.9956665039063,359.066589355469,-0.988394141197205,-0.425296604633331,0.603733837604523,-0.987011339258122,-0.424683405378145,0.60294982514457,0
3.09999847412109,-2.16607856750488,2.03401851654053,2.46686959266663,-2.16653584520328,2.033616532251,2.46684982435823,2080.503,2078.791,2075.444,2078.579,2.41278886795044,44.9956970214844,359.037933349609,-0.98065447807312,-0.421970874071121,0.598977446556091,-0.979150439632689,-0.421301079877433,0.598147724230312,0
3.12000274658203,-2.1855320930481,2.02564740180969,2.47875213623047,-2.18604243256806,2.0252233926589,2.47876609418508,2076.852,2076.713,2076.04,2078.169,2.48300743103027,44.9957885742188,359.009552001953,-0.972679555416107,-0.418543338775635,0.594122290611267,-0.971053025860989,-0.417816988947023,0.593201140514831,0
3.13999938964844,-2.20482158660889,2.01734709739685,2.49053382873535,-2.20537738341953,2.01690410346351,2.49057751394429,2076.321,2076.019,2074.078,2075.739,2.55286979675293,44.9958190917969,358.981567382813,-0.964479207992554,-0.415020376443863,0.589081466197968,-0.962728579444533,-0.414235212212131,0.588115866099442,0
3.16000366210938,-2.22394275665283,2.00911903381348,2.50221276283264,-2.22455088103183,2.00865428308644,2.50229030443911,2073.266,2074.046,2074.148,2075.354,2.62174725532532,44.995906829834,358.953857421875,-0.956051707267761,-0.41140028834343,0.583946526050568,-0.954174163352092,-0.410554485950274,0.582890106797601,0
3.18000030517578,-2.24289059638977,2.00096535682678,2.51378536224365,-2.24354380138856,2.00048216005771,2.51389278310636,2073.783,2073.357,2071.259,2072.996,2.69101357460022,44.9959297180176,358.926605224609,-0.947404086589813,-0.407686442136765,0.578631162643433,-0.94539982440085,-0.406779133026206,0.577530000053146,0
3.19999694824219,-2.26166152954102,1.99288785457611,2.52524971961975,-2.2623590635174,1.99238647840124,2.5253867331345,2071.686,2071.55,2070.52,2072.499,2.75917315483093,44.9959907531738,358.899719238281,-0.938532948493958,-0.403875380754471,0.573221564292908,-0.936405971974636,-0.402909329586355,0.572035795952272,0
3.22000122070313,-2.28025007247925,1.98488855361938,2.53660273551941,-2.28099938900442,1.98436606709459,2.53677381709797,2071.301,2070.377,2068.519,2070.82,2.826819896698,44.9960289001465,358.873168945313,-0.929444909095764,-0.399970203638077,0.567653954029083,-0.927192788821982,-0.398945154262308,0.566407606133204,0
3.23999786376953,-2.29865288734436,1.97696900367737,2.54784154891968,-2.29944628156995,1.97642888457015,2.54804273590817,2071.882,2069.726,2065.623,2068.824,2.89324474334717,44.9960327148438,358.847259521484,-0.920141458511353,-0.395971208810806,0.561945855617523,-0.917771149318993,-0.394891285994308,0.560652073582612,0
3.26000213623047,-2.31686568260193,1.96913146972656,2.5589644908905,-2.31770961544581,1.96857068222185,2.55919952157923,2068.925,2067.841,2065.857,2068.592,2.95691728591919,44.9961128234863,358.821807861328,-0.910624623298645,-0.391878724098206,0.556151449680328,-0.90813782126959,-0.39074633405868,0.554767223802352,0
3.27999877929688,-2.33488345146179,1.96137738227844,2.56996822357178,-2.33577134012187,1.96079922667992,2.57023314733618,2068.567,2067.042,2064.135,2066.575,3.01924014091492,44.9961585998535,358.796936035156,-0.900906205177307,-0.387699842453003,0.55019211769104,-0.898304216251578,-0.386515208538549,0.548760027947228,0
3.30000305175781,-2.352703332901,1.95370888710022,2.58085107803345,-2.35364119854729,1.95311032582551,2.58114956499463,2065.413,2065.478,2064.704,2066.094,3.07961463928223,44.996265411377,358.7724609375,-0.890987038612366,-0.383434981107712,0.54414290189743,-0.888267004546666,-0.382196476749158,0.542628451944297,0
3.31999969482422,-2.37032079696655,1.94612693786621,2.59160995483398,-2.37130160722417,1.94551154534655,2.59193803307009,2065.352,2064.744,2062.733,2064.221,3.13968014717102,44.9963188171387,358.748504638672,-0.880876064300537,-0.379089146852493,0.53794276714325,-0.878038122530657,-0.377795274579551,0.536379787539275,0
3.34000396728516,-2.38773202896118,1.93863379955292,2.60224294662476,-2.38876217417054,1.9379987511813,2.60260442095085,2063.047,2063.295,2062.566,2063.733,3.19859457015991,44.9963874816895,358.724975585938,-0.870572149753571,-0.374660551548004,0.531655251979828,-0.867614155697521,-0.373310132863173,0.530011948863706,0
3.36000061035156,-2.40493392944336,1.93123054504395,2.61274743080139,-2.406005803634,1.93057929915441,2.61313828510855,2063.965,2062.7,2059.784,2061.792,3.25729656219482,44.9964141845703,358.702117919922,-0.860082507133484,-0.370152324438095,0.525220394134521,-0.857007552155826,-0.36874640767338,0.523532540272868,0
3.37999725341797,-2.4219217300415,1.92391955852509,2.62312173843384,-2.42303550945299,1.9232518924954,2.62354146665005,2062.051,2061.134,2059.358,2061.541,3.31416416168213,44.9964828491211,358.679718017578,-0.849405288696289,-0.365561902523041,0.518710494041443,-0.846218976345105,-0.364104384899943,0.516941967662506,0
3.40000152587891,-2.43869304656982,1.9167013168335,2.63336300849915,-2.43985407218584,1.9160153348077,2.63381566417506,2061.895,2060.267,2057.688,2060.011,3.36984705924988,44.9965438842773,358.657806396484,-0.838549673557281,-0.360893964767456,0.512063145637512,-0.835248923368004,-0.359384277571698,0.510240533483096,0
3.41999816894531,-2.45524311065674,1.90957880020142,2.6434690952301,-2.45644516534361,1.90887665092339,2.64395090408624,2061.884,2059.706,2055.837,2058.511,3.42367839813232,44.9965782165527,358.636657714844,-0.827518165111542,-0.356149584054947,0.505306899547577,-0.824110582941664,-0.354591760855451,0.503436295127018,0
3.44000244140625,-2.47156953811646,1.90255188941956,2.65343856811523,-2.47281804716281,1.90183185728196,2.6539528420958,2059.587,2058.199,2055.998,2058.337,3.47485280036926,44.9966697692871,358.616088867188,-0.816314816474915,-0.351330518722534,0.49847874045372,-0.812800388649434,-0.349725300221754,0.496527073925997,0
3.45999908447266,-2.48766851425171,1.89562296867371,2.66326880455017,-2.48895692832918,1.89488774758421,2.66381183275806,2059.134,2057.76,2054.838,2056.575,3.52444648742676,44.9967269897461,358.59619140625,-0.804951310157776,-0.346443265676498,0.491514474153519,-0.801332006385299,-0.344790775723006,0.489521218161412,0
3.48000335693359,-2.50353717803955,1.88879334926605,2.67295861244202,-2.50487092366784,1.88804039997555,2.67353344417745,2056.689,2056.392,2055.242,2056.444,3.57215237617493,44.9968338012695,358.576873779297,-0.793428540229797,-0.341488122940063,0.484488427639008,-0.78970183472369,-0.339786637766397,0.482416527778585,0
3.5,-2.51917171478271,1.88206398487091,2.6825053691864,-2.5205447997813,1.88129636896134,2.68310837050915,2057.009,2055.924,2053.467,2054.812,3.61922240257263,44.996883392334,358.558227539063,-0.781756460666656,-0.336469918489456,0.477335155010223,-0.777924000354857,-0.334718964672089,0.475221632552147,0
3.51999664306641,-2.53457093238831,1.87543606758118,2.69190764427185,-2.53598168290031,1.87465430941181,2.69253852151874,2055.447,2054.839,2053.149,2054.488,3.66473293304443,44.9969520568848,358.540191650391,-0.769934296607971,-0.331386923789978,0.470118880271912,-0.765999459475408,-0.329588167864767,0.467937116607681,0
3.54000091552734,-2.54973030090332,1.8689112663269,2.70116376876831,-2.55118444594166,1.86811298519115,2.70182565222626,2055.249,2054.026,2051.869,2053.49,3.70923542976379,44.9970283508301,358.522735595703,-0.757969677448273,-0.326242536306381,0.4628005027771,-0.753929052770513,-0.324394609067776,0.460563493506644,0
3.55999755859375,-2.56464743614197,1.86249077320099,2.71027159690857,-2.56613872308604,1.86167857751006,2.71096098677687,2056.15,2053.707,2049.656,2052.068,3.75225067138672,44.9970550537109,358.506103515625,-0.745866060256958,-0.32103767991066,0.455385863780975,-0.741727567798258,-0.319144650954242,0.45310979673751,0
3.58000183105469,-2.57931995391846,1.85617542266846,2.71922993659973,-2.58085326729328,1.85534732021446,2.71994987221714,2054.529,2052.54,2049.6,2052.027,3.79241013526917,44.997142791748,358.490203857422,-0.733625948429108,-0.315772503614426,0.447922050952911,-0.729391385793765,-0.313836736470737,0.44557381565329,0
3.59999847412109,-2.593745470047,1.84996616840363,2.72803688049316,-2.59531431270705,1.84912513636775,2.72878389920025,2054.531,2052.163,2048.473,2050.658,3.8304009437561,44.9972038269043,358.47509765625,-0.721261560916901,-0.310453712940216,0.440351337194443,-0.716935713767317,-0.308477408768949,0.437964839979262,0
3.62000274658203,-2.60792064666748,1.84386444091797,2.73669147491455,-2.60953046793176,1.84300832192796,2.73746832658829,2052.221,2051.142,2049.23,2050.62,3.86573004722595,44.9973258972168,358.460662841797,-0.708775877952576,-0.305082857608795,0.432735562324524,-0.704356955827444,-0.303065120637236,0.430280673041441,0
3.63999938964844,-2.62184453010559,1.8378711938858,2.74519181251526,-2.6234885835008,1.83700253474321,2.74599512157732,2052.361,2050.959,2048.093,2049.219,3.899742603302,44.9973945617676,358.447021484375,-0.696180462837219,-0.29966613650322,0.425019413232803,-0.691670720740692,-0.297606588091786,0.422530849991739,0
3.66000366210938,-2.6355140209198,1.83198690414429,2.75353717803955,-2.63719712493647,1.83110413233575,2.75436945562281,2050.675,2049.928,2048.349,2049.369,3.93187832832336,44.9974937438965,358.43408203125,-0.68347579240799,-0.294202834367752,0.417270749807358,-0.678873453515702,-0.29210028151913,0.414713199141411,0
3.68000030517578,-2.64892721176147,1.82621335983276,2.76172566413879,-2.65064357486757,1.82531850058072,2.762583682058,2051.46,2049.858,2046.732,2047.965,3.96299266815186,44.9975395202637,358.421966552734,-0.670672297477722,-0.28869765996933,0.409424901008606,-0.665981146317811,-0.286553081901244,0.406837489854705,0
3.69999694824219,-2.66208291053772,1.82055044174194,2.76975679397583,-2.66383127580226,1.81964420129024,2.77063984276899,2050.644,2048.949,2046.342,2048.071,3.99202919006348,44.9976234436035,358.410614013672,-0.657769560813904,-0.283148944377899,0.401552617549896,-0.65299527533123,-0.280965624398954,0.398904623909523,0
