t,x_s1,x_s2,x_s3,x_s_d1,x_s_d2,x_s_d3,propellers_rpms1,propellers_rpms2,propellers_rpms3,propellers_rpms4,rollRad,pitchRad,yawRad,v_s1,v_s2,v_s3,v_s_d1,v_s_d2,v_s_d3,insideCount
0,-0.0599999986588955,2.94000005722046,1.17999994754791,-0.0599999986588955,2.94000005722046,1.17999994754791,0,0,0,0,0,0,0,0,0,0,-1.06581410364015E-15,4.44089209850063E-16,4.44089209850063E-16,0
0.0200042724609375,-0.0599999986588955,2.94000005722046,1.1771354675293,-0.0600018701838461,2.93999925195556,1.18000110611101,0,0,0,0,0.0163538,-0.002474609,-2.024222E-05,3.71994488546079E-08,3.50004931704007E-08,-0.143225952982903,-0.000280105751305916,-0.000120521679537258,0.00017339880334547,5
0.0400009155273438,-0.0599999986588955,2.94000005722046,1.17048275470734,-0.0600148724204753,2.93999365745638,1.18000915511487,0,0,0,0,0.03270752,-0.004950816,-5.430172E-05,3.62924410524101E-08,3.44428769949445E-08,-0.332637369632721,-0.00111101934050116,-0.00047804058392963,0.00068777389696065,6
0.05999755859375,-0.0600004345178604,2.94013261795044,1.16416549682617,-0.0600498857373401,2.93997859220429,1.18003083002592,3185.294,2835.729,1501.222,2767.702,0.03128104,-0.00494336,-0.01646952,-2.17781216633739E-05,0.00662215612828732,-0.315863788127899,-0.00247936261166862,-0.00106680046642749,0.00153484356504269,6
0.0800018310546875,-0.0599162168800831,2.94038772583008,1.15857708454132,-0.0601175574246769,2.93994947496775,1.18007272202403,3065.848,3067.256,2154.955,2024.034,0.01897721,-0.004311125,-0.04351499,0.00421080132946372,0.0127502083778381,-0.279418706893921,-0.00437268608126799,-0.00188144466206175,0.00270690098422899,6
0.0999984741210938,-0.0596375465393066,2.94068765640259,1.15374851226807,-0.0602281887669101,2.93990187339187,1.18014120809498,2640.473,3831.823,2620.119,1134.714,-0.00585203,-0.002888465,-0.07014553,0.0139334872364998,0.0149984881281853,-0.241429686546326,-0.00677637982016689,-0.00291568692648091,0.00419490191241918,6
0.120002746582031,-0.0590848848223686,2.94089889526367,1.14957022666931,-0.0603919599823235,2.93983140721312,1.18024259027882,2092.018,4101.972,3169.428,756.0368,-0.04011839,-0.0004511395,-0.08993602,0.0276330504566431,0.0105626471340656,-0.208912879228592,-0.00967921398219614,-0.00416469537060396,0.00599189453988277,5
0.139999389648438,-0.0582314543426037,2.94085621833801,1.14596676826477,-0.0606185767455666,2.93973390035084,1.18038287685052,1510.425,4074.802,3735.771,701.906,-0.07649291,0.002388211,-0.09949889,0.0426716133952141,-0.00212919153273106,-0.180172756314278,-0.0130660253322238,-0.00562194567796536,0.00808849210174802,4
0.160003662109375,-0.0570994131267071,2.94039487838745,1.14297807216644,-0.0609177895434042,2.93960515744296,1.18056810382587,1134.944,3847.043,4069.937,880.0151,-0.1062798,0.004335424,-0.09870101,0.0566021203994751,-0.0230672769248486,-0.14943565428257,-0.0169265510445065,-0.00728302204135792,0.0104783414199936,4
0.180000305175781,-0.0557376779615879,2.93938803672791,1.14071130752563,-0.0612986871007165,2.9394412678651,1.18080389755851,1101.119,3565.244,4009.926,1148.888,-0.1236309,0.004492115,-0.09000099,0.0680868327617645,-0.0503397770226002,-0.113341093063354,-0.0212451141043368,-0.00914117907931815,0.0131517376757159,3
0.200004577636719,-0.0541964173316956,2.9377772808075,1.13924860954285,-0.0617706280683152,2.93923820485124,1.18109605149912,1373.078,3339.753,3594.954,1386.339,-0.127877,0.003023012,-0.07724871,0.0770631209015846,-0.0805355086922646,-0.073135182261467,-0.026012379510746,-0.0111924002017188,0.0161029020586274,3
0.220001220703125,-0.0525141656398773,2.93557620048523,1.1385840177536,-0.0623420644491781,2.93899233174064,1.18144979784016,1791.047,3212.792,3016.823,1527.109,-0.1229768,0.0008610339,-0.06426048,0.0841126143932343,-0.110051684081554,-0.0332279354333878,-0.03121219533433,-0.0134297356845702,0.019321835755004,3
0.239997863769531,-0.0507194995880127,2.93284702301025,1.13860702514648,-0.0630217183703222,2.93869989564571,1.18187053599376,2159.024,3168.633,2517.413,1558.487,-0.1149671,-0.0009880328,-0.05362062,0.089733362197876,-0.136453047394753,0.00114891305565834,-0.0368338920540454,-0.0158485947310391,0.02280193382306,3
0.260002136230469,-0.0488371811807156,2.92966485023499,1.13913786411285,-0.0638182299684225,2.938357178957,1.18236361461609,2351.865,3158.954,2273.926,1495.985,-0.1090495,-0.001904693,-0.04623514,0.0941158682107925,-0.159107804298401,0.0265398640185595,-0.0428675524613532,-0.0184447102433459,0.0265370570382875,3
0.279998779296875,-0.0468916594982147,2.92608761787415,1.13999629020691,-0.0647390625194898,2.93796097043536,1.18293365383054,2352.977,3152.299,2323.981,1363.504,-0.1078133,-0.001745436,-0.04152188,0.0972762033343315,-0.178862392902374,0.0429193153977394,-0.0492963837173861,-0.0212108567320638,0.030516809833474,3
0.300003051757813,-0.0449086427688599,2.92214369773865,1.14106225967407,-0.0657927507678135,2.93750759781875,1.18358593705038,2229.031,3144.135,2572.828,1194.467,-0.1110868,-0.000737163,-0.03798467,0.0991509184241295,-0.197190523147583,0.0532957352697849,-0.0561132031658829,-0.0241439437008635,0.0347367458022363,3
0.319999694824219,-0.0429168120026588,2.91783547401428,1.14229428768158,-0.0669860785243584,2.93699414222283,1.18432466377777,2074.287,3132.455,2873.054,1032.639,-0.1169309,0.0006857582,-0.03398087,0.0995914414525032,-0.215406253933907,0.0616029798984528,-0.0633008373176985,-0.0272365818771378,0.0391862337367069,3
0.340003967285156,-0.0409488156437874,2.91315102577209,1.1437075138092,-0.0683273092598492,2.93641704810699,1.18515494949472,1954.945,3107.528,3109.516,921.4756,-0.1228442,0.002069718,-0.02837438,0.0983999073505402,-0.234222948551178,0.0706627517938614,-0.0708528993697216,-0.0304860231979345,0.0438613199015142,3
0.360000610351563,-0.0390400514006615,2.90807723999023,1.14534366130829,-0.0698225328270578,2.93577369517774,1.1860805641102,1904.913,3065.488,3222.118,880.9443,-0.1267089,0.003092655,-0.02087226,0.0954381823539734,-0.253692835569382,0.0818065032362938,-0.0787518717320621,-0.0338847303337087,0.0487511600740379,3
0.379997253417969,-0.0372255742549896,2.90261030197144,1.14724361896515,-0.0714791088463715,2.935060916796,1.18710606357981,1923.574,3021.495,3207.434,895.7112,-0.1274232,0.003642372,-0.01188356,0.0907241255044937,-0.273341476917267,0.0949976742267609,-0.0869889214763108,-0.0374289027221294,0.0538502862508218,3
0.400001525878906,-0.0355371572077274,2.89676117897034,1.14943158626556,-0.0733044112230977,2.93427554017634,1.18823601270221,1991.075,2988.804,3098.871,939.6793,-0.1250381,0.003791008,-0.002208826,0.0844209343194962,-0.292451024055481,0.109401375055313,-0.0955558400788823,-0.0411150084648172,0.0591536169647403,3
0.419998168945313,-0.0340018793940544,2.89055466651917,1.15190613269806,-0.0753034649285836,2.93341540321397,1.18947352217404,2072.78,2974.725,2953.075,986.3281,-0.1205016,0.003707334,0.007337537,0.0767639875411987,-0.310325711965561,0.123724967241287,-0.104434660908044,-0.0449353170220673,0.0646500300148815,3
0.44000244140625,-0.0326424427330494,2.88402462005615,1.15464186668396,-0.077483988232608,2.93247718495301,1.19082336997196,2136.168,2972.974,2825.494,1022.969,-0.1150773,0.003563914,0.01615199,0.0679718405008316,-0.326506912708282,0.136786893010139,-0.113620829717891,-0.048887868829098,0.0703367061060819,4
0.459999084472656,-0.0314783006906509,2.8772075176239,1.1576019525528,-0.0798502821969742,2.93145903476675,1.19228821865812,2168.582,2977.358,2748.463,1039.672,-0.109866,0.003474506,0.02394281,0.0582068599760532,-0.340851366519928,0.148004159331322,-0.123096124252221,-0.0529648233581361,0.0762023647937057,4
0.480003356933594,-0.0305266454815865,2.87013840675354,1.16074788570404,-0.0824098964715798,2.93035770425173,1.19387274182544,2167.945,2984.54,2733.035,1032.125,-0.1055443,0.00348183,0.03074937,0.0475827008485794,-0.353457808494568,0.157299622893333,-0.132856662250146,-0.057164510180779,0.0822446027733248,4
0.5,-0.0298035331070423,2.86284685134888,1.16405248641968,-0.085166398670376,2.92917165836334,1.1955791479969,2146.986,2989.018,2762.47,1009.94,-0.102267,0.003568782,0.03679401,0.0361557379364967,-0.364583134651184,0.16522778570652,-0.142884000065179,-0.0614789935111996,0.0884520025491718,4
0.520004272460938,-0.0293242428451777,2.8553569316864,1.16749930381775,-0.088127196023106,2.92789770997757,1.19741202260058,2116.485,2993.12,2817.608,976.8941,-0.09984404,0.003686364,0.04241349,0.0239646472036839,-0.3744937479496,0.172338023781776,-0.153174893518032,-0.065906877469682,0.0948225558197254,4
0.540000915527344,-0.0291039980947971,2.84768843650818,1.17108619213104,-0.0912951145137283,2.92653464315245,1.19937311505516,2089.288,2991.245,2870.405,952.1959,-0.09782483,0.003777025,0.04785612,0.0110123874619603,-0.383425891399384,0.179342016577721,-0.163710711144578,-0.0704401454577151,0.101344728821151,4
0.55999755859375,-0.0291574597358704,2.83985829353333,1.17481625080109,-0.094676112580471,2.92507989413848,1.20146611391775,2070.591,2989.786,2909.483,933.0461,-0.09579444,0.00379556,0.05329918,-0.00267355516552925,-0.391503721475601,0.186505705118179,-0.17448465888317,-0.0750758741803766,0.108014315705644,5
0.580001831054688,-0.0294989198446274,2.83188271522522,1.17869877815247,-0.0982762614093182,2.92353085067394,1.20369477754168,2063.539,2984.668,2921.782,932.9191,-0.09338321,0.003717737,0.05873702,-0.0170725677162409,-0.398783445358276,0.194123536348343,-0.185490414529404,-0.0798113433697334,0.11482740272751,5
0.599998474121094,-0.0301411636173725,2.82377815246582,1.18273985385895,-0.102097262171133,2.92188678079254,1.20606015903275,2067.507,2985.438,2912.224,936.7388,-0.09050167,0.003537771,0.06411411,-0.0321124643087387,-0.405233979225159,0.202051132917404,-0.196709126405959,-0.0846384416756885,0.121772319800455,5
0.620002746582031,-0.0310954637825489,2.8155620098114,1.18694233894348,-0.106146271928021,2.92014460501038,1.20856668895334,2073.987,2986.125,2887.244,953.002,-0.08717485,0.003272253,0.06929249,-0.0477152466773987,-0.41080704331398,0.210124582052231,-0.208139001499973,-0.0895563976148993,0.128847956964108,5
0.639999389648438,-0.0323712378740311,2.80725288391113,1.19130551815033,-0.110424235525481,2.91830391678686,1.21121495220784,2083.291,2991.685,2854.737,968.8978,-0.08359449,0.002940795,0.07414668,-0.0637879148125648,-0.415459007024765,0.218158811330795,-0.219761081350814,-0.0945570538913933,0.136042578028218,5
0.660003662109375,-0.0339757390320301,2.79886960983276,1.19582271575928,-0.114938248900541,2.91636166293851,1.21400934151928,2087.573,2999.519,2827.567,982.2035,-0.08000881,0.002566435,0.07860348,-0.0802256092429161,-0.419169217348099,0.225861459970474,-0.231574097577923,-0.0996398647564507,0.143355397804799,5
0.680000305175781,-0.0359148867428303,2.79043006896973,1.20048809051514,-0.119688496929273,2.91431776391831,1.21694997133476,2088.065,3006.609,2805.536,995.9181,-0.07659943,0.002169124,0.08260489,-0.0969575121998787,-0.421972930431366,0.233265981078148,-0.243559016194652,-0.104796640417365,0.150774633349401,6
0.700004577636719,-0.0381926782429218,2.7819516658783,1.20529103279114,-0.124682034788652,2.91216918408072,1.22004120914491,2083.125,3016.1,2799.061,997.4965,-0.07355757,0.001758686,0.08620092,-0.113889433443546,-0.423919796943665,0.240146994590759,-0.255715062526221,-0.110027047553219,0.158299805101433,6
0.720001220703125,-0.0408126153051853,2.77344942092896,1.21022748947144,-0.129918284978346,2.90991617190799,1.22328269744952,2075.016,3020.175,2795.984,1005.823,-0.07086992,0.00134599,0.08939561,-0.130996808409691,-0.425112336874008,0.246824979782104,-0.268023157655716,-0.11532287703907,0.16591910230247,6
0.739997863769531,-0.0437766201794147,2.76493692398071,1.21528887748718,-0.135402141159277,2.90755662179454,1.22667746565781,2066.241,3028.232,2806.293,997.3604,-0.06860516,0.0009271305,0.09230983,-0.148200049996376,-0.425628304481506,0.253071159124374,-0.280478211503383,-0.120681938755799,0.173629373950669,6
0.760002136230469,-0.0470868982374668,2.75642538070679,1.2204761505127,-0.14113868194985,2.90508834855275,1.23022865767651,2056.112,3027.77,2810.612,1006.184,-0.06658062,0.0005102872,0.09493518,-0.165514349937439,-0.425581187009811,0.259366124868393,-0.293075466693575,-0.12610218573757,0.181427675003881,6
0.779998779296875,-0.0507442094385624,2.7479248046875,1.22578465938568,-0.147126184485884,2.90251209348295,1.23393520697061,2052.138,3035.317,2820.401,994.5856,-0.0648469,8.190967E-05,0.09738541,-0.182865917682648,-0.425032198429108,0.265428006649017,-0.305795832832518,-0.131575403921268,0.189302187598958,6
0.800003051757813,-0.0547496117651463,2.73944354057312,1.23121666908264,-0.153371683173492,2.89982482987671,1.2378014681726,2043.968,3033.063,2821.652,1006.353,-0.06321013,-0.000344613,0.09961867,-0.200269713997841,-0.424065113067627,0.271598517894745,-0.318639638509124,-0.13710173468952,0.197253115148089,6
0.819999694824219,-0.0591029115021229,2.73098921775818,1.23676991462708,-0.159872691993147,2.89702762739878,1.24182590231796,2044.367,3039.184,2822.937,1000.398,-0.06172994,-0.0007792409,0.1016901,-0.217665284872055,-0.422719329595566,0.27766364812851,-0.331587821991737,-0.142672976311719,0.205268657531342,6
0.840003967285156,-0.0638037919998169,2.72256827354431,1.24244523048401,-0.166636266402775,2.89411745028271,1.24601287707125,2040.547,3039.223,2818.543,1010.747,-0.06032166,-0.001210673,0.1035562,-0.235044315457344,-0.421047687530518,0.283763408660889,-0.344641102544584,-0.148289438267168,0.213349260007538,6
0.860000610351563,-0.068850964307785,2.714186668396,1.24824070930481,-0.173659158941841,2.89109569582005,1.2503603820997,2042.23,3044.632,2813.647,1010.366,-0.05906092,-0.00164104,0.1052326,-0.252358555793762,-0.4190833568573,0.289772480726242,-0.357780475378537,-0.153942943326036,0.221483157706883,6
0.879997253417969,-0.0742425322532654,2.70584940910339,1.25415408611298,-0.180945630646592,2.88796053060595,1.25487105518773,2039.804,3046.861,2809.484,1016.669,-0.05795198,-0.002060754,0.1067034,-0.269578784704208,-0.416868388652802,0.295668601989746,-0.371001963495383,-0.159631780297098,0.229667888678032,6
0.900001525878906,-0.0799760967493057,2.69756054878235,1.26018357276917,-0.188500167066783,2.88471002463366,1.2595476731043,2039.512,3050.489,2805.523,1019.465,-0.05703266,-0.002465555,0.107969,-0.286678314208984,-0.414445012807846,0.301473170518875,-0.384301823631742,-0.165354338558695,0.237901135662636,7
0.919998168945313,-0.0860486179590225,2.68932342529297,1.26632654666901,-0.196318384305134,2.8813460641717,1.26438752200817,2039.065,3054.64,2803.812,1019.782,-0.05635142,-0.002853843,0.1090472,-0.30362594127655,-0.411858767271042,0.307145982980728,-0.397661187980262,-0.171102499820431,0.246171218589148,7
0.94000244140625,-0.0924565345048904,2.68114018440247,1.27257919311523,-0.204407453948074,2.87786556348678,1.26939504145298,2035.618,3056.588,2807.058,1020.608,-0.05591094,-0.003219229,0.109958,-0.320395439863205,-0.409157872200012,0.312634736299515,-0.411081631631503,-0.176876941799768,0.254479112513653,7
0.959999084472656,-0.0991963595151901,2.67301225662231,1.27894186973572,-0.212762239776093,2.87427073255068,1.27456705187416,2034.706,3058.348,2807.777,1022.333,-0.0556803,-0.003558516,0.1107032,-0.336991757154465,-0.406396299600601,0.318131417036057,-0.424544411524882,-0.18266959988136,0.262813214588797,7
0.980003356933594,-0.106263712048531,2.66494011878967,1.28540945053101,-0.221389982382338,2.87055845593844,1.2799080355438,2033.074,3061.365,2816.997,1014.728,-0.05570268,-0.003875432,0.1113463,-0.353368282318115,-0.403612196445465,0.323378175497055,-0.438051398499298,-0.18848127903492,0.271174682952979,7
1,-0.11365519464016,2.65692281723022,1.29198598861694,-0.230284798736574,2.86673126495361,1.28541435058594,2031.572,3059.913,2816.353,1022.622,-0.05584702,-0.00415826,0.1118432,-0.369573384523392,-0.400863766670227,0.32882884144783,-0.451584000205995,-0.194303979492187,0.279552008056641,7
1.02000427246094,-0.121365651488304,2.64895939826965,1.29866421222687,-0.239454009753966,2.86278600961093,1.2910905289958,2033.084,3064.898,2829.798,1005.895,-0.05624277,-0.004424576,0.1123024,-0.385523527860641,-0.39816826581955,0.333908885717392,-0.465144357597929,-0.200138622445408,0.287946515251652,7
1.04000091552734,-0.129392072558403,2.64104771614075,1.30545282363892,-0.24889099213045,2.8587255397331,1.29693247063265,2030.931,3059.953,2824.122,1024.022,-0.0566481,-0.004648814,0.1126101,-0.401321262121201,-0.395587265491486,0.33943173289299,-0.478714054341683,-0.205977283860805,0.296346803950333,7
1.05999755859375,-0.137728542089462,2.63318562507629,1.31234014034271,-0.258599401509697,2.85454828239877,1.30294243851408,2036.623,3068.554,2842.073,994.9619,-0.05733892,-0.004865062,0.1129405,-0.416823416948318,-0.393110007047653,0.344365119934082,-0.492290296490434,-0.211818761581115,0.30475114456651,7
1.08000183105469,-0.146372601389885,2.62536954879761,1.31934034824371,-0.268583149539609,2.85025255453512,1.30912285413647,2031.663,3058.819,2830.472,1027.78,-0.05791683,-0.005028048,0.1130894,-0.432203084230423,-0.390808045864105,0.350008636713028,-0.50587040849135,-0.217661904390701,0.313157880805523,7
1.09999847412109,-0.155317559838295,2.61759662628174,1.32643735408783,-0.278834517009062,2.84584167750307,1.31546893894041,2044.321,3073.417,2851.679,982.4689,-0.05886278,-0.005195827,0.1133163,-0.447248935699463,-0.388642758131027,0.354851186275482,-0.519436284009554,-0.223498921639497,0.321555803983559,7
1.12000274658203,-0.164561450481415,2.60986256599426,1.33364880084991,-0.289361068555186,2.84131239645058,1.32198537579665,2033.952,3058.56,2837.135,1029.797,-0.05961699,-0.005298092,0.1133392,-0.4621941447258,-0.386701226234436,0.360570162534714,-0.532990631455731,-0.229330978680957,0.329946590735853,8
1.13999938964844,-0.174096971750259,2.60216426849365,1.34095466136932,-0.300154365346813,2.83666834237095,1.3286669406667,2050.7,3076.587,2864.181,971.3272,-0.06079464,-0.005413141,0.1134868,-0.476775676012039,-0.38492026925087,0.365291148424149,-0.546515580872639,-0.235150386571708,0.338319178707607,8
1.16000366210938,-0.183922842144966,2.59449625015259,1.34837782382965,-0.311222084148811,2.83190621216671,1.33551838583369,2037.813,3058.042,2845.086,1030.673,-0.06169053,-0.005452556,0.1134057,-0.491294324398041,-0.38340550661087,0.371155679225922,-0.560014026276883,-0.240958390526247,0.34667535943296,8
1.18000030517578,-0.194031044840813,2.58685493469238,1.35589230060577,-0.322555076427271,2.82702994219644,1.34253404791935,2058.561,3080.398,2880.315,955.6061,-0.06308975,-0.005517005,0.113518,-0.505410313606262,-0.382063210010529,0.375726878643036,-0.573468357077025,-0.246747413199059,0.355004231116904,8
1.19999694824219,-0.204421535134315,2.57923436164856,1.36352896690369,-0.334156660511822,2.8220381046756,1.34971598112778,2041.497,3056.073,2853.775,1033.856,-0.0640682,-0.005493036,0.1133586,-0.519524335861206,-0.381028801202774,0.381833225488663,-0.58687652428584,-0.252516572968185,0.36330452533874,8
1.22000122070313,-0.215085104107857,2.57163119316101,1.37125253677368,-0.346030421585499,2.81692915700008,1.35706640485806,2067.431,3084.473,2901.314,934.6971,-0.06565864,-0.005512743,0.1134867,-0.533177971839905,-0.380159467458725,0.38617792725563,-0.600236516861372,-0.258265004538453,0.371574997167698,8
1.23999786376953,-0.226023852825165,2.56403827667236,1.37910807132721,-0.358166167196084,2.81170748469733,1.36457900949675,2046.625,3052.658,2857.653,1043.371,-0.06661631,-0.005424859,0.1132513,-0.546938121318817,-0.379645526409149,0.392778128385544,-0.613531154887641,-0.263985315871967,0.379805011417393,8
1.26000213623047,-0.237226247787476,2.55645322799683,1.3870415687561,-0.370571882958536,2.80636965178032,1.3722587385199,2079.993,3092.208,2927.232,901.8416,-0.06843632,-0.005414207,0.1134635,-0.560117661952972,-0.379257321357727,0.396674066781998,-0.626763698705669,-0.269678909802388,0.38799658639423,8
1.27999877929688,-0.248697862029076,2.54886746406555,1.39512157440186,-0.383236695417198,2.80092033679326,1.3800988607405,2047.21,3043.864,2857.413,1068.36,-0.0692342,-0.005253884,0.1131313,-0.573582887649536,-0.379288345575333,0.404001504182816,-0.639917282339435,-0.275338529371412,0.396139281255613,8
1.30000305175781,-0.260423481464386,2.5412802696228,1.40326607227325,-0.396168722856641,2.79535604666509,1.38810440176341,2098.142,3104.431,2958.653,853.6223,-0.07131519,-0.005227785,0.1134863,-0.586279928684235,-0.379365205764771,0.407226324081421,-0.652995275331231,-0.280965624398954,0.404235181908735,8
1.31999969482422,-0.27241387963295,2.5336811542511,1.41157805919647,-0.409356423791328,2.7896817473746,1.39626821685929,2044.88,3030.917,2849.714,1109.218,-0.07181799,-0.004989166,0.1130224,-0.59952175617218,-0.37995108962059,0.415602028369904,-0.665981146317813,-0.286553081901244,0.412274054652251,8
1.34000396728516,-0.284648060798645,2.52607202529907,1.41993367671967,-0.422808053134535,2.78389388706324,1.40459541621271,2121.348,3122.326,2998.128,786.2184,-0.07424413,-0.004967861,0.1135943,-0.611707508563995,-0.38045209646225,0.417783707380295,-0.678878353700697,-0.292102389931837,0.420258040401443,8
1.36000061035156,-0.297144412994385,2.51844000816345,1.42848706245422,-0.436511415158101,2.77799771321212,1.41307845008695,2037.069,3011.4,2831.173,1174.41,-0.0742761,-0.004637629,0.1129329,-0.62481951713562,-0.381598562002182,0.427666813135147,-0.691670720740693,-0.297606588091785,0.42817712498415,9
1.37999725341797,-0.309873193502426,2.51079082489014,1.43705189228058,-0.450469530727146,2.77199192602736,1.42171918854144,2151.695,3148.655,3049.979,689.7863,-0.07719758,-0.004646684,0.1138225,-0.63643741607666,-0.382457822561264,0.428241789340973,-0.704356955827446,-0.303065120637236,0.436030508832034,9
1.40000152587891,-0.322864055633545,2.50310730934143,1.44585740566254,-0.464685685951852,2.76587511158757,1.43051966583492,2019.583,2981.575,2798.179,1275.705,-0.07650836,-0.004201403,0.112862,-0.649543166160583,-0.384173363447189,0.440278708934784,-0.716935713767318,-0.308477408768949,0.443817359206152,9
1.41999816894531,-0.336074262857437,2.49540138244629,1.45462799072266,-0.47914673136562,2.75965292774086,1.43947174182117,2193.966,3187.867,3116.687,551.9249,-0.0801473,-0.004275972,0.1142012,-0.660510361194611,-0.385301649570465,0.438528925180435,-0.729391385793766,-0.313836736470737,0.451528013536465,9
1.44000244140625,-0.349549651145935,2.4876492023468,1.46370005607605,-0.493861275572861,2.75332167044526,1.4485807456364,1989.838,2939.283,2743.054,1425.755,-0.07844554,-0.00368475,0.1128027,-0.673768579959869,-0.387607246637344,0.453603506088257,-0.741727567798258,-0.319144650954242,0.459164697851088,9
1.45999908447266,-0.363228350877762,2.47987151145935,1.4726665019989,-0.508815552717244,2.74688726276417,1.45783815555978,2247.28,3242.596,3210.595,357.3244,-0.08313271,-0.003868508,0.1147883,-0.683936238288879,-0.388881832361221,0.448324799537659,-0.753929052770513,-0.324394609067776,0.466717998286247,9
1.48000335693359,-0.377180278301239,2.47203493118286,1.48202502727509,-0.524018315758597,2.74034593854351,1.46724939009041,1941.677,2877.114,2652.888,1652.307,-0.07991613,-0.003072223,0.112718,-0.697600245475769,-0.391832590103149,0.467929363250732,-0.765999459475408,-0.329588167864767,0.474190155029787,9
1.5,-0.391314834356308,2.46417331695557,1.49117112159729,-0.539455198877605,2.73370387899399,1.4768055561018,2322.24,3325.237,3343.729,69.16074,-0.08619853,-0.003432815,0.1156643,-0.706726431846619,-0.393081724643707,0.457305610179901,-0.777924000354858,-0.334718964672088,0.481572013878822,9
1.52000427246094,-0.405738294124603,2.45623755455017,1.50084483623505,-0.555135099954955,2.72695725560613,1.48651216180595,1862.014,2784.515,2508.041,2000.066,-0.08071402,-0.002332397,0.1125711,-0.721172392368317,-0.396785616874695,0.483688294887543,-0.789706299681991,-0.339788558913217,0.48886581843107,9
1.54000091552734,-0.420330822467804,2.44827127456665,1.51027595996857,-0.571043070329722,2.72011250037111,1.49635995326965,2146.241,3663.377,3253.31,0,-0.08706779,-0.001793905,0.1174754,-0.729628145694733,-0.39831069111824,0.471556603908539,-0.801332006385301,-0.344790775723006,0.496062684689629,9
1.55999755859375,-0.435210645198822,2.44022798538208,1.52022624015808,-0.587181951496087,2.71316839067337,1.50635068951315,1931.024,2596.736,2430.311,2206.023,-0.08061229,0.0002063821,0.1139018,-0.74398946762085,-0.402159512042999,0.497515082359314,-0.812800388649436,-0.349725300221754,0.503162159625937,9
1.58000183105469,-0.45025235414505,2.43215703964233,1.52990853786469,-0.60355483331529,2.70612359703193,1.51648628330776,2181.101,3663.939,3229.889,0,-0.08679189,0.001603041,0.1181484,-0.752086758613586,-0.403553187847137,0.484114348888397,-0.824110582941666,-0.354591760855452,0.510163708672098,9
1.59999847412109,-0.465573132038116,2.42401552200317,1.54008555412292,-0.620145926473056,2.69898491314762,1.52675696031579,2034.554,2531.423,2462.662,2149.238,-0.08087168,0.004155287,0.1133803,-0.766034662723541,-0.407080471515656,0.508851885795593,-0.835248923368005,-0.359384277571697,0.517058871988737,9
1.62000274658203,-0.481049776077271,2.41584777832031,1.55001962184906,-0.636964489205914,2.69174835545992,1.53716845182668,2174.802,3702.456,3213.403,0,-0.08750615,0.006149864,0.1166586,-0.773834586143494,-0.408392816781998,0.496705055236816,-0.846218976345106,-0.364104384899943,0.523849857357655,9
1.63999938964844,-0.496783882379532,2.40761470794678,1.56037366390228,-0.653994195024907,2.68442094880091,1.54771065096602,2111.651,2518.056,2603.334,1947.966,-0.08360941,0.008893318,0.1115821,-0.786707520484924,-0.411655992269516,0.517705023288727,-0.857007552155828,-0.368746407673381,0.530528499715628,9
1.66000366210938,-0.512668013572693,2.39935231208801,1.5705144405365,-0.671244443874359,2.67699864863716,1.55838937674714,2228.208,3581.327,3297.051,0,-0.09081752,0.01086923,0.1136763,-0.794209122657776,-0.41312250494957,0.507041335105896,-0.867618167158098,-0.373311858882592,0.53709697585572,9
1.68000030517578,-0.528791010379791,2.39102005958557,1.5810341835022,-0.688698391434734,2.66948870260877,1.56919420173384,2128.01,2573.717,2773.236,1710.828,-0.08851122,0.01329938,0.1089346,-0.806148052215576,-0.416618257761002,0.525988101959229,-0.878038122530658,-0.377795274579551,0.543547424602645,9
1.69999694824219,-0.545059680938721,2.38264679908752,1.59138405323029,-0.706358800111611,2.66188992212981,1.58012683598675,2240.249,3502.833,3375.982,0,-0.09562986,0.01487599,0.1109222,-0.813434481620789,-0.418660759925842,0.517494142055511,-0.888267004546665,-0.382196476749158,0.549879589839776,9
1.72000122070313,-0.561554431915283,2.37419104576111,1.6020941734314,-0.724228658537036,2.6542010212754,1.5911891296115,2116.753,2627.07,2884.889,1559.292,-0.09365698,0.01677825,0.1072493,-0.824739694595337,-0.422791123390198,0.535505592823029,-0.898304216251578,-0.386515208538549,0.556093102023817,9
1.73999786376953,-0.578192055225372,2.36568140983582,1.61265826225281,-0.742290383213093,2.64642956573347,1.60237019758524,2282.694,3411.845,3432.275,0,-0.09998146,0.01769008,0.1096494,-0.831882297992706,-0.425478994846344,0.528204917907715,-0.908137821269591,-0.39074633405868,0.562180571969536,9
1.76000213623047,-0.595052897930145,2.35707521438599,1.62360167503357,-0.76055371708895,2.63857136338517,1.61367607125764,2089.847,2676.793,2892.602,1534.138,-0.09701949,0.0189975,0.106924,-0.843039512634277,-0.430311769247055,0.547168672084808,-0.917771149318994,-0.394891285994308,0.568144060931169,9
1.77999877929688,-0.612053036689758,2.34840655326843,1.63440239429474,-0.779000609654483,2.63063418086074,1.62509557650306,2299.067,3407.743,3423.35,0,-0.1023533,0.01932007,0.1101801,-0.85000741481781,-0.433428466320038,0.540034353733063,-0.927192788821983,-0.398945154262308,0.57397650459845,9
1.80000305175781,-0.629277884960175,2.33963298797607,1.64560842514038,-0.797640935141499,2.62261376955408,1.63663482594136,2066.142,2692.659,2819.193,1621.532,-0.09794147,0.02023154,0.1080272,-0.861243724822998,-0.438677251338959,0.560304164886475,-0.936405971974637,-0.402909329586356,0.579679903854719,9
1.81999969482422,-0.646637082099915,2.33079671859741,1.65665125846863,-0.816456197270346,2.61451808789761,1.64828236949435,2307.783,3440.723,3383.467,0,-0.1026121,0.02021333,0.1119815,-0.867963075637817,-0.441810518503189,0.552143156528473,-0.945399824400851,-0.406779133026206,0.585247526943151,9
1.84000396728516,-0.66422426700592,2.32185578346252,1.66812229156494,-0.835456397410825,2.6063428325813,1.66004439848636,2049.679,2681.968,2724.789,1751.468,-0.09699126,0.02099608,0.1098299,-0.8793585896492,-0.447051703929901,0.57355260848999,-0.95417746870157,-0.410555908149813,0.59068130690248,9
1.86000061035156,-0.68194043636322,2.31285834312439,1.67940437793732,-0.854622615239374,2.59809614449182,1.6719092003358,2292.99,3505.978,3336.083,0,-0.1014489,0.02095736,0.1141868,-0.88580858707428,-0.449876457452774,0.564104616641998,-0.962728579444532,-0.414235212212131,0.595974851798267,9
1.87999725341797,-0.699885547161102,2.30376362800598,1.6911199092865,-0.873957566090845,2.58977685529642,1.6838784559643,2049.419,2651.49,2662.306,1852.823,-0.09527086,0.02184312,0.1117151,-0.897256672382355,-0.454739332199097,0.585774481296539,-0.971053025860989,-0.417816988947023,0.601128080678429,9
1.90000152587891,-0.717954993247986,2.29462218284607,1.70262539386749,-0.893464153455626,2.58138371570432,1.69595396277071,2277.105,3549.417,3313.552,0,-0.09980089,0.02197195,0.1160455,-0.903469979763031,-0.457075029611588,0.575277388095856,-0.979150439632688,-0.421301079877433,0.606140765536421,9
1.91999816894531,-0.736251890659332,2.2853946685791,1.71456015110016,-0.913122862707269,2.57292512231409,1.70812364027167,2063.69,2623.999,2645.591,1889.735,-0.09360745,0.02303125,0.1131256,-0.914844393730164,-0.461379408836365,0.596739292144775,-0.987011339258123,-0.424683405378145,0.611007036871143,9
1.94000244140625,-0.754669010639191,2.27613019943237,1.72627699375153,-0.932943991899774,2.5643966441608,1.72039386345315,2259.849,3575.501,3309.735,0,-0.09829728,0.02336942,0.1172209,-0.920855641365051,-0.463218986988068,0.585842728614807,-0.994638524886308,-0.427965170275055,0.615728628108227,9
1.95999908447266,-0.773308575153351,2.26679134368896,1.73840773105621,-0.952907658613767,2.55580683609405,1.73275232415044,2082.075,2604.642,2669.065,1870.104,-0.09240264,0.02456294,0.11398,-0.931981444358826,-0.466940999031067,0.606539845466614,-1.00202309041976,-0.431142542523221,0.620300025949072,9
1.98000335693359,-0.792064726352692,2.25742435455322,1.75032246112823,-0.973024270010337,2.54715122020317,1.74520546489201,2259.271,3565.086,3323.851,0,-0.09715265,0.02500202,0.1177008,-0.937808632850647,-0.468347132205963,0.595734715461731,-1.00916768936771,-0.434216663853535,0.624722873042297,9
2,-0.811036586761475,2.24799299240112,1.76263630390167,-0.993273599084619,2.53843849960327,1.7577407641983,2096.758,2604.819,2706.391,1816.724,-0.09158345,0.02619574,0.114306,-0.948589146137238,-0.471569806337357,0.6156907081604,-1.01606400046349,-0.437183953857422,0.628992018127441,9
2.01999664306641,-0.830120503902435,2.23854041099548,1.77473950386047,-1.01365835337184,2.52966750931758,1.77035989816261,2262.481,3544.254,3340.596,0,-0.09627753,0.0265878,0.1177495,-0.954196631908417,-0.472631096839905,0.605159163475037,-1.02271203275434,-0.440044416427654,0.633107466805174,9
2.04000091552734,-0.849412322044373,2.22903108596802,1.78723037242889,-1.0341813929022,2.52083701875502,1.78306463727984,2099.464,2614.875,2735.42,1769.59,-0.09084948,0.02766941,0.1143745,-0.964590489864349,-0.475462108850479,0.624542951583862,-1.02911152474823,-0.442797939051516,0.637069057199471,9
2.05999755859375,-0.868810832500458,2.21950650215149,1.79951405525208,-1.05482201812353,2.5119559343546,1.79584216754118,2270.519,3522.037,3349.593,0,-0.09538697,0.02789612,0.117684,-0.969927966594696,-0.476235121488571,0.614184379577637,-1.03525504859546,-0.445441325732794,0.640872191117535,9
2.08000183105469,-0.888409912586212,2.20993137359619,1.81217908859253,-1.07559088172821,2.50301967256038,1.80869908347065,2091.731,2629.05,2742.944,1747.368,-0.08988861,0.02880183,0.1144071,-0.9799445271492,-0.478744119405746,0.633253991603851,-1.04114485287423,-0.447975543971863,0.644518260536375,9
2.09999847412109,-0.908108592033386,2.20034718513489,1.82463192939758,-1.09646699912883,2.4940372624541,1.82162239460902,2272.905,3508.068,3352.219,0,-0.09423915,0.0288207,0.1177302,-0.984938740730286,-0.479227274656296,0.622644782066345,-1.04677411523768,-0.450397658303471,0.648003042098304,9
2.12000274658203,-0.928001344203949,2.19071817398071,1.83746838569641,-1.11746110947495,2.48500408327971,1.83461874900143,2076.788,2637.981,2724.958,1761.93,-0.08842281,0.02956177,0.114505,-0.99463951587677,-0.481433659791946,0.641823053359985,-1.05214490868305,-0.452708560680417,0.651327819087362,9
2.13999938964844,-0.947986006736755,2.18108654022217,1.8500816822052,-1.138551967509,2.47592927627801,1.8476749948214,2263.784,3517.552,3340.1,0,-0.09259918,0.02942798,0.1179703,-0.999234199523926,-0.481593579053879,0.630663990974426,-1.05725102347782,-0.454905579228273,0.654488747383304,8
2.16000366210938,-0.968158483505249,2.17141771316528,1.86308085918427,-1.15975039167652,2.46680818657414,1.86079782920208,2062.493,2633.956,2691.235,1803.196,-0.08638442,0.0300811,0.114708,-1.00862836837769,-0.483445048332214,0.649956524372101,-1.0620943502576,-0.456989527434725,0.657486997379635,8
2.18000030517578,-0.988414227962494,2.1617534160614,1.8758407831192,-1.18103490068612,2.45765005696766,1.87397395420079,2253.702,3532.175,3322.33,0,-0.09045107,0.02987506,0.1182558,-1.01278626918793,-0.483213841915131,0.637999355792999,-1.06666929835407,-0.458957999791384,0.660319108186354,7
2.19999694824219,-1.00885128974915,2.15206074714661,1.88898754119873,-1.20240821395574,2.44845371736898,1.88720505326679,2052.286,2622.999,2655.143,1848.9,-0.08390875,0.0305104,0.1148165,-1.02185165882111,-0.484630644321442,0.657336115837097,-1.07097597819164,-0.460811043810786,0.662985148161421,7
2.22000122070313,-1.02936208248138,2.14238166809082,1.90187835693359,-1.22387315175433,2.43921795429519,1.90049287228091,2237.799,3552.261,3303.977,0,-0.08795463,0.03031275,0.1183628,-1.02554297447205,-0.483958870172501,0.64454197883606,-1.07501419914593,-0.462548577472581,0.665484999299265,7
2.23999786376953,-1.0500465631485,2.13268375396729,1.91515445709229,-1.24540792547886,2.42995214277345,1.91382392305993,2049.092,2608.411,2623.536,1885.463,-0.08124825,0.03097936,0.1146601,-1.03422176837921,-0.484888046979904,0.663804888725281,-1.07877930973132,-0.464168599372462,0.667815782108711,5
2.26000213623047,-1.07079493999481,2.12300872802734,1.92815887928009,-1.26702351885107,2.42065155681516,1.92720500505083,2219.606,3571.184,3288.045,0,-0.0853852,0.03083858,0.1181238,-1.03741645812988,-0.483767867088318,0.650222837924957,-1.08227271937422,-0.465671715947234,0.669978369091845,4
2.27999877929688,-1.09170734882355,2.11332488059998,1.94154071807861,-1.28869796983554,2.41132564607061,1.9406225227075,2046.281,2591.1,2607.654,1906.825,-0.07867724,0.0315575,0.1141463,-1.04561376571655,-0.484197199344635,0.669093668460846,-1.08549040888332,-0.467056197851165,0.67197027217779,4
2.30000305175781,-1.11267352104187,2.10367155075073,1.95463991165161,-1.31044231452835,2.40196966201596,1.95408330789913,2207.142,3577.882,3278.056,0,-0.08291166,0.03147057,0.1174257,-1.04830884933472,-0.482658505439758,0.654962658882141,-1.08843358680109,-0.468322565086307,0.673792239511894,0
2.31999969482422,-1.13379216194153,2.09401941299438,1.96810495853424,-1.33223444283894,2.39259311800549,1.96757367342642,2045.348,2580.246,2605.227,1904.546,-0.07633578,0.03220623,0.1132268,-1.05593681335449,-0.482620120048523,0.673255383968353,-1.09109887036509,-0.469469362144493,0.675442177003072,0
2.34000396728516,-1.15495467185974,2.08440494537354,1.9812798500061,-1.35408543512393,2.38319124647132,1.98110047855794,2199.385,3572.605,3274.285,0,-0.08065969,0.03211822,0.116292,-1.05811822414398,-0.480718791484833,0.658743262290955,-1.09348726343002,-0.470497020956358,0.676920706085208,0
2.36000061035156,-1.17625725269318,2.07479929924011,1.99480938911438,-1.37597305876702,2.37377361348711,1.99464996024512,2040.467,2576.803,2607.78,1892.226,-0.07423029,0.03281311,0.1119559,-1.0651273727417,-0.480286329984665,0.676474571228027,-1.09559602313537,-0.471404361345641,0.678226128796969,0
2.37999725341797,-1.19759273529053,2.06523752212524,2.00804209709167,-1.39790005743958,2.36433903852774,2.00822381695123,2192.493,3563.159,3272.39,0,-0.0786016,0.03266323,0.1148666,-1.066774725914,-0.478089153766632,0.661641061306,-1.09742530100382,-0.472191448508328,0.679358538938131,0
2.40000152587891,-1.2190557718277,2.05569076538086,2.02162003517151,-1.4198692197338,2.35488632173988,2.02182377494768,2029.284,2576.524,2607.83,1884.278,-0.07222173,0.03327435,0.110477,-1.07315075397491,-0.477338999509811,0.678901731967926,-1.09897493039424,-0.472858210743393,0.680317833349887,0
2.41999816894531,-1.24054086208344,2.04619264602661,2.03489589691162,-1.44185817738692,2.34542508756209,2.03543598721428,2189.671,3553.217,3265.703,0,-0.07658239,0.03301458,0.1132947,-1.07425737380981,-0.474897682666779,0.663788974285126,-1.10024313330221,-0.473403883025206,0.681102911362803,0
2.44000244140625,-1.26214075088501,2.03671526908875,2.04850888252258,-1.46387808506052,2.33595053645515,2.04906735901791,2014.567,2579.008,2599.663,1884.442,-0.07018175,0.03351368,0.1089006,-1.08000123500824,-0.473880738019943,0.680653750896454,-1.10123038958312,-0.473828671822132,0.681714070030222,0
2.45999908447266,-1.28375172615051,2.02729105949402,2.0618097782135,-1.48590651627916,2.32647231790489,2.06270400730194,2185.669,3542.596,3259.79,0,-0.07451525,0.03311923,0.1116767,-1.08054292201996,-0.471214234828949,0.665046155452728,-1.10193556692257,-0.474132089930926,0.682150608395601,0
2.48000335693359,-1.30546569824219,2.0178918838501,2.07544660568237,-1.50795464064698,2.31698562594271,2.07635284658344,1996.217,2580.594,2579.012,1901.953,-0.06795375,0.03350808,0.1072483,-1.08570194244385,-0.469961732625961,0.681843280792236,-1.10235893238473,-0.47431425226183,0.68241269178437,0
2.5,-1.32717883586884,2.00855016708374,2.08875942230225,-1.52999999932945,2.30750012397766,2.08999997377396,2172.932,3548.484,3245.195,0,-0.07225849,0.03301401,0.1100804,-1.08566439151764,-0.467078328132629,0.665646731853485,-1.10250000050292,-0.474374949932098,0.682500019669533,0
2.51999664306641,-1.34898376464844,1.99923872947693,2.1024067401886,-1.55204535801192,2.29801462201262,2.10364710096447,1979.025,2574.195,2550.449,1933.867,-0.06548713,0.03333739,0.1055899,-1.090247631073,-0.465583682060242,0.682365000247955,-1.10235893238473,-0.47431425226183,0.68241269178437,0
2.54000091552734,-1.37077629566193,1.98998939990997,2.11571502685547,-1.57409348237975,2.28852793005043,2.11729594024597,2160.839,3553.648,3230.346,0,-0.06977535,0.03278679,0.1084429,-1.08962154388428,-0.46246212720871,0.665411472320557,-1.10193556692257,-0.474132089930926,0.682150608395601,0
2.55999755859375,-1.39264917373657,1.98077547550201,2.12935900688171,-1.59612191359838,2.27904971150017,2.13093258853001,1966.37,2564.963,2516.392,1969.998,-0.06279681,0.0330806,0.1037955,-1.09364545345306,-0.460703909397125,0.682199835777283,-1.10123038958312,-0.473828671822132,0.681714070030222,0
2.58000183105469,-1.41449761390686,1.97162866592407,2.14264893531799,-1.61814182127198,2.26957516039323,2.14456396033363,2141.944,3570.664,3210.152,0,-0.06714255,0.03253309,0.1066688,-1.09242177009583,-0.457336574792862,0.664495944976807,-1.10024313330221,-0.473403883025206,0.681102911362804,0
2.59999847412109,-1.43641436100006,1.96252274513245,2.15627002716064,-1.64013077892511,2.26011392621545,2.15817617260023,1955.221,2548.914,2490.207,2002.85,-0.06006067,0.03284263,0.1018402,-1.0958377122879,-0.45529368519783,0.681052982807159,-1.09897493039424,-0.472858210743393,0.680317833349887,0
2.62000274658203,-1.45829474925995,1.95348930358887,2.16952419281006,-1.66209994121933,2.25066120942759,2.17177613059669,2130.553,3576.238,3194.379,0,-0.06448632,0.03231715,0.1046139,-1.09402763843536,-0.451679944992065,0.662709474563599,-1.09742530100382,-0.472191448508328,0.679358538938131,0
2.63999938964844,-1.48023056983948,1.94450211524963,2.18310213088989,-1.68402693989188,2.24122663446822,2.18534998730279,1947.037,2537.517,2474.974,2016.836,-0.05743426,0.03263265,0.09959736,-1.09678947925568,-0.449354320764542,0.678900897502899,-1.09559602313537,-0.471404361345641,0.67822612879697,0
2.66000366210938,-1.50211870670319,1.93559145927429,2.19630408287048,-1.70592290617745,2.23180541187802,2.19890463348308,2120.328,3576.41,3183.005,0,-0.0619643,0.0321111,0.1022318,-1.09439671039581,-0.445522964000702,0.660093128681183,-1.09348640563071,-0.470496651869278,0.67692017506657,0
2.68000030517578,-1.5240478515625,1.92673277854919,2.20982074737549,-1.72776555581996,2.22240712994983,2.2124262741215,1937.33,2531.049,2468.245,2018.256,-0.05501825,0.03240262,0.09709055,-1.09646487236023,-0.442955136299133,0.675829410552979,-1.09109887036509,-0.469469362144494,0.675442177003072,0
2.69999694824219,-1.54591751098633,1.91795361042023,2.22295379638672,-1.74955768413056,2.21303058593937,2.22591663964878,2113.175,3568.466,3176.517,0,-0.05963776,0.03184206,0.09959304,-1.09349262714386,-0.438951790332794,0.656655013561249,-1.08843358680109,-0.468322565086308,0.673792239511893,0
2.72000122070313,-1.56781482696533,1.90922975540161,2.23639345169067,-1.77130202882336,2.20367460188472,2.23937742484041,1922.945,2529.104,2464.658,2016.327,-0.05276095,0.03207204,0.09440017,-1.09486031532288,-0.436198055744171,0.671984136104584,-1.08549040888332,-0.467056197851165,0.671970272177789,0
2.73999786376953,-1.58964157104492,1.9005880355835,2.24944472312927,-1.79297647980783,2.19434869114016,2.25279494249708,2109.598,3558.505,3168.242,0,-0.05741562,0.03142807,0.09681619,-1.09132361412048,-0.432067185640335,0.652565360069275,-1.08227271937422,-0.465671715947234,0.669978369091845,0
2.76000213623047,-1.61148130893707,1.89200472831726,2.26279544830322,-1.81459207318004,2.18504810518187,2.26617602448799,1905.784,2531.07,2457.118,2016.864,-0.05056065,0.03156367,0.09163825,-1.092001080513,-0.429172575473785,0.667540311813354,-1.07877930973132,-0.464168599372462,0.667815782108711,0
2.77999877929688,-1.63323950767517,1.88350605964661,2.27574992179871,-1.83612684690458,2.17578229366013,2.27950707526701,2106.482,3545.065,3162.51,0,-0.05521798,0.03080249,0.09401447,-1.08790159225464,-0.424935787916183,0.647727370262146,-1.07501419914593,-0.462548577472581,0.665484999299265,0
2.80000305175781,-1.65499830245972,1.87506771087646,2.28900337219238,-1.85759178470316,2.16654653058634,2.29279489428112,1885.351,2533.77,2438.872,2031.3,-0.04824316,0.03083237,0.08884306,-1.08794355392456,-0.421928286552429,0.662678718566895,-1.07097597819164,-0.460811043810786,0.662985148161422,0
2.81999969482422,-1.67666399478912,1.86671578884125,2.30185127258301,-1.87896509797278,2.15735019098767,2.30602599334712,2095.946,3546.066,3149.164,0,-0.05288292,0.02997257,0.09128256,-1.08328795433044,-0.417591571807861,0.642394483089447,-1.06666929835407,-0.458957999791384,0.660319108186353,0
2.83999633789063,-1.69831848144531,1.85842657089233,2.31499838829041,-1.90024960698239,2.14819206138118,2.31920211834584,1865.503,2529.694,2412.002,2060.506,-0.04571423,0.02992935,0.08610278,-1.08272516727448,-0.414462625980377,0.65735137462616,-1.06209435025759,-0.456989527434725,0.657486997379635,0
2.86000061035156,-1.71986901760101,1.850226521492,2.3277268409729,-1.9214480311499,2.13907097167731,2.33232495272651,2086.06,3547.3,3134.746,0,-0.05033268,0.02900484,0.08858813,-1.07752358913422,-0.41000172495842,0.636425673961639,-1.05725102347782,-0.454905579228273,0.654488747383304,0
2.87999725341797,-1.74139678478241,1.84209203720093,2.34075784683228,-1.94253888918396,2.12999616467562,2.34538119854648,1849.924,2522.607,2378.304,2095.916,-0.04294986,0.02891929,0.08331201,-1.07638847827911,-0.406721204519272,0.651546061038971,-1.05214490868305,-0.452708560680416,0.651327819087361,0
2.90000152587891,-1.76280975341797,1.83404958248138,2.3533570766449,-1.96353299953007,2.12096298550123,2.3583775529389,2070.094,3560.228,3114.587,0,-0.04761146,0.02798417,0.08584598,-1.07064747810364,-0.402115732431412,0.629960060119629,-1.04677411523767,-0.450397658303471,0.648003042098304,0
2.91999816894531,-1.78418791294098,1.82607674598694,2.36625671386719,-1.98440911693069,2.11198057539494,2.37130086407726,1835.569,2509.122,2350.501,2130.198,-0.04010135,0.02790181,0.08044391,-1.06891906261444,-0.398653537034988,0.644977390766144,-1.04114485287423,-0.447975543971863,0.644518260536375,0
2.94000244140625,-1.80544114112854,1.81819891929626,2.37871289253235,-2.00517798053537,2.10304431360073,2.38415778000673,2060.61,3563.819,3097.918,0,-0.04483218,0.026979,0.08291613,-1.06265771389008,-0.393891334533691,0.622814536094666,-1.03525504859546,-0.445441325732794,0.640872191117535,0
2.95999908447266,-1.82664740085602,1.8103940486908,2.39146494865417,-2.02581860575671,2.0941632292003,2.39693531026807,1823.89,2499.654,2332.325,2148.139,-0.03731941,0.02689843,0.07737456,-1.06030988693237,-0.390238583087921,0.637601613998413,-1.02911152474823,-0.442797939051516,0.637069057199471,0
2.98000335693359,-1.84771800041199,1.8026876449585,2.4037652015686,-2.04634164528706,2.08533273863774,2.40964004938531,2051.687,3562.963,3085.538,0,-0.04214932,0.02597911,0.07974639,-1.05353772640228,-0.385334998369217,0.615008592605591,-1.02271203275434,-0.440044416427654,0.633107466805174,0
3,-1.86872887611389,1.79505729675293,2.41635513305664,-2.06672639957428,2.07656174835205,2.42225918334961,1811.163,2494.615,2321.557,2154.97,-0.03470844,0.02587957,0.0741161,-1.05054914951324,-0.38151890039444,0.629499077796936,-1.01606400046349,-0.437183953857422,0.628992018127441,0
3.01999664306641,-1.8895947933197,1.78752708435059,2.42848634719849,-2.08697572864857,2.06784902775215,2.4347944826559,2044.679,3555.711,3077.68,0,-0.03962943,0.02493226,0.07639654,-1.04327547550201,-0.376507312059402,0.606555700302124,-1.00916768936771,-0.434216663853534,0.624722873042298,0
3.04000091552734,-1.91038775444031,1.78007555007935,2.4409019947052,-2.10709234004513,2.05919341186127,2.44724762339747,1794.173,2492.99,2313.989,2159.309,-0.03222638,0.02478668,0.07074012,-1.03964924812317,-0.372569471597672,0.620787143707275,-1.00202309041976,-0.43114254252322,0.620300025949072,0
3.05999755859375,-1.93102550506592,1.77272582054138,2.45285439491272,-2.12705600675913,2.05060360379452,2.45960608409476,2041.32,3546.49,3068.124,0,-0.03718945,0.0237774,0.07296366,-1.03189551830292,-0.367480367422104,0.597614824771881,-0.994638524886308,-0.427965170275055,0.615728628108227,0
3.08000183105469,-1.95157861709595,1.76545679569244,2.46508693695068,-2.14687713595163,2.04207512564123,2.47187630727625,1775.751,2494.907,2303.005,2164.714,-0.02979331,0.02355903,0.06733587,-1.02764821052551,-0.36344963312149,0.611627459526062,-0.987011339258122,-0.424683405378145,0.611007036871143,0
3.09999847412109,-1.9719672203064,1.75829088687897,2.47684836387634,-2.16653584520328,2.033616532251,2.4840459847772,2038.472,3533.45,3061.504,0,-0.03477503,0.02245924,0.06953514,-1.01942670345306,-0.358296811580658,0.588077306747437,-0.979150439632689,-0.421301079877433,0.606140765536421,0
3.12000274658203,-1.99225902557373,1.75120735168457,2.4888916015625,-2.18604243256806,2.0252233926589,2.49612149158362,1754.779,2497.165,2283.334,2181.687,-0.02726651,0.02215726,0.06392131,-1.01460587978363,-0.354187577962875,0.60216099023819,-0.971053025860989,-0.417816988947023,0.601128080678429,0
3.13999938964844,-2.01237797737122,1.74422788619995,2.50045537948608,-2.20537738341953,2.01690410346351,2.50809074721212,2029.239,3533.635,3047.598,0,-0.03225141,0.0209842,0.06618283,-1.00593411922455,-0.348969787359238,0.578193664550781,-0.962728579444533,-0.414235212212131,0.595974851798267,0
3.16000366210938,-2.03238940238953,1.73733270168304,2.51230192184448,-2.22455088103183,2.00865428308644,2.51996005559448,1734.892,2493.41,2257.467,2209.63,-0.02458524,0.02062543,0.06057384,-1.00056862831116,-0.344767719507217,0.592322468757629,-0.954174163352092,-0.410554485950274,0.590679260733698,0
3.18000030517578,-2.0522186756134,1.73054337501526,2.52365827560425,-2.24354380138856,2.00048216005771,2.53171757805356,2023.02,3531.522,3032.952,0,-0.02958026,0.01940216,0.06286077,-0.991469204425812,-0.339463829994202,0.567815780639648,-0.94539982440085,-0.406779133026206,0.58524752694315,0
3.19999694824219,-2.07193040847778,1.7238404750824,2.5352988243103,-2.2623590635174,1.99238647840124,2.54336512160655,1717.115,2488.267,2229.804,2239.131,-0.02176495,0.01900677,0.05719371,-0.985581159591675,-0.335141599178314,0.582031548023224,-0.936405971974636,-0.402909329586355,0.579679903854719,0
3.22000122070313,-2.09145188331604,1.71724581718445,2.54643845558167,-2.28099938900442,1.98436606709459,2.55490437104486,2012.603,3534.937,3017.124,0,-0.02680046,0.01776666,0.05949342,-0.976068735122681,-0.329734951257706,0.556980967521667,-0.927192788821982,-0.398945154262308,0.573976504598449,0
3.23999786376953,-2.11084508895874,1.71074032783508,2.55786347389221,-2.29944628156995,1.97642888457015,2.56632387629027,1703.199,2481.132,2202.809,2266.162,-0.01890045,0.01735699,0.05373944,-0.969662249088287,-0.325275182723999,0.571249008178711,-0.917771149318993,-0.394891285994308,0.568144060931169,0
3.26000213623047,-2.13003993034363,1.70434522628784,2.56877660751343,-2.31770961544581,1.96857068222185,2.57762974996267,2001.828,3537.926,3002.261,0,-0.02403077,0.01612254,0.05602311,-0.959748983383179,-0.319763541221619,0.545658707618713,-0.90813782126959,-0.39074633405868,0.562180571969535,0
3.27999877929688,-2.14909648895264,1.69804167747498,2.57997345924377,-2.33577134012187,1.96079922667992,2.58881081793642,1688.146,2473.063,2183.001,2288.061,-0.01610946,0.01571398,0.05018285,-0.952817618846893,-0.315170109272003,0.55984228849411,-0.898304216251578,-0.386515208538549,0.556093102023818,0
3.30000305175781,-2.16794681549072,1.69185030460358,2.5906503200531,-2.35364119854729,1.95311032582551,2.59987311156116,1993.775,3536.081,2990.126,0,-0.02133086,0.0144889,0.05241269,-0.942521035671234,-0.309566974639893,0.533838272094727,-0.888267004546666,-0.382196476749158,0.549879589839776,0
3.31999969482422,-2.18664789199829,1.68575310707092,2.60160779953003,-2.37130160722417,1.94551154534655,2.61080574581408,1674.003,2468.53,2168.872,2299.852,-0.01344204,0.01407221,0.04651697,-0.935059666633606,-0.304857701063156,0.547876596450806,-0.878038122530657,-0.377795274579551,0.543547424602645,0
3.33999633789063,-2.20513582229614,1.67976951599121,2.61203861236572,-2.38875555478454,1.93800159931817,2.62161057080077,1988.22,3529.06,2980.997,0,-0.01875025,0.01283664,0.04868466,-0.924394249916077,-0.299185633659363,0.521535813808441,-0.867618167158097,-0.373311858882592,0.53709697585572,0
3.36000061035156,-2.22346377372742,1.6738817691803,2.62274742126465,-2.406005803634,1.93057929915441,2.6322892965819,1657.154,2467.343,2157.352,2308.47,-0.01088754,0.01239274,0.04277436,-0.916408896446228,-0.294388711452484,0.535445630550385,-0.857007552155826,-0.36874640767338,0.530528499715627,0
3.37999725341797,-2.24157166481018,1.66810822486877,2.63292455673218,-2.42303550945299,1.9232518924954,2.64283149572124,1985.47,3520.374,2970.918,0,-0.01626126,0.01112206,0.04489816,-0.905393540859222,-0.288669437170029,0.508860111236572,-0.846218976345105,-0.364104384899943,0.523849857357654,0
3.40000152587891,-2.25950956344604,1.6624321937561,2.64337778091431,-2.43985407218584,1.9160153348077,2.65324298723213,1638.943,2469.097,2144.325,2317.011,-0.008419317,0.01063222,0.03901476,-0.89689964056015,-0.283807516098022,0.522657155990601,-0.835248923368004,-0.359384277571698,0.517058871988738,0
3.41999816894531,-2.27722072601318,1.65687084197998,2.65329241752625,-2.45644516534361,1.90887665092339,2.66351366424015,1983.045,3508.389,2963.776,0,-0.01384791,0.009306682,0.04111763,-0.885553121566772,-0.278056859970093,0.495727062225342,-0.824110582941664,-0.354591760855451,0.510163708672097,0
3.44000244140625,-2.29475259780884,1.6514083147049,2.66348481178284,-2.47281804716281,1.90183185728196,2.67364925803476,1619.277,2471.312,2126.149,2332.396,-0.005951632,0.008759602,0.03525779,-0.876584827899933,-0.27314504981041,0.509617865085602,-0.812800388649434,-0.349725300221754,0.503162159625937,0
3.45999908447266,-2.31205105781555,1.64606070518494,2.67313122749329,-2.48895692832918,1.89488774758421,2.68363999427827,1976.393,3504.906,2952.286,0,-0.01142336,0.007387938,0.03740293,-0.864929735660553,-0.267366737127304,0.482324302196503,-0.801332006385299,-0.344790775723006,0.496062684689628,0
3.48000335693359,-2.32916140556335,1.64081263542175,2.68305730819702,-2.50487092366784,1.88804039997555,2.69349151548162,1600.647,2469.537,2103.88,2354.976,-0.003438674,0.006799344,0.03156554,-0.855517864227295,-0.262401342391968,0.49630680680275,-0.78970183472369,-0.339786637766397,0.488863054409187,0
3.5,-2.34603333473206,1.63568091392517,2.69242882728577,-2.5205447997813,1.88129636896134,2.70319439144611,1971.794,3500.211,2940.174,0,-0.008955678,0.005396648,0.03373482,-0.843582630157471,-0.256587445735931,0.468576222658157,-0.777924000354857,-0.334718964672089,0.481572013878822,0
3.51999664306641,-2.36270833015442,1.63065004348755,2.70208239555359,-2.53598168290031,1.87465430941181,2.7127505574575,1583.482,2466.603,2080.621,2378.813,-0.0008852347,0.004780583,0.02788151,-0.833752155303955,-0.251556426286697,0.482674449682236,-0.765999459475408,-0.329588167864767,0.474190155029786,0
3.54000091552734,-2.37913942337036,1.62573575973511,2.71117258071899,-2.55118444594166,1.86811298519115,2.72216179198813,1965.24,3498.574,2927.369,0,-0.006462427,0.003368618,0.03006293,-0.821557939052582,-0.245700165629387,0.454512238502502,-0.753929052770513,-0.324394609067776,0.466717998286246,0
3.55999755859375,-2.39536571502686,1.62092399597168,2.72054672241211,-2.56613872308604,1.86167857751006,2.73141920191151,1569.54,2463.014,2057.929,2399.879,0.001643502,0.002738696,0.02417673,-0.811322808265686,-0.240596979856491,0.468707650899887,-0.741727567798258,-0.319144650954242,0.459164697851087,0
3.58000183105469,-2.4113438129425,1.61622989177704,2.72934913635254,-2.58085326729328,1.85534732021446,2.74052820572674,1958.377,3496.64,2915.629,0,-0.00403682,0.001332077,0.02635382,-0.798887312412262,-0.234702497720718,0.440116077661514,-0.729391385793765,-0.313836736470737,0.451528013536464,0
3.59999847412109,-2.42710900306702,1.61163890361786,2.73843574523926,-2.59531431270705,1.84912513636775,2.74948028171299,1554.177,2459.096,2040.165,2418.14,0.004064524,0.0007005049,0.02043946,-0.78825718164444,-0.229539170861244,0.454330831766129,-0.716935713767317,-0.308477408768949,0.443817359206151,0
3.62000274658203,-2.44262075424194,1.60716652870178,2.74694395065308,-2.60953046793176,1.84300832192796,2.75828075900647,1953.078,3492.263,2905.567,0,-0.001715608,-0.0006961503,0.02259636,-0.775599718093872,-0.223621860146523,0.425407826900482,-0.704356955827444,-0.303065120637236,0.436030508832034,0
3.63999938964844,-2.45791268348694,1.60279822349548,2.7557361125946,-2.6234885835008,1.83700253474321,2.76692149746096,1539.747,2457.548,2025.967,2429.92,0.00634474,-0.001332646,0.01668046,-0.764585018157959,-0.218418091535568,0.439609527587891,-0.691670720740692,-0.297606588091786,0.428177124984152,0
3.65999603271484,-2.4729471206665,1.598548412323,2.7639467716217,-2.63719194552437,1.83110636089208,2.77540453133521,1943.944,3488.393,2892.275,7.309892,0.0005135117,-0.002707902,0.01882842,-0.751727163791656,-0.212497875094414,0.410532712936401,-0.678878353700696,-0.292102389931838,0.420258040401444,0
3.68000030517578,-2.48775386810303,1.59440302848816,2.77243781089783,-2.65064357486757,1.82531850058072,2.78373173068862,1527.112,2457.065,2015.668,2434.868,0.008504568,-0.003343865,0.01295507,-0.740342795848846,-0.207270368933678,0.4245545566082,-0.665981146317811,-0.286553081901244,0.412274054652249,0
3.69999694824219,-2.50230026245117,1.59037578105927,2.78035521507263,-2.66383127580226,1.81964420129024,2.79189554578451,1922.739,3489.838,2860.849,40.8309,0.00280267,-0.004643488,0.01509137,-0.727315843105316,-0.201357707381248,0.395865321159363,-0.65299527533123,-0.280965624398954,0.404235181908735,0
3.72000122070313,-2.51661157608032,1.58645391464233,2.78853607177734,-2.6767633032417,1.81407991116207,2.79990108680742,1526.286,2458.58,2014.289,2415.615,0.01055863,-0.005244829,0.009334549,-0.715573489665985,-0.196096256375313,0.409041583538055,-0.639917282339434,-0.275338529371411,0.396139281255611,0
3.73999786376953,-2.53065967559814,1.58265018463135,2.79615926742554,-2.68942811570037,1.808630596175,2.80774120902801,1901.414,3472.567,2822.029,102.4595,0.005144191,-0.006428338,0.01128739,-0.702410161495209,-0.19019527733326,0.381165057420731,-0.626763698705669,-0.269678909802388,0.38799658639423,0
3.76000213623047,-2.54446578025818,1.57895231246948,2.80401945114136,-2.70183383146282,1.803292763258,2.81542093805117,1535.359,2471.891,2025.778,2361.332,0.0124582,-0.006986537,0.005670522,-0.69031023979187,-0.184893563389778,0.393014669418335,-0.613531154887639,-0.263985315871967,0.379805011417393,0
3.77999877929688,-2.55800628662109,1.57537174224854,2.81134724617004,-2.7139695770734,1.79807109095524,2.82293354268985,1878.642,3444.97,2779.199,181.7172,0.007383103,-0.008048605,0.007324692,-0.677014589309692,-0.179020643234253,0.36638993024826,-0.60023651686137,-0.258265004538452,0.371574997167698,0
3.80000305175781,-2.57129716873169,1.57189762592316,2.81887745857239,-2.72584333814708,1.79296214327972,2.83028396642013,1546.325,2497.489,2050.358,2279.286,0.01404899,-0.008571117,0.001934036,-0.664552688598633,-0.173707276582718,0.376505166292191,-0.586876524285838,-0.252516572968186,0.363304525338741,0
3.81999969482422,-2.5843198299408,1.56853950023651,2.82590794563293,-2.73744492223163,1.78797030575888,2.83746589962856,1852.245,3407.178,2734.642,278.1687,0.009376501,-0.00951867,0.003252008,-0.651123642921448,-0.167905479669571,0.351519048213959,-0.573468357077023,-0.246747413199059,0.355004231116903,0
3.83999633789063,-2.59708595275879,1.5652871131897,2.83310079574585,-2.74877791451009,1.78309403578861,2.84448156171422,1557.351,2532.889,2084.362,2177.779,0.01528623,-0.01001775,-0.001796036,-0.63831615447998,-0.162632584571838,0.359637051820755,-0.560014026276881,-0.240958390526246,0.346675359432959,0
3.86000061035156,-2.6095814704895,1.56214797496796,2.83983206748962,-2.75984563331209,1.77833190558438,2.85133300688122,1823.244,3360.436,2689,388.6806,0.0111204,-0.01086463,-0.000803742,-0.624763429164886,-0.156951323151588,0.336569577455521,-0.546515580872635,-0.235150386571708,0.338319178707605,0
3.87999725341797,-2.62181425094604,1.5591127872467,2.84668445587158,-2.77063893010371,1.77368785150474,2.85801457175126,1570.103,2574.645,2120.669,2066.211,0.01627242,-0.01135306,-0.005422196,-0.611652851104736,-0.151762157678604,0.342617601156235,-0.532990631455729,-0.229330978680956,0.329946590735853,0
3.90000152587891,-2.63377451896667,1.55618810653687,2.85311627388,-2.78116548164984,1.76915857045225,2.8645310086075,1795.188,3308.906,2641.178,506.2378,0.01268916,-0.01211685,-0.004735633,-0.597997546195984,-0.146232455968857,0.321596741676331,-0.519436284009554,-0.223498921639498,0.32155580398356,0
3.91999816894531,-2.64546728134155,1.55336499214172,2.85962772369385,-2.79141684911929,1.7647476934202,2.87087709341145,1582.508,2619.131,2155.432,1954.41,0.01712951,-0.01259888,-0.008886969,-0.584642112255096,-0.141148746013641,0.325571298599243,-0.505870408491346,-0.2176619043907,0.313157880805522,0
