t,x_s1,x_s2,x_s3,x_s_d1,x_s_d2,x_s_d3,propellers_rpms1,propellers_rpms2,propellers_rpms3,propellers_rpms4,rollRad,pitchRad,yawRad,v_s1,v_s2,v_s3,v_s_d1,v_s_d2,v_s_d3,insideCount
0,-0.0599999986588955,2.94000005722046,1.17999994754791,-0.0599999986588955,2.94000005722046,1.17999994754791,0,0,0,0,0,45.0048027038574,0,0,0,0,-1.06581410364015E-15,4.44089209850063E-16,-7.105427357601E-16,0
0.0200042724609375,-0.0599999986588955,2.94000005722046,1.1790189743042,-0.0600018701838461,2.93999925195556,1.1800010908333,0,0,0,0,0.00112506025470793,44.8630180358887,0.909283995628357,-3.60929135467813E-08,2.95208444356376E-08,-0.0490499772131443,-0.000280105751305916,-0.000120521679537258,0.000171112232507361,5
0.0400009155273438,-0.0599999986588955,2.94000005722046,1.17411398887634,-0.0600148724204753,2.93999365745638,1.18000903369676,0,0,0,0,0.00304076820611954,44.7212371826172,1.81856417655945,-3.62307304158094E-08,2.93641413406931E-08,-0.245249927043915,-0.00111101934050116,-0.00047804058392963,0.000678704377995865,6
0.05999755859375,-0.0600350871682167,2.94003486633301,1.16684293746948,-0.0600498857373401,2.93997859220429,1.18003042278566,2306.972,2000.173,2127.798,3382.377,-0.00213768915273249,44.8046226501465,1.28309500217438,-0.001754404976964,0.00174322747625411,-0.363554209470749,-0.00247936261166862,-0.00106680046642749,0.00151460392977639,6
0.0800018310546875,-0.0601342283189297,2.9401330947876,1.15967178344727,-0.0601175574246769,2.93994947496775,1.18007176236346,2848.251,2759.989,2606.593,2299.057,359.914337158203,44.8777160644531,0.619906485080719,-0.00495701935142279,0.00491340691223741,-0.358560413122177,-0.00437268608126799,-0.00188144466206175,0.00267120569262453,6
0.0999984741210938,-0.0602752789855003,2.94026303291321,1.1533819437027,-0.0602281887669101,2.93990187339187,1.18013934532406,2872.154,2897.6,2627.807,2213.387,359.724822998047,44.9187927246094,0.190190657973289,-0.00705261202529073,0.00649313069880009,-0.314493149518967,-0.00677637982016689,-0.00291568692648091,0.00413958468881675,5
0.120002746582031,-0.0604444220662117,2.94038772583008,1.14806056022644,-0.0603919599823235,2.93983140721312,1.18023939060396,2725.747,2926.555,2634.766,2219.404,359.427825927734,44.935115814209,0.0502616502344608,-0.00845718197524548,0.00623454572632909,-0.266066789627075,-0.00967921398219614,-0.00416469537060396,0.00591288078056661,5
0.139999389648438,-0.0606512874364853,2.94048070907593,1.1437304019928,-0.0606185767455666,2.93973390035084,1.18037782724834,2551.933,2770.052,2667.394,2379.397,359.090728759766,44.9478645324707,0.144060865044594,-0.0103433299809694,0.00464930199086666,-0.216508030891418,-0.0130660253322238,-0.00562194567796536,0.00798183098414958,5
0.160003662109375,-0.0609211213886738,2.94052791595459,1.14032292366028,-0.0609177895434042,2.93960515744296,1.18056061167741,2443.244,2553.555,2687.266,2529.402,358.804443359375,44.9652976989746,0.340547859668732,-0.0134917292743921,0.00235767173580825,-0.170371115207672,-0.0169265510445065,-0.00728302204135792,0.0103401658994673,5
0.180000305175781,-0.0612807311117649,2.94052505493164,1.13772797584534,-0.0612986871007165,2.9394412678651,1.18079329605139,2417.393,2395.087,2654.668,2596.385,358.625549316406,44.9838752746582,0.518705248832703,-0.0179804563522339,-0.000144230201840401,-0.129750192165375,-0.0212451141043368,-0.00914117907931815,0.0129783086828701,5
0.200004577636719,-0.061748493462801,2.94047331809998,1.13583755493164,-0.0617706280683152,2.93923820485124,1.181081597424,2450.567,2337.823,2562.015,2580.274,358.551116943359,44.9966087341309,0.617905139923096,-0.0233881808817387,-0.00259029353037477,-0.0945188477635384,-0.026012379510746,-0.0111924002017188,0.0158905567279358,5
0.220001220703125,-0.0623322129249573,2.94037485122681,1.1345682144165,-0.0623420644491781,2.93899233174064,1.18143067899198,2497.087,2360.041,2442.729,2516.134,358.52587890625,44.9992294311523,0.641199290752411,-0.029186025261879,-0.00492144282907248,-0.0634651631116867,-0.03121219533433,-0.0134297356845702,0.0190670430730375,5
0.239997863769531,-0.0630331709980965,2.94023036956787,1.13386452198029,-0.0630217183703222,2.93869989564571,1.18184586896662,2511.706,2408.133,2348.459,2446.546,358.476806640625,44.9927101135254,0.627781867980957,-0.0350478962063789,-0.00722932955250144,-0.0351820588111877,-0.0368338920540454,-0.0158485947310391,0.0225012498742643,5
0.260002136230469,-0.063852347433567,2.94003653526306,1.13368916511536,-0.0638182299684225,2.938357178957,1.18233244547258,2475.335,2437.115,2311.747,2397.057,358.355926513672,44.9817581176758,0.619223713874817,-0.0409586951136589,-0.00969036296010017,-0.00877010263502598,-0.0428675524613532,-0.0184447102433459,0.0261871188636747,4
0.279998779296875,-0.064795009791851,2.93978667259216,1.13401007652283,-0.0647390625194898,2.93796097043536,1.18289496770872,2398.893,2429.132,2330.984,2372.436,358.163024902344,44.971492767334,0.638288140296936,-0.0471332669258118,-0.0124882571399212,0.016046479344368,-0.0492963837173861,-0.0212108567320638,0.0301143915580518,4
0.300003051757813,-0.0658716782927513,2.93947196006775,1.13479292392731,-0.0657927507678135,2.93750759781875,1.18353864941714,2313.645,2391.227,2375.587,2364.026,357.940185546875,44.9649925231934,0.68505334854126,-0.0538334958255291,-0.0157365370541811,0.039144903421402,-0.0561132031658829,-0.0241439437008635,0.0342786801847687,4
0.319999694824219,-0.067095622420311,2.93908333778381,1.13599848747253,-0.0669860785243584,2.93699414222283,1.1842676347221,2254.896,2343.552,2404.266,2358.685,357.744567871094,44.9626693725586,0.745575606822968,-0.0611971653997898,-0.0194296110421419,0.0602806136012077,-0.0633008373176985,-0.0272365818771378,0.0386694937272938,4
0.340003967285156,-0.0684790685772896,2.93861436843872,1.13758563995361,-0.0683273092598492,2.93641704810699,1.18508697164892,2239.254,2303.309,2392.813,2348.468,357.614685058594,44.9632110595703,0.803888380527496,-0.0691724568605423,-0.0234477408230305,0.0793604850769043,-0.0708528993697216,-0.0304860231979345,0.0432829305872703,4
0.360000610351563,-0.0700304806232452,2.93806195259094,1.13951480388641,-0.0698225328270578,2.93577369517774,1.18600038039362,2262.059,2279.417,2340.802,2330.638,357.552337646484,44.9647407531738,0.850489318370819,-0.0775705873966217,-0.0276177376508713,0.0964570939540863,-0.0787518717320621,-0.0338847303337087,0.0481082895423912,4
0.379997253417969,-0.0717541873455048,2.93742609024048,1.14175117015839,-0.0714791088463715,2.935060916796,1.18701235683346,2296.933,2269.295,2273.825,2308.816,357.524688720703,44.9657707214355,0.884554803371429,-0.0861852765083313,-0.0317948758602142,0.111816950142384,-0.0869889214763108,-0.0374289027221294,0.0531401746945263,4
0.400001525878906,-0.0736521854996681,2.93670749664307,1.14426505565643,-0.0733044112230977,2.93427554017634,1.18812740557212,2316.761,2266.089,2221.377,2286.854,357.486907958984,44.965648651123,0.91117000579834,-0.0948999524116516,-0.0359259881079197,0.125693097710609,-0.0955558400788823,-0.0411150084648172,0.0583735715847086,4
0.419998168945313,-0.075726754963398,2.93590617179871,1.14703118801117,-0.0753034649285836,2.93341540321397,1.18934859628618,2305.135,2262.224,2203.217,2268.237,357.407135009766,44.9645805358887,0.936909854412079,-0.103728644549847,-0.0400612913072109,0.138308584690094,-0.104434660908044,-0.0449353170220673,0.0637975046779765,4
0.44000244140625,-0.0779823884367943,2.93501996994019,1.15002751350403,-0.077483988232608,2.93247718495301,1.19068064394622,2264.228,2253.124,2219.487,2254.489,357.282470703125,44.9632873535156,0.965966463088989,-0.112781591713428,-0.0443137139081955,0.14981871843338,-0.113620829717891,-0.048887868829098,0.0694091918565748,4
0.459999084472656,-0.0804260224103928,2.93404412269592,1.15323317050934,-0.0798502821969742,2.93145903476675,1.19212617600376,2214.824,2240.119,2249.441,2243.824,357.138122558594,44.9624671936035,0.998976349830627,-0.122181750833988,-0.0487893931567669,0.160284370183945,-0.123096124252221,-0.0529648233581361,0.075197501428542,4
0.480003356933594,-0.0830658078193665,2.93297362327576,1.15662884712219,-0.0824098964715798,2.93035770425173,1.19368980442212,2177.579,2225.355,2270.945,2235.479,357.009002685547,44.9625930786133,1.03392493724823,-0.131989300251007,-0.0535276047885418,0.169783800840378,-0.132856662250146,-0.057164510180779,0.0811600617812823,4
0.5,-0.0859091877937317,2.93180394172668,1.160196185112,-0.085166398670376,2.92917165836334,1.195373708601,2168.144,2213.105,2266.164,2227.275,356.920989990234,44.9636535644531,1.06800675392151,-0.142168968915939,-0.0584834255278111,0.178366810083389,-0.142884000065179,-0.0614789935111996,0.0872856059789651,5
0.520004272460938,-0.0889615267515182,2.93053293228149,1.16391909122467,-0.088127196023106,2.92789770997757,1.19718241350145,2182.451,2204.207,2237.943,2219.582,356.876068115234,44.9653816223145,1.09928798675537,-0.152617022395134,-0.0635558143258095,0.186145082116127,-0.153174893518032,-0.065906877469682,0.0935721522030874,5
0.540000915527344,-0.0922259241342545,2.92916011810303,1.16778314113617,-0.0912951145137283,2.92653464315245,1.19911764547298,2208.038,2199.545,2198.496,2211.549,356.855590820313,44.9672584533691,1.12742567062378,-0.163220033049583,-0.0686443001031876,0.193203046917915,-0.163710711144578,-0.0704401454577151,0.100008318782952,5
0.55999755859375,-0.0957042127847672,2.92768621444702,1.17177653312683,-0.094676112580471,2.92507989413848,1.20118304443252,2224.505,2196.368,2169.281,2204.657,356.830932617188,44.9688758850098,1.15339314937592,-0.173914298415184,-0.0736985132098198,0.199670493602753,-0.17448465888317,-0.0750758741803766,0.106589955332319,5
0.580001831054688,-0.0993983745574951,2.92611145973206,1.17588889598846,-0.0982762614093182,2.92353085067394,1.20338231917284,2222.485,2193.792,2160.694,2198.358,356.781951904297,44.9700469970703,1.17853498458862,-0.184708073735237,-0.0787363946437836,0.205620154738426,-0.185490414529404,-0.0798113433697334,0.113313199715174,5
0.599998474121094,-0.103311643004417,2.92443490028381,1.18011152744293,-0.102097262171133,2.92188678079254,1.2057165089127,2202.716,2190.567,2172.62,2193.109,356.705810546875,44.9708862304688,1.20398712158203,-0.195663794875145,-0.0838227346539497,0.211134403944016,-0.196709126405959,-0.0846384416756885,0.120166535736014,5
0.620002746582031,-0.107448726892471,2.92265439033508,1.18443739414215,-0.106146271928021,2.92014460501038,1.20818998578963,2174.68,2185.76,2195.546,2189.526,356.616363525391,44.9717292785645,1.22988533973694,-0.206853806972504,-0.0890263766050339,0.216294541954994,-0.208139001499973,-0.0895563976148993,0.127148868071264,5
0.639999389648438,-0.111814975738525,2.92076683044434,1.1888599395752,-0.110424235525481,2.91830391678686,1.21080332699501,2155.033,2181.618,2211.71,2186.199,356.5361328125,44.972827911377,1.25558125972748,-0.218313068151474,-0.0943795591592789,0.221129879355431,-0.219761081350814,-0.0945570538913933,0.134248615293163,5
0.660003662109375,-0.116415426135063,2.9187695980072,1.19337439537048,-0.114938248900541,2.91636166293851,1.21356086732604,2150.12,2177.855,2213.904,2184.14,356.480834960938,44.9743919372559,1.28017342090607,-0.230022236704826,-0.0998616442084312,0.225723773241043,-0.231574097577923,-0.0996398647564507,0.141465002567821,5
0.680000305175781,-0.121253773570061,2.91666126251221,1.19797646999359,-0.119688496929273,2.91431776391831,1.21646271972064,2162.209,2176.558,2198.951,2181.908,356.45361328125,44.9762840270996,1.30301451683044,-0.241917625069618,-0.105413876473904,0.230103567242622,-0.243559016194652,-0.104796640417365,0.148786402329814,5
0.700004577636719,-0.126332357525826,2.91444182395935,1.20266354084015,-0.124682034788652,2.91216918408072,1.21951319407631,2179.775,2176.058,2178.633,2180.801,356.442565917969,44.978271484375,1.3240373134613,-0.253929883241653,-0.110973075032234,0.234354600310326,-0.255715062526221,-0.110027047553219,0.156212341342407,5
0.720001220703125,-0.131652653217316,2.91211175918579,1.20743346214294,-0.129918284978346,2.90991617190799,1.22271193760712,2194.497,2177.199,2161.552,2179.412,356.431030273438,44.9800605773926,1.34364032745361,-0.266015261411667,-0.116504065692425,0.23849481344223,-0.268023157655716,-0.11532287703907,0.163731164592979,5
0.739997863769531,-0.137216165661812,2.90967154502869,1.21228539943695,-0.135402141159277,2.90755662179454,1.22606193977416,2195.985,2177.518,2159.054,2179.139,356.404998779297,44.9815139770508,1.36243391036987,-0.278175741434097,-0.122013717889786,0.242596670985222,-0.280478211503383,-0.120681938755799,0.171339762631236,5
0.760002136230469,-0.143025070428848,2.90712070465088,1.21721875667572,-0.14113868194985,2.90508834855275,1.22956630302617,2186.773,2177.85,2168.714,2178.732,356.362701416016,44.9826545715332,1.3807293176651,-0.290445655584335,-0.127540156245232,0.246665999293327,-0.293075466693575,-0.12610218573757,0.179035229250634,5
0.779998779296875,-0.149082392454147,2.90445828437805,1.22223353385925,-0.147126184485884,2.90251209348295,1.2332239748923,2173.205,2178.008,2183.999,2178.568,356.312438964844,44.9836502075195,1.39872777462006,-0.302866369485855,-0.133125886321068,0.250738620758057,-0.305795832832518,-0.131575403921268,0.186805902427515,5
0.800003051757813,-0.155391588807106,2.90168237686157,1.22733080387115,-0.153371683173492,2.89982482987671,1.23703925258147,2161.833,2177.171,2198.036,2179.51,356.266937255859,44.9847564697266,1.41607630252838,-0.315459907054901,-0.138792872428894,0.254863262176514,-0.318639638509124,-0.13710173468952,0.194651982891718,5
0.819999694824219,-0.161955833435059,2.89879179000854,1.23251128196716,-0.159872691993147,2.89702762739878,1.24101061742316,2161.587,2177.844,2200.897,2179.859,356.237396240234,44.9860725402832,1.43226456642151,-0.328212112188339,-0.144530534744263,0.259026139974594,-0.331587821991737,-0.142672976311719,0.202561826128828,5
0.840003967285156,-0.168777540326118,2.89578580856323,1.23777711391449,-0.166636266402775,2.89411745028271,1.2451423794865,2169.257,2178.399,2195.674,2181.33,356.225128173828,44.9875793457031,1.44694972038269,-0.341084599494934,-0.150303959846497,0.263290166854858,-0.344641102544584,-0.148289438267168,0.210535871526136,5
0.860000610351563,-0.175858110189438,2.89266443252563,1.2431298494339,-0.173659158941841,2.89109569582005,1.24943255494854,2183.186,2180.759,2183.679,2182.102,356.224517822266,44.9890975952148,1.46005427837372,-0.354029506444931,-0.156073451042175,0.267636895179749,-0.357780475378537,-0.153942943326036,0.218562509354528,5
0.879997253417969,-0.18319845199585,2.88942813873291,1.24857223033905,-0.180945630646592,2.88796053060595,1.25388374680983,2192.916,2182.532,2176.096,2183.835,356.22412109375,44.9904594421387,1.47185468673706,-0.367017567157745,-0.16181555390358,0.272120773792267,-0.371001963495383,-0.159631780297098,0.226639310127856,5
0.900001525878906,-0.190799325704575,2.88607740402222,1.25410664081573,-0.188500167066783,2.88471002463366,1.25849869522271,2196.57,2184.812,2174.92,2185.057,356.21630859375,44.9915466308594,1.48259568214417,-0.380043655633926,-0.167532324790955,0.276721656322479,-0.384301823631742,-0.165354338558695,0.234763987144933,5
0.919998168945313,-0.198661834001541,2.88261246681213,1.25973570346832,-0.196318384305134,2.8813460641717,1.26327472213274,2193.615,2186.98,2180.932,2186.238,356.198974609375,44.9923477172852,1.49274528026581,-0.39312469959259,-0.173245325684547,0.2814562022686,-0.397661187980262,-0.171102499820431,0.242925014356675,5
0.94000244140625,-0.206787526607513,2.8790328502655,1.26546275615692,-0.204407453948074,2.87786556348678,1.26821620855017,2185.302,2187.585,2193.148,2188.335,356.176055908203,44.9930572509766,1.50232315063477,-0.406285017728806,-0.17898066341877,0.286354154348373,-0.411081631631503,-0.176876941799768,0.251123353961324,5
0.959999084472656,-0.215178221464157,2.87533783912659,1.27129030227661,-0.212762239776093,2.87427073255068,1.27332001683864,2180.644,2189.106,2201.754,2189.544,356.156616210938,44.9937553405762,1.51106452941895,-0.419534653425217,-0.184752658009529,0.291377335786819,-0.424544411524882,-0.18266959988136,0.259347556115652,5
0.980003356933594,-0.223835527896881,2.87152671813965,1.2772216796875,-0.221389982382338,2.87055845593844,1.27859057016353,2179.586,2189.711,2206.81,2191.724,356.146453857422,44.9945983886719,1.51867783069611,-0.432866036891937,-0.190556079149246,0.296570897102356,-0.438051398499298,-0.18848127903492,0.267598763685948,5
1,-0.232760533690453,2.86759924888611,1.28325963020325,-0.230284798736574,2.86673126495361,1.28402427467346,2186.437,2191.92,2203.241,2192.935,356.148254394531,44.9955062866211,1.52490985393524,-0.446250557899475,-0.196369424462318,0.301894932985306,-0.451584000205995,-0.194303979492187,0.275865618896484,5
1.02000427246094,-0.241953700780869,2.86355590820313,1.28940749168396,-0.239454009753966,2.86278600961093,1.28962560260127,2194.203,2193.371,2198.522,2195.11,356.157470703125,44.9964294433594,1.52977764606476,-0.459657937288284,-0.202167496085167,0.307394981384277,-0.465144357597929,-0.200138622445408,0.284149429622012,5
1.04000091552734,-0.251414984464645,2.85939717292786,1.2956680059433,-0.24889099213045,2.8587255397331,1.29539050787386,2202.777,2196.125,2192.48,2196.297,356.168609619141,44.9972076416016,1.53340590000153,-0.473063230514526,-0.207934007048607,0.31302747130394,-0.478714054341683,-0.205977283860805,0.292438945611829,5
1.05999755859375,-0.261144161224365,2.85512375831604,1.30204463005066,-0.258599401509697,2.85454828239877,1.3013212236669,2204.84,2197.523,2193.261,2198.386,356.175201416016,44.9978179931641,1.53608000278473,-0.486461102962494,-0.213668376207352,0.3188316822052,-0.492290296490434,-0.211818761581115,0.30073246008742,5
1.08000183105469,-0.271141320466995,2.85073614120483,1.30853998661041,-0.268583149539609,2.85025255453512,1.30742013954506,2203.459,2199.291,2197.537,2199.708,356.176696777344,44.9982376098633,1.53783309459686,-0.499857783317566,-0.219383060932159,0.324765026569366,-0.50587040849135,-0.217661904390701,0.309028338595312,5
1.09999847412109,-0.281406581401825,2.84623432159424,1.31515657901764,-0.278834517009062,2.84584167750307,1.31368253996271,2200.453,2201.024,2203.495,2200.858,356.175598144531,44.9985237121582,1.53892600536346,-0.513264000415802,-0.225093305110931,0.330832183361053,-0.519436284009554,-0.223498921639497,0.317315520258069,5
1.12000274658203,-0.291940301656723,2.84161806106567,1.32189762592316,-0.289361068555186,2.84131239645058,1.32011304603864,2196.051,2201.308,2211.128,2202.836,356.175842285156,44.9988403320313,1.53924286365509,-0.526685833930969,-0.230807766318321,0.337052047252655,-0.532990631455731,-0.229330978680957,0.325595659601518,5
1.13999938964844,-0.302742630243301,2.83688759803772,1.3287650346756,-0.300154365346813,2.83666834237095,1.32670650262257,2196.978,2202.87,2212.899,2203.669,356.182708740234,44.9991874694824,1.53854978084564,-0.540114521980286,-0.236523628234863,0.34337192773819,-0.546515580872639,-0.235150386571708,0.333857840147634,5
1.16000366210938,-0.313813269138336,2.83204293251038,1.33576166629791,-0.311222084148811,2.83190621216671,1.33346759933036,2199.196,2203.259,2213.216,2205.536,356.196594238281,44.9996185302734,1.53671216964722,-0.553533673286438,-0.242227926850319,0.349834322929382,-0.560014026276883,-0.240958390526247,0.342103829805999,6
1.18000030517578,-0.325151681900024,2.82708477973938,1.34288930892944,-0.322555076427271,2.82702994219644,1.34039074746542,2205.669,2205.238,2208.523,2206.112,356.216674804688,45.0000343322754,1.53365802764893,-0.566918849945068,-0.247904196381569,0.356380581855774,-0.573468357077025,-0.246747413199059,0.350322870541114,6
1.19999694824219,-0.336756765842438,2.82201385498047,1.35015046596527,-0.334156660511822,2.8220381046756,1.34747797414352,2209.177,2205.858,2206.747,2207.768,356.237976074219,45.000373840332,1.52952635288239,-0.580254375934601,-0.253541320562363,0.363056272268295,-0.58687652428584,-0.252516572968185,0.358513710658656,6
1.22000122070313,-0.348627358675003,2.81683111190796,1.35754656791687,-0.346030421585499,2.81692915700008,1.35473146949704,2211.534,2207.24,2205.797,2208.441,356.258239746094,45.0005912780762,1.52429974079132,-0.593530774116516,-0.2591373026371,0.369806826114655,-0.600236516861372,-0.258265004538453,0.366675121644476,6
1.23999786376953,-0.360762357711792,2.81153726577759,1.36507928371429,-0.358166167196084,2.81170748469733,1.36214500711597,2211.902,2208.745,2206.666,2208.894,356.275939941406,45.0006637573242,1.51837682723999,-0.606748223304749,-0.264697790145874,0.376637190580368,-0.613531154887641,-0.263985315871967,0.374796608555988,6
1.26000213623047,-0.373160570859909,2.80613255500793,1.37275063991547,-0.370571882958536,2.80636965178032,1.36972346528788,2208.045,2208.531,2212.081,2210.28,356.291381835938,45.0006942749023,1.51180040836334,-0.619912624359131,-0.270231246948242,0.383567035198212,-0.626763698705669,-0.269678909802388,0.382880163084648,6
1.27999877929688,-0.38582107424736,2.80061769485474,1.38056135177612,-0.383236695417198,2.80092033679326,1.37746020158837,2206.704,2209.54,2214.595,2210.329,356.308563232422,45.0006866455078,1.50445926189423,-0.633023917675018,-0.27574348449707,0.390533119440079,-0.639917282339435,-0.275338529371412,0.39091548206889,6
1.30000305175781,-0.398742616176605,2.79499292373657,1.38851296901703,-0.396168722856641,2.79535604666509,1.38536017535082,2204.604,2208.975,2217.921,2211.543,356.329254150391,45.0007629394531,1.49625766277313,-0.646078705787659,-0.281233191490173,0.397581875324249,-0.652995275331231,-0.280965624398954,0.398904623909522,6
1.31999969482422,-0.411923885345459,2.78925919532776,1.39660584926605,-0.409356423791328,2.7896817473746,1.39341633606181,2207.306,2210.006,2215.769,2211.324,356.355773925781,45.0008316040039,1.48705291748047,-0.659061670303345,-0.286691963672638,0.404646217823029,-0.665981146317813,-0.286553081901244,0.406837489854705,6
1.34000396728516,-0.425363063812256,2.78341698646545,1.40484142303467,-0.422808053134535,2.78389388706324,1.40163372651904,2208.818,2209.575,2214.72,2212.311,356.386047363281,45.0009460449219,1.47686052322388,-0.671958744525909,-0.292108863592148,0.411776453256607,-0.678878353700697,-0.292102389931837,0.414716192587956,6
1.36000061035156,-0.439058125019073,2.77746748924255,1.4132194519043,-0.436511415158101,2.77799771321212,1.41000489654248,2212.74,2210.729,2210.649,2211.819,356.418914794922,45.0009765625,1.46571528911591,-0.684753596782684,-0.297475248575211,0.418903887271881,-0.691670720740693,-0.297606588091785,0.422530849991739,6
1.37999725341797,-0.453006953001022,2.77141165733337,1.42174100875854,-0.450469530727146,2.77199192602736,1.41853169153152,2212.459,2210.198,2210.9,2212.566,356.450836181641,45.0009613037109,1.45378863811493,-0.697440505027771,-0.302788227796555,0.426079958677292,-0.704356955827446,-0.303065120637236,0.430280673041441,6
1.40000152587891,-0.467207252979279,2.76525068283081,1.43040585517883,-0.464685685951852,2.76587511158757,1.42721611891956,2211.831,2210.424,2211.219,2212.275,356.482116699219,45.0008697509766,1.44097912311554,-0.710016131401062,-0.308050543069839,0.433244526386261,-0.716935713767318,-0.308477408768949,0.437964839979263,6
1.41999816894531,-0.481656849384308,2.7589852809906,1.43921387195587,-0.47914673136562,2.75965292774086,1.43605014590267,2211.044,2210.895,2211.473,2211.732,356.513092041016,45.0007171630859,1.42761516571045,-0.722480237483978,-0.313266336917877,0.440402776002884,-0.729391385793766,-0.313836736470737,0.445573815653291,6
1.44000244140625,-0.496353507041931,2.75261640548706,1.44816541671753,-0.493861275572861,2.75332167044526,1.44503903134294,2207.416,2209.669,2214.797,2212.231,356.544281005859,45.0005836486816,1.41367876529694,-0.734833657741547,-0.318438231945038,0.447578907012939,-0.741727567798258,-0.319144650954242,0.453109796737511,6
1.45999908447266,-0.511294901371002,2.74614500999451,1.45725953578949,-0.508815552717244,2.74688726276417,1.45417436589355,2207.398,2209.882,2214.021,2211.33,356.578704833984,45.0004577636719,1.39903259277344,-0.74707043170929,-0.323565661907196,0.454707115888596,-0.753929052770513,-0.324394609067776,0.460563493506643,6
1.48000335693359,-0.52647864818573,2.73957204818726,1.46649634838104,-0.524018315758597,2.74034593854351,1.46346149660107,2205.857,2208.513,2214.838,2211.654,356.616058349609,45.0003890991211,1.38362681865692,-0.759183645248413,-0.328643411397934,0.461838066577911,-0.765999459475408,-0.329588167864767,0.467937116607681,6
1.5,-0.541901767253876,2.7328987121582,1.47587442398071,-0.539455198877605,2.73370387899399,1.47289164761066,2208.13,2208.808,2211.241,2210.48,356.657348632813,45.0002899169922,1.36738312244415,-0.771160066127777,-0.333664417266846,0.468903094530106,-0.777924000354858,-0.334718964672088,0.475221632552146,6
1.52000427246094,-0.557561635971069,2.72612619400024,1.48539352416992,-0.555135099954955,2.72695725560613,1.48247025449879,2207.62,2207.522,2210.49,2210.571,356.700012207031,45.0002136230469,1.35038554668427,-0.78299081325531,-0.338622242212296,0.475956559181213,-0.789706299681991,-0.339788558913217,0.482419255351937,6
1.54000091552734,-0.573454976081848,2.71925592422485,1.49505209922791,-0.571043070329722,2.72011250037111,1.49218818536175,2209.2,2207.772,2207.167,2209.196,356.743957519531,45.0000648498535,1.3326770067215,-0.794666707515717,-0.343513667583466,0.482930064201355,-0.801332006385301,-0.344790775723006,0.489521218161413,6
1.55999755859375,-0.589578688144684,2.71228909492493,1.5048496723175,-0.587181951496087,2.71316839067337,1.50204717602401,2206.689,2206.243,2208.136,2209.169,356.786987304688,44.9999122619629,1.31437277793884,-0.806186020374298,-0.348338663578033,0.489878982305527,-0.812800388649436,-0.349725300221754,0.496527073925997,6
1.58000183105469,-0.605929553508759,2.70522713661194,1.51478445529938,-0.60355483331529,2.70612359703193,1.51204911403357,2205.044,2205.627,2207.987,2208.016,356.830657958984,44.9997253417969,1.29531311988831,-0.81754606962204,-0.353099465370178,0.496740847826004,-0.824110582941666,-0.354591760855452,0.503436295127019,6
1.59999847412109,-0.622504413127899,2.69807124137878,1.52485501766205,-0.620145926473056,2.69898491314762,1.52218435394475,2204.415,2205.39,2206.565,2206.636,356.875640869141,44.9995002746582,1.27582502365112,-0.828744113445282,-0.357796728610992,0.503525733947754,-0.835248923368005,-0.359384277571697,0.510240533483095,5
1.62000274658203,-0.639300048351288,2.69082260131836,1.53506028652191,-0.636964489205914,2.69174835545992,1.53245855146976,2201.208,2203.401,2207.925,2206.487,356.921569824219,44.9993476867676,1.25586485862732,-0.839777588844299,-0.362429082393646,0.510264933109283,-0.846218976345106,-0.364104384899943,0.516941967662505,5
1.63999938964844,-0.656312763690948,2.68348264694214,1.54539799690247,-0.653994195024907,2.68442094880091,1.54286173301126,2201.61,2203.057,2205.265,2204.755,356.970428466797,44.9991683959961,1.23532772064209,-0.850639164447784,-0.36699366569519,0.516886353492737,-0.857007552155828,-0.368746407673381,0.523532540272869,5
1.66000366210938,-0.673539280891418,2.67605304718018,1.5558670759201,-0.671244443874359,2.67699864863716,1.55339964084857,2199.493,2201.042,2205.229,2204.436,357.020904541016,44.9990539550781,1.21419906616211,-0.861323416233063,-0.371486008167267,0.523451387882233,-0.867618167158098,-0.373311858882592,0.530014399402375,5
1.68000030517578,-0.690975725650787,2.66853499412537,1.56646478176117,-0.688698391434734,2.66948870260877,1.56406198504972,2200.672,2200.707,2201.451,2202.551,357.073913574219,44.998893737793,1.19242787361145,-0.871821284294128,-0.375901967287064,0.529888153076172,-0.878038122530658,-0.377795274579551,0.536379787539275,5
1.69999694824219,-0.70861828327179,2.66093015670776,1.57718992233276,-0.706358800111611,2.66188992212981,1.57485045312518,2198.376,2198.711,2201.299,2202.046,357.127288818359,44.9987564086914,1.17008423805237,-0.882128059864044,-0.380238264799118,0.536257088184357,-0.888267004546665,-0.382196476749158,0.542628451944297,5
1.72000122070313,-0.726462960243225,2.65324020385742,1.58803987503052,-0.724228658537036,2.6542010212754,1.58576687078363,2197.463,2197.755,2199.495,2200.396,357.181915283203,44.9985961914063,1.14702272415161,-0.89223849773407,-0.384494245052338,0.542496979236603,-0.898304216251578,-0.386515208538549,0.548760027947228,5
1.73999786376953,-0.744506001472473,2.64546680450439,1.59901225566864,-0.742290383213093,2.64642956573347,1.59680049654058,2197.333,2197.257,2196.682,2198.504,357.237457275391,44.9983787536621,1.12364411354065,-0.902148544788361,-0.388668864965439,0.548620104789734,-0.908137821269591,-0.39074633405868,0.554767223802352,5
1.76000213623047,-0.762743055820465,2.63761162757874,1.61010551452637,-0.76055371708895,2.63857136338517,1.60795728221164,2193.715,2194.862,2197.592,2198.047,357.292694091797,44.9982223510742,1.09992575645447,-0.911857187747955,-0.392761528491974,0.554664671421051,-0.917771149318994,-0.394891285994308,0.560652073582612,4
1.77999877929688,-0.781170248985291,2.62967610359192,1.62131655216217,-0.779000609654483,2.63063418086074,1.61922620102184,2193.292,2194.192,2195.034,2195.85,357.349670410156,44.9980354309082,1.07578718662262,-0.921360850334167,-0.396772354841232,0.56055223941803,-0.927192788821983,-0.398945154262308,0.566407606133204,4
1.80000305175781,-0.799783408641815,2.62166213989258,1.63264358043671,-0.797640935141499,2.62261376955408,1.63061328498531,2189.76,2191.723,2195.739,2195.246,357.407379150391,44.9979095458984,1.05119574069977,-0.930657684803009,-0.400699526071548,0.566352963447571,-0.936405971974637,-0.402909329586356,0.572035795952272,4
1.81999969482422,-0.81857830286026,2.61357140541077,1.64408338069916,-0.816456197270346,2.61451808789761,1.64210723501345,2190.042,2191.05,2192.286,2192.926,357.467742919922,44.9977569580078,1.02609241008759,-0.939741432666779,-0.404540866613388,0.571989297866821,-0.945399824400851,-0.406779133026206,0.577530000053147,3
1.84000396728516,-0.837550461292267,2.60540556907654,1.65563404560089,-0.835456397410825,2.6063428325813,1.65371416078699,2187.271,2188.627,2191.997,2192.205,357.529083251953,44.9976463317871,1.00049412250519,-0.948607683181763,-0.40829262137413,0.577531695365906,-0.95417746870157,-0.410555908149813,0.582892125984018,3
1.86000061035156,-0.856695413589478,2.59716653823853,1.66729211807251,-0.854622615239374,2.59809614449182,1.66542250417552,2187.909,2188.049,2187.989,2189.705,357.592498779297,44.9974899291992,0.974438548088074,-0.957249581813812,-0.411952167749405,0.582901358604431,-0.962728579444532,-0.414235212212131,0.588115866099442,0
1.87999725341797,-0.876008749008179,2.58885622024536,1.67905557155609,-0.873957566090845,2.58977685529642,1.67723392393473,2184.879,2185.589,2187.777,2188.946,357.655944824219,44.9973754882813,0.947998702526093,-0.965664327144623,-0.415516972541809,0.588173747062683,-0.971053025860989,-0.417816988947023,0.593201140514831,0
1.90000152587891,-0.895485699176788,2.58047652244568,1.69092118740082,-0.893464153455626,2.58138371570432,1.68915019376158,2183.52,2184.203,2185.764,2186.928,357.720672607422,44.997241973877,0.920988380908966,-0.973848283290863,-0.418986767530441,0.593279302120209,-0.979150439632688,-0.421301079877433,0.598147724230311,0
1.91999816894531,-0.915121734142303,2.57202935218811,1.70288586616516,-0.913122862707269,2.57292512231409,1.7011593924753,2183.234,2183.356,2182.492,2184.648,357.786407470703,44.9970664978027,0.89378947019577,-0.981797933578491,-0.422360211610794,0.59823352098465,-0.987011339258123,-0.424683405378145,0.60294982514457,0
1.94000244140625,-0.934911847114563,2.56351661682129,1.71494746208191,-0.932943991899774,2.5643966441608,1.71326781099638,2179.403,2180.628,2182.96,2183.923,357.851806640625,44.996955871582,0.866346418857574,-0.989512324333191,-0.425636202096939,0.603080272674561,-0.994638524886308,-0.427965170275055,0.607609153824943,0
1.95999908447266,-0.954851627349854,2.55494022369385,1.7271021604538,-0.952907658613767,2.55580683609405,1.72546330346508,2178.986,2179.72,2179.853,2181.325,357.918762207031,44.9968070983887,0.838606536388397,-0.996988892555237,-0.428814947605133,0.607737123966217,-1.00202309041976,-0.431142542523221,0.612120269675456,0
1.98000335693359,-0.974936068058014,2.546302318573,1.73934781551361,-0.973024270010337,2.54715122020317,1.73775222745372,2175.172,2176.943,2180.241,2180.543,357.986114501953,44.9967231750488,0.810513854026794,-1.00422644615173,-0.431894779205322,0.612284064292908,-1.00916768936771,-0.434216663853535,0.616484793683489,0
2,-0.995160579681396,2.53760480880737,1.7516804933548,-0.993273599084619,2.53843849960327,1.75012222660065,2175.263,2176.068,2176.521,2177.85,358.055694580078,44.9966011047363,0.782035827636719,-1.01122033596039,-0.434874296188354,0.616635978221893,-1.01606400046349,-0.437183953857422,0.620697642517089,0
2.01999664306641,-1.01551973819733,2.52884984016418,1.76409792900085,-1.01365835337184,2.52966750931758,1.76257495489689,2171.998,2173.377,2176.219,2176.972,358.125793457031,44.9965362548828,0.753170251846313,-1.01796734333038,-0.437750428915024,0.620873808860779,-1.02271203275434,-0.440044416427654,0.624758821703072,0
2.04000091552734,-1.03600919246674,2.52003931999207,1.77659642696381,-1.0341813929022,2.52083701875502,1.77511215949027,2171.028,2171.951,2173.52,2174.659,358.197784423828,44.9964370727539,0.723758637905121,-1.02446305751801,-0.4405218064785,0.624923765659332,-1.02911152474823,-0.442797939051516,0.628668171500036,0
2.05999755859375,-1.05662322044373,2.51117563247681,1.78917264938354,-1.05482201812353,2.5119559343546,1.78772119534738,2171.167,2170.978,2169.538,2172.234,358.270874023438,44.9962882995605,0.694227457046509,-1.03070282936096,-0.443185776472092,0.628809988498688,-1.03525504859546,-0.445441325732794,0.632421154350513,0
2.08000183105469,-1.07735681533813,2.50226092338562,1.80182409286499,-1.07559088172821,2.50301967256038,1.80040857003175,2167.594,2168.204,2169.414,2171.362,358.34326171875,44.9962043762207,0.664530515670776,-1.03668522834778,-0.445740580558777,0.632574319839478,-1.04114485287423,-0.447975543971863,0.636019143875825,0
2.09999847412109,-1.0982049703598,2.49329710006714,1.81454682350159,-1.09646699912883,2.4940372624541,1.8131614643864,2167.108,2167.156,2166.162,2168.639,358.416412353516,44.9960899353027,0.634649276733398,-1.04240965843201,-0.448187470436096,0.636135637760162,-1.04677411523768,-0.450397658303471,0.63945797241075,0
2.12000274658203,-1.11916255950928,2.48428654670715,1.82733833789825,-1.11746110947495,2.48500408327971,1.82598643879021,2162.763,2164.284,2166.833,2167.761,358.489166259766,44.9960289001465,0.6045081615448,-1.04787647724152,-0.450526207685471,0.639574944972992,-1.05214490868305,-0.452708560680417,0.64273890631695,0
2.13999938964844,-1.14022421836853,2.47523140907288,1.84019446372986,-1.138551967509,2.47592927627801,1.83887051484687,2162.313,2163.262,2163.522,2164.948,358.563720703125,44.9959259033203,0.57408481836319,-1.05308413505554,-0.45275753736496,0.642806649208069,-1.05725102347782,-0.454905579228273,0.645858152165725,0
2.16000366210938,-1.16138482093811,2.46613359451294,1.85311269760132,-1.15975039167652,2.46680818657414,1.85182030137592,2158.631,2160.496,2163.437,2163.99,358.638793945313,44.9958953857422,0.543349742889404,-1.058030128479,-0.454878956079483,0.6459139585495,-1.0620943502576,-0.456989527434725,0.648816864916866,0
2.18000030517578,-1.1826388835907,2.45699596405029,1.8660888671875,-1.18103490068612,2.45765005696766,1.86482267579167,2158.962,2159.609,2159.281,2161.05,358.716003417969,44.9957962036133,0.512379348278046,-1.06271076202393,-0.456889092922211,0.648810386657715,-1.06666929835407,-0.458957999791384,0.651611629318345,0
2.19999694824219,-1.20398128032684,2.44782018661499,1.87912058830261,-1.20240821395574,2.44845371736898,1.8778792993441,2155.819,2156.801,2158.574,2160.176,358.793334960938,44.9957618713379,0.481166034936905,-1.06712281703949,-0.458784461021423,0.651585340499878,-1.07097597819164,-0.460811043810786,0.654242512826705,0
2.22000122070313,-1.22540664672852,2.43860864639282,1.89220368862152,-1.22387315175433,2.43921795429519,1.89099189489151,2154.646,2155.223,2155.951,2157.764,358.871887207031,44.9957046508789,0.449541807174683,-1.0712639093399,-0.460564732551575,0.654158174991608,-1.07501419914593,-0.462548577472581,0.656709398992482,0
2.23999786376953,-1.24690914154053,2.42936420440674,1.90533483028412,-1.24540792547886,2.42995214277345,1.90414715211632,2154.583,2154.165,2152.077,2155.196,358.950988769531,44.9955978393555,0.417930990457535,-1.07513117790222,-0.462228268384933,0.656554400920868,-1.07877930973132,-0.464168599372462,0.659009446295705,0
2.26000213623047,-1.26848375797272,2.42008876800537,1.91851127147675,-1.26702351885107,2.42065155681516,1.91735178080271,2150.665,2151.238,2152.122,2154.382,359.029022216797,44.9955596923828,0.386226058006287,-1.07872462272644,-0.463774442672729,0.658822953701019,-1.08227271937422,-0.465671715947234,0.661143515732969,0
2.27999877929688,-1.2901246547699,2.41078472137451,1.93172872066498,-1.28869796983554,2.41132564607061,1.93059236468599,2149.947,2150.105,2149.073,2151.52,359.107666015625,44.995475769043,0.354402542114258,-1.08204555511475,-0.465205490589142,0.660874366760254,-1.08549040888332,-0.467056197851165,0.663109152043028,0
2.30000305175781,-1.31182646751404,2.40145421028137,1.94498467445374,-1.31044231452835,2.40196966201596,1.94387564554502,2145.583,2147.25,2149.595,2150.603,359.185943603516,44.9954681396484,0.322365134954453,-1.08509409427643,-0.466521084308624,0.662796914577484,-1.08843358680109,-0.468322565086307,0.664907093505606,0
2.31999969482422,-1.33358383178711,2.39209985733032,1.9582747220993,-1.33223444283894,2.39259311800549,1.9571881166705,2145.305,2146.258,2146.089,2147.623,359.265991210938,44.9954032897949,0.290169060230255,-1.08786976337433,-0.46772226691246,0.664501249790192,-1.09109887036509,-0.469469362144493,0.666535273643923,0
2.34000396728516,-1.35539138317108,2.38272380828857,1.9715963602066,-1.35408543512393,2.38319124647132,1.97053654687939,2141.752,2143.437,2145.737,2146.749,359.346374511719,44.9953918457031,0.257762968540192,-1.0903697013855,-0.468805819749832,0.666079699993134,-1.09348726343002,-0.470497020956358,0.667994305697154,0
2.36000061035156,-1.37724304199219,2.37332844734192,1.98494517803192,-1.37597305876702,2.37377361348711,1.98390735461333,2142.247,2142.448,2141.453,2143.771,359.428527832031,44.9953346252441,0.225214183330536,-1.09259176254272,-0.469771236181259,0.667438566684723,-1.09559602313537,-0.471404361345641,0.669282514094601,0
2.37999725341797,-1.39913380146027,2.36391592025757,1.99831855297089,-1.39790005743958,2.36433903852774,1.99730221593832,2139.015,2139.763,2140.765,2142.785,359.510314941406,44.9953155517578,0.192521169781685,-1.09453296661377,-0.470615088939667,0.668668031692505,-1.09742530100382,-0.472191448508328,0.67039999139912,0
2.40000152587891,-1.42105770111084,2.35448932647705,2.01171231269836,-1.4198692197338,2.35488632173988,2.01072283436184,2137.699,2138.114,2138.294,2140.426,359.592895507813,44.9952926635742,0.159545361995697,-1.09619343280792,-0.471338510513306,0.669694006443024,-1.09897493039424,-0.472858210743393,0.671346635812238,0
2.41999816894531,-1.4430091381073,2.345050573349,2.02512311935425,-1.44185817738692,2.34542508756209,2.02415554546122,2137.632,2136.97,2134.493,2137.873,359.675720214844,44.9952125549316,0.126672253012657,-1.09757137298584,-0.471940666437149,0.670538485050201,-1.10024313330221,-0.473403883025206,0.672121361178802,0
2.44000244140625,-1.46498250961304,2.3356020450592,2.0385479927063,-1.46387808506052,2.33595053645515,2.03760716344514,2133.497,2134.145,2134.737,2137.013,359.757171630859,44.9952125549316,0.0937804356217384,-1.09866726398468,-0.472420990467072,0.671249806880951,-1.10123038958312,-0.473828671822132,0.672724460634977,0
2.45999908447266,-1.48697221279144,2.32614612579346,2.05198287963867,-1.48590651627916,2.32647231790489,2.05106398832971,2132.854,2133.029,2131.702,2134.117,359.839172363281,44.9951667785645,0.06090072914958,-1.09948432445526,-0.472782909870148,0.671741306781769,-1.10193556692257,-0.474132089930926,0.673155242467576,0
2.48000335693359,-1.50897264480591,2.31668591499329,2.06542491912842,-1.50795464064698,2.31698562594271,2.06453284345182,2128.553,2130.218,2132.137,2133.282,359.920654296875,44.9951934814453,0.0279124416410923,-1.10002219676971,-0.473025411367416,0.672104179859161,-1.10235893238473,-0.47431425226183,0.67341386982192,0
2.5,-1.53097820281982,2.30722284317017,2.07886981964111,-1.52999999932945,2.30750012397766,2.0780000090599,2128.566,2129.1,2128.47,2130.411,0.00371694867499173,44.9951591491699,-0.00515872240066528,-1.10028207302094,-0.473150134086609,0.672247767448425,-1.10250000050292,-0.474374949932098,0.673500046133994,0
2.51999664306641,-1.55298352241516,2.29775977134705,2.09231495857239,-1.55204535801192,2.29801462201262,2.09146717466799,2125.063,2126.501,2128.104,2129.42,0.0867414698004723,44.9951782226563,359.961639404297,-1.10026061534882,-0.473153591156006,0.672258675098419,-1.10235893238473,-0.47431425226183,0.67341386982192,0
2.54000091552734,-1.57498252391815,2.28829908370972,2.1057562828064,-1.57409348237975,2.28852793005043,2.10493602979009,2124.154,2124.887,2125.325,2127.088,0.171105101704597,44.9951705932617,359.928161621094,-1.09995794296265,-0.473036587238312,0.672066628932953,-1.10193556692257,-0.474132089930926,0.673155242467576,0
2.55999755859375,-1.59697008132935,2.27884292602539,2.11918997764587,-1.59612191359838,2.27904971150017,2.11839285467467,2124.655,2123.901,2121.081,2124.428,0.255985826253891,44.9951057434082,359.894897460938,-1.09937083721161,-0.472796618938446,0.671690344810486,-1.10123038958312,-0.473828671822132,0.672724460634977,0
2.58000183105469,-1.61893999576569,2.26939463615417,2.13261365890503,-1.61814182127198,2.26957516039323,2.13184447265859,2121.021,2121.121,2120.85,2123.712,0.339294880628586,44.9951210021973,359.861724853516,-1.09849882125854,-0.472432166337967,0.671187341213226,-1.10024313330221,-0.473403883025206,0.672121361178803,0
2.59999847412109,-1.64088678359985,2.25995564460754,2.14602303504944,-1.64013077892511,2.26011392621545,2.14527718375796,2120.764,2119.946,2117.595,2120.908,0.422529101371765,44.9950981140137,359.828643798828,-1.09734678268433,-0.471947073936462,0.670464873313904,-1.09897493039424,-0.472858210743393,0.671346635812239,0
2.62000274658203,-1.6628053188324,2.25052881240845,2.15941524505615,-1.66209994121933,2.25066120942759,2.15869780218149,2116.287,2117.301,2118.288,2120.052,0.504370808601379,44.9951400756836,359.795501708984,-1.09591495990753,-0.471341460943222,0.66961258649826,-1.09742530100382,-0.472191448508328,0.67039999139912,0
2.63999938964844,-1.68468940258026,2.24111652374268,2.17278623580933,-1.68402693989188,2.24122663446822,2.17209266350648,2115.754,2116.228,2115.328,2117.229,0.587094247341156,44.9951248168945,359.762390136719,-1.09420788288116,-0.470619171857834,0.668544471263885,-1.09559602313537,-0.471404361345641,0.669282514094601,0
2.66000366210938,-1.70653390884399,2.23172092437744,2.18613314628601,-1.70592290617745,2.23180541187802,2.18546856763052,2112.046,2113.685,2115.248,2116.369,0.669631898403168,44.9951591491699,359.729217529297,-1.09222316741943,-0.469777971506119,0.667348265647888,-1.09348640563071,-0.470496651869278,0.667993781680938,0
2.68000030517578,-1.7283331155777,2.22234439849854,2.19945192337036,-1.72776555581996,2.22240712994983,2.19881190144931,2112.477,2112.749,2111.371,2113.458,0.75357973575592,44.9951362609863,359.696166992188,-1.08996248245239,-0.468818962574005,0.665935516357422,-1.09109887036509,-0.469469362144494,0.666535273643922,0
2.69999694824219,-1.75008153915405,2.21298980712891,2.21273994445801,-1.74955768413056,2.21303058593937,2.21212437257479,2109.459,2110.214,2110.63,2112.67,0.837042152881622,44.9951629638672,359.663116455078,-1.08742201328278,-0.467738300561905,0.664399445056915,-1.08843358680109,-0.468322565086308,0.664907093505606,0
2.72000122070313,-1.77177357673645,2.20365905761719,2.22599315643311,-1.77130202882336,2.20367460188472,2.22540765343382,2108.69,2108.626,2107.964,2110.432,0.921019852161407,44.995174407959,359.629974365234,-1.08460450172424,-0.466537684202194,0.662662267684937,-1.08549040888332,-0.467056197851165,0.663109152043028,0
2.73999786376953,-1.79340386390686,2.19435477256775,2.23920798301697,-1.79297647980783,2.19434869114016,2.23864823731709,2108.864,2107.633,2104.325,2107.902,1.00468003749847,44.9951400756836,359.59716796875,-1.0815087556839,-0.465216249227524,0.660746037960052,-1.08227271937422,-0.465671715947234,0.661143515732969,0
2.76000213623047,-1.81496644020081,2.18507933616638,2.2523820400238,-1.81459207318004,2.18504810518187,2.25185286600349,2105.046,2104.993,2104.451,2107.298,1.08634412288666,44.995174407959,359.564483642578,-1.07813572883606,-0.463773816823959,0.658707737922668,-1.07877930973132,-0.464168599372462,0.659009446295705,0
2.77999877929688,-1.83645617961884,2.17583513259888,2.26551103591919,-1.83612684690458,2.17578229366013,2.2650081232283,2104.522,2103.989,2101.743,2104.486,1.16774678230286,44.995174407959,359.532012939453,-1.07449269294739,-0.462215662002563,0.656452894210815,-1.07501419914593,-0.462548577472581,0.656709398992482,0
2.80000305175781,-1.85786783695221,2.16662406921387,2.27859258651733,-1.85759178470316,2.16654653058634,2.2781207187757,2100.303,2101.436,2102.331,2103.871,1.24792754650116,44.9952430725098,359.499572753906,-1.07057929039001,-0.460541397333145,0.654080033302307,-1.07097597819164,-0.460811043810786,0.654242512826704,0
2.81999969482422,-1.87919580936432,2.15744924545288,2.29162240028381,-1.87896509797278,2.15735019098767,2.29117734232814,2100.071,2100.532,2099.38,2101.039,1.32900178432465,44.9952354431152,359.467315673828,-1.06640112400055,-0.458754807710648,0.651492834091187,-1.06666929835407,-0.458957999791384,0.651611629318345,0
2.83999633789063,-1.90043497085571,2.14831185340881,2.30459809303284,-1.90024960698239,2.14819206138118,2.30417971674389,2096.92,2098.072,2098.944,2100.422,1.40977382659912,44.9952850341797,359.435119628906,-1.06195461750031,-0.456852644681931,0.648790180683136,-1.06209435025759,-0.456989527434725,0.648816864916866,0
2.86000061035156,-1.92157959938049,2.13921546936035,2.31751585006714,-1.9214480311499,2.13907097167731,2.31712950327294,2096.196,2096.775,2096.465,2098.083,1.49143707752228,44.9953155517578,359.402893066406,-1.0572429895401,-0.454836547374725,0.645886778831482,-1.05725102347782,-0.454905579228273,0.645858152165725,0
2.87999725341797,-1.94262480735779,2.13016128540039,2.33037233352661,-1.94253888918396,2.12999616467562,2.3300135793296,2097.066,2095.746,2092.373,2095.81,1.5732204914093,44.9952812194824,359.37109375,-1.05226373672485,-0.452704250812531,0.642819285392761,-1.05214490868305,-0.452708560680416,0.642738906316949,0
2.90000152587891,-1.96356534957886,2.12115216255188,2.34316492080688,-1.96353299953007,2.12096298550123,2.34283855373341,2093.896,2093.371,2092.063,2095.171,1.65294098854065,44.9953231811523,359.339538574219,-1.04701685905457,-0.450454145669937,0.639630615711212,-1.04677411523767,-0.450397658303471,0.63945797241075,0
2.91999816894531,-1.98439526557922,2.11219000816345,2.35588979721069,-1.98440911693069,2.11198057539494,2.35559144808806,2093.682,2092.306,2089.318,2092.631,1.73185515403748,44.9953384399414,359.308288574219,-1.04151046276093,-0.448091715574265,0.63623982667923,-1.04114485287423,-0.447975543971863,0.636019143875825,0
2.94000244140625,-2.00511050224304,2.10327768325806,2.36854434013367,-2.00517798053537,2.10304431360073,2.36827882277243,2089.665,2090.077,2089.939,2091.925,1.80884993076324,44.9954032897949,359.277221679688,-1.03574526309967,-0.445617288351059,0.632731080055237,-1.03525504859546,-0.445441325732794,0.632421154350513,0
2.95999908447266,-2.02570509910583,2.09441685676575,2.38112497329712,-2.02581860575671,2.0941632292003,2.38088785862954,2089.168,2089.026,2087.515,2089.506,1.88596570491791,44.9954376220703,359.246368408203,-1.02972877025604,-0.44303622841835,0.629027843475342,-1.02911152474823,-0.442797939051516,0.628668171500036,0
2.98000335693359,-2.04617428779602,2.08560991287231,2.39362907409668,-2.04634164528706,2.08533273863774,2.39342506322291,2085.767,2086.955,2087.574,2088.739,1.96235525608063,44.9955062866211,359.215667724609,-1.02345931529999,-0.44034680724144,0.62520569562912,-1.02271203275434,-0.440044416427654,0.624758821703072,0
3,-2.06651306152344,2.07685899734497,2.40605282783508,-2.06672639957428,2.07656174835205,2.40587779151916,2086.309,2086.143,2084.202,2086.158,2.03953981399536,44.9955024719238,359.185272216797,-1.01694190502167,-0.437551617622375,0.621189475059509,-1.01606400046349,-0.437183953857422,0.620697642517089,0
3.01999664306641,-2.08671617507935,2.06816625595093,2.41839408874512,-2.08697572864857,2.06784902775215,2.41824779066609,2083.75,2083.98,2083.495,2085.603,2.11579966545105,44.9955596923828,359.155120849609,-1.01017284393311,-0.434647053480148,0.617066204547882,-1.00916768936771,-0.434216663853534,0.616484793683489,0
3.04000091552734,-2.1067795753479,2.05953359603882,2.4306492805481,-2.10709234004513,2.05919341186127,2.43053671465473,2083.265,2082.723,2081.17,2083.546,2.1919481754303,44.9955902099609,359.125152587891,-1.00315773487091,-0.431635975837708,0.61275976896286,-1.00202309041976,-0.43114254252322,0.612120269675456,0
3.05999755859375,-2.12669730186462,2.05096292495728,2.44281530380249,-2.12705600675913,2.05060360379452,2.44273220712343,2083.491,2081.77,2078.121,2081.502,2.2671754360199,44.9955863952637,359.095703125,-0.995896697044373,-0.428517878055573,0.608301639556885,-0.994638524886308,-0.427965170275055,0.607609153824944,0
3.08000183105469,-2.14646530151367,2.04245710372925,2.45489001274109,-2.14687713595163,2.04207512564123,2.45484062564451,2080.28,2079.73,2078.207,2080.905,2.34004139900208,44.9956512451172,359.066650390625,-0.988391876220703,-0.425293147563934,0.603731453418732,-0.987011339258122,-0.424683405378145,0.60294982514457,0
3.09999847412109,-2.16607809066772,2.03401803970337,2.46686959266663,-2.16653584520328,2.033616532251,2.46684982435823,2079.897,2078.698,2076.019,2078.713,2.41199517250061,44.9956893920898,359.037994384766,-0.980652809143066,-0.421967953443527,0.598980605602264,-0.979150439632689,-0.421301079877433,0.598147724230312,0
3.12000274658203,-2.18553161621094,2.02564716339111,2.47875213623047,-2.18604243256806,2.0252233926589,2.47876609418508,2076.371,2076.71,2076.516,2078.162,2.48224496841431,44.995777130127,359.009582519531,-0.972680032253265,-0.418542176485062,0.594122529029846,-0.971053025860989,-0.417816988947023,0.593201140514831,0
3.13999938964844,-2.20482158660889,2.01734662055969,2.49053382873535,-2.20537738341953,2.01690410346351,2.49057751394429,2076.208,2076,2074.18,2075.767,2.55255794525146,44.9958152770996,358.981567382813,-0.964481592178345,-0.415020942687988,0.58908224105835,-0.962728579444533,-0.414235212212131,0.588115866099442,0
3.16000366210938,-2.22394275665283,2.0091187953949,2.50221276283264,-2.22455088103183,2.00865428308644,2.50229030443911,2073.391,2074.064,2074.013,2075.342,2.62197875976563,44.9958915710449,358.953826904297,-0.956054866313934,-0.411401569843292,0.583946406841278,-0.954174163352092,-0.410554485950274,0.582890106797601,0
3.18000030517578,-2.24289083480835,2.00096487998962,2.51378536224365,-2.24354380138856,2.00048216005771,2.51389278310636,2074.303,2073.371,2070.76,2072.964,2.69167304039001,44.9959030151367,358.926544189453,-0.947406649589539,-0.407687306404114,0.57863050699234,-0.94539982440085,-0.406779133026206,0.577530000053146,0
3.19999694824219,-2.26166152954102,1.99288761615753,2.52524971961975,-2.2623590635174,1.99238647840124,2.5253867331345,2072.021,2071.594,2070.189,2072.455,2.75981092453003,44.9959564208984,358.899688720703,-0.938533842563629,-0.403874844312668,0.573220551013947,-0.936405971974636,-0.402909329586355,0.572035795952272,0
3.22000122070313,-2.28025007247925,1.98488783836365,2.53660273551941,-2.28099938900442,1.98436606709459,2.53677381709797,2071.527,2070.378,2068.309,2070.808,2.827143907547,44.9960136413574,358.873138427734,-0.929444193840027,-0.399968355894089,0.567653656005859,-0.927192788821982,-0.398945154262308,0.566407606133204,0
3.23999786376953,-2.29865312576294,1.97696876525879,2.54784154891968,-2.29944628156995,1.97642888457015,2.54804273590817,2071.617,2069.781,2065.877,2068.781,2.89305973052979,44.9960250854492,358.847259521484,-0.920139968395233,-0.395968705415726,0.561944842338562,-0.917771149318993,-0.394891285994308,0.560652073582612,0
3.26000213623047,-2.31686568260193,1.9691309928894,2.55896472930908,-2.31770961544581,1.96857068222185,2.55919952157923,2068.612,2067.681,2066.164,2068.763,2.95645308494568,44.9961204528809,358.821838378906,-0.91062331199646,-0.391876488924026,0.556155383586884,-0.90813782126959,-0.39074633405868,0.554767223802352,0
3.27999877929688,-2.33488368988037,1.96137738227844,2.56996846199036,-2.33577134012187,1.96079922667992,2.57023314733618,2068.258,2067.139,2064.451,2066.448,3.01877021789551,44.9961738586426,358.796936035156,-0.900906324386597,-0.387698799371719,0.550189316272736,-0.898304216251578,-0.386515208538549,0.548760027947228,0
3.30000305175781,-2.352703332901,1.95370841026306,2.58085131645203,-2.35364119854729,1.95311032582551,2.58114956499463,2065.337,2065.373,2064.762,2066.228,3.07941436767578,44.9962768554688,358.772430419922,-0.890987932682037,-0.383434891700745,0.544145703315735,-0.888267004546666,-0.382196476749158,0.542628451944297,0
3.31999969482422,-2.37032055854797,1.94612693786621,2.59161019325256,-2.37130160722417,1.94551154534655,2.59193803307009,2065.446,2064.907,2062.644,2064.036,3.13980579376221,44.9963073730469,358.748474121094,-0.880877733230591,-0.379089802503586,0.537938594818115,-0.878038122530657,-0.377795274579551,0.536379787539275,0
3.33999633789063,-2.38773202896118,1.93863344192505,2.60224342346191,-2.38875555478454,1.93800159931817,2.60260037727124,2063.404,2063.225,2062.207,2063.823,3.1989688873291,44.9963836669922,358.724975585938,-0.870573103427887,-0.374660849571228,0.531657040119171,-0.867618167158097,-0.373311858882592,0.530014399402376,0
3.36000061035156,-2.40493392944336,1.93123042583466,2.61274790763855,-2.406005803634,1.93057929915441,2.61313828510855,2063.058,2062.369,2060.556,2062.206,3.25760412216187,44.9964408874512,358.701934814453,-0.860082149505615,-0.370151579380035,0.52522999048233,-0.857007552155826,-0.36874640767338,0.523532540272868,0
3.37999725341797,-2.4219217300415,1.92391920089722,2.62312173843384,-2.42303550945299,1.9232518924954,2.62354146665005,2063.787,2061.665,2057.896,2060.682,3.3151388168335,44.9964561462402,358.679595947266,-0.849405527114868,-0.365561544895172,0.518689572811127,-0.846218976345105,-0.364104384899943,0.516941967662506,0
3.40000152587891,-2.43869280815125,1.91670143604279,2.63336300849915,-2.43985407218584,1.9160153348077,2.63381566417506,2061.744,2060.214,2057.689,2060.314,3.37008357048035,44.996524810791,358.657836914063,-0.838545918464661,-0.360890954732895,0.512067496776581,-0.835248923368004,-0.359384277571698,0.510240533483096,0
3.41999816894531,-2.45524311065674,1.90957856178284,2.6434690952301,-2.45644516534361,1.90887665092339,2.64395090408624,2061.656,2059.532,2056.076,2058.651,3.42324423789978,44.9965782165527,358.636749267578,-0.827514052391052,-0.356145948171616,0.505309820175171,-0.824110582941664,-0.354591760855451,0.503436295127018,0
3.44000244140625,-2.4715690612793,1.90255188941956,2.65343856811523,-2.47281804716281,1.90183185728196,2.6539528420958,2058.892,2058.155,2056.686,2058.372,3.47395014762878,44.9966812133789,358.616149902344,-0.816312193870544,-0.35132771730423,0.498478829860687,-0.812800388649434,-0.349725300221754,0.496527073925997,0
3.45999908447266,-2.48766803741455,1.89562320709229,2.66326880455017,-2.48895692832918,1.89488774758421,2.66381183275806,2058.788,2057.771,2055.191,2056.555,3.52368831634521,44.9967384338379,358.596252441406,-0.804951071739197,-0.346442461013794,0.491513133049011,-0.801332006385299,-0.344790775723006,0.489521218161412,0
3.48000335693359,-2.50353693962097,1.88879346847534,2.67295861244202,-2.50487092366784,1.88804039997555,2.67353344417745,2056.589,2056.379,2055.319,2056.486,3.57184362411499,44.996826171875,358.576873779297,-0.793430089950562,-0.341488987207413,0.484488636255264,-0.78970183472369,-0.339786637766397,0.482416527778585,0
3.5,-2.51917171478271,1.88206398487091,2.6825053691864,-2.5205447997813,1.88129636896134,2.68310837050915,2057.198,2055.966,2053.267,2054.78,3.61944103240967,44.9968719482422,358.558197021484,-0.781758844852448,-0.336471557617188,0.477333843708038,-0.777924000354857,-0.334718964672089,0.475221632552147,0
3.51999664306641,-2.53457093238831,1.8754358291626,2.69190764427185,-2.53598168290031,1.87465430941181,2.69253852151874,2055.844,2054.865,2052.761,2054.461,3.66530966758728,44.9969367980957,358.540161132813,-0.769936084747314,-0.331388235092163,0.470117658376694,-0.765999459475408,-0.329588167864767,0.467937116607681,0
3.54000091552734,-2.54973030090332,1.8689112663269,2.70116353034973,-2.55118444594166,1.86811298519115,2.70182565222626,2055.613,2054.078,2051.527,2053.423,3.70982146263123,44.9970054626465,358.522735595703,-0.757970035076141,-0.326242595911026,0.462798357009888,-0.753929052770513,-0.324394609067776,0.460563493506644,0
3.55999755859375,-2.56464743614197,1.8624906539917,2.71027135848999,-2.56613872308604,1.86167857751006,2.71096098677687,2056.345,2053.633,2049.484,2052.132,3.75253534317017,44.9970474243164,358.506134033203,-0.745864808559418,-0.32103630900383,0.455386787652969,-0.741727567798258,-0.319144650954242,0.45310979673751,0
3.58000183105469,-2.57931995391846,1.85617542266846,2.71922969818115,-2.58085326729328,1.85534732021446,2.71994987221714,2054.351,2052.545,2049.791,2052.008,3.79223322868347,44.997142791748,358.490234375,-0.733624160289764,-0.315770477056503,0.447921365499496,-0.729391385793765,-0.313836736470737,0.44557381565329,0
3.59999847412109,-2.593745470047,1.84996616840363,2.72803664207458,-2.59531431270705,1.84912513636775,2.72878389920025,2054.206,2052.138,2048.79,2050.696,3.82992434501648,44.9972229003906,358.47509765625,-0.721260130405426,-0.310452044010162,0.440351963043213,-0.716935713767317,-0.308477408768949,0.437964839979262,0
3.62000274658203,-2.60792064666748,1.84386444091797,2.73669123649597,-2.60953046793176,1.84300832192796,2.73746832658829,2051.899,2051.169,2049.535,2050.612,3.8652331829071,44.9973297119141,358.460632324219,-0.708775639533997,-0.305082261562347,0.432735353708267,-0.704356955827444,-0.303065120637236,0.430280673041441,0
3.63999938964844,-2.62184453010559,1.8378711938858,2.74519157409668,-2.6234885835008,1.83700253474321,2.74599512157732,2052.241,2050.982,2048.194,2049.219,3.89950156211853,44.9973831176758,358.447021484375,-0.696181356906891,-0.299666672945023,0.425019472837448,-0.691670720740692,-0.297606588091786,0.422530849991739,0
3.65999603271484,-2.6355140209198,1.83198690414429,2.75353693962097,-2.63719194552437,1.83110636089208,2.75436629160077,2050.797,2049.941,2048.22,2049.367,3.93199300765991,44.9974784851074,358.434051513672,-0.683477222919464,-0.29420393705368,0.41727089881897,-0.678878353700696,-0.292102389931838,0.414716192587956,0
3.68000030517578,-2.64892721176147,1.82621335983276,2.76172566413879,-2.65064357486757,1.82531850058072,2.762583682058,2051.031,2049.636,2047.061,2048.266,3.96334958076477,44.9975471496582,358.421844482422,-0.670672953128815,-0.288698375225067,0.409432053565979,-0.665981146317811,-0.286553081901244,0.406837489854705,0
3.69999694824219,-2.66208267211914,1.82055020332336,2.76975631713867,-2.66383127580226,1.81964420129024,2.77063984276899,2052.007,2049.325,2045.206,2047.434,3.9929633140564,44.9975891113281,358.410552978516,-0.657770574092865,-0.283149808645248,0.401537626981735,-0.65299527533123,-0.280965624398954,0.398904623909523,0
