t,x_s1,x_s2,x_s3,x_s_d1,x_s_d2,x_s_d3,propellers_rpms1,propellers_rpms2,propellers_rpms3,propellers_rpms4,rollRad,pitchRad,yawRad,v_s1,v_s2,v_s3,v_s_d1,v_s_d2,v_s_d3,insideCount
0,-0.0599999986588955,2.94000005722046,1.17999994754791,-0.0599999986588955,2.94000005722046,1.17999994754791,0,0,0,0,0,0,0,0,0,0,-1.06581410364015E-15,4.44089209850063E-16,4.44089209850063E-16,0
0.0199966430664063,-0.0599999986588955,2.94000005722046,1.17811644077301,-0.0600018680476204,2.93999925287472,1.18000110478858,0,0,0,0,-0.01635288,0.0001297794,-0.01587137,-1.10653664009419E-09,-7.76775763711157E-08,-0.0941759571433067,-0.000279892991557604,-0.000120430134961378,0.000173267094926113,5
0.0399932861328125,-0.0599999986588955,2.94000005722046,1.17242503166199,-0.060014863945674,2.93999366110285,1.18000914986856,0,0,0,0,-0.03270202,0.0005238493,-0.03175127,-1.08383135799528E-09,-7.60859677484405E-08,-0.284568399190903,-0.00111059898697896,-0.000477859717552347,0.000687513678106196,5
0.05999755859375,-0.0599058829247952,2.93990302085876,1.16596508026123,-0.0600498857373401,2.93997859220429,1.18003083002592,1868.129,3252.793,3183.9,1722.423,-0.04942188,0.0003294851,-0.01369504,0.00470570009201765,-0.00484923273324966,-0.322996109724045,-0.00247936261166862,-0.00106680046642749,0.00153484356504269,5
0.0799942016601563,-0.059820368885994,2.93960738182068,1.16000306606293,-0.0601175240668593,2.93994948932069,1.18007270137395,1925.584,2314.381,3252.026,2829.42,-0.07543244,-0.002136388,0.02094779,0.0042757336050272,-0.0147783774882555,-0.298099756240845,-0.00437186567523228,-0.00188109166426407,0.00270639311381153,5
0.0999984741210938,-0.0599374435842037,2.93904495239258,1.15498661994934,-0.0602281887669101,2.93990187339187,1.18014120809498,980.0878,1498.814,3915.075,3896.616,-0.1031959,-0.008062987,0.06330834,-0.00585381593555212,-0.0281168036162853,-0.250825017690659,-0.00677637982016689,-0.00291568692648091,0.00419490191241918,4
0.1199951171875,-0.0604638420045376,2.93818354606628,1.15081322193146,-0.0603918861403606,2.93983143898525,1.18024254456713,346.4523,980.4235,4172.787,4613.35,-0.1214332,-0.01542077,0.1040022,-0.0263198912143707,-0.0430685058236122,-0.208670496940613,-0.00967801353495435,-0.00416417885169243,0.00599115140585487,4
0.139999389648438,-0.0615636147558689,2.93704128265381,1.14728283882141,-0.0606185767455666,2.93973390035084,1.18038287685052,352.8081,747.0112,3975.515,4854.981,-0.1254019,-0.02116734,0.1351068,-0.0549887046217918,-0.0571142621338367,-0.176517397165298,-0.0130660253322238,-0.00562194567796536,0.00808849210174802,4
0.159996032714844,-0.0633408576250076,2.93568086624146,1.14427483081818,-0.0609176604100223,2.93960521300545,1.18056802388615,821.0225,815.019,3462.569,4692.408,-0.1184595,-0.02352423,0.1522705,-0.0888622030615807,-0.0680150091648102,-0.150398284196854,-0.0169249902365933,-0.00728235046931681,0.0104773752055438,3
0.180000305175781,-0.0658469125628471,2.9341721534729,1.14182531833649,-0.0612986871007165,2.9394412678651,1.18080389755851,1348.655,1083.303,3006.866,4255.221,-0.1079805,-0.02278015,0.1557788,-0.125302821397781,-0.0754310935735703,-0.122478455305099,-0.0212451141043368,-0.00914117907931815,0.0131517376757159,3
0.199996948242188,-0.0690849870443344,2.93255376815796,1.14006149768829,-0.0617704296168641,2.93923829023936,1.18109592864822,1636.531,1381.26,2918.271,3666.345,-0.09982753,-0.02030074,0.1501564,-0.161903709173203,-0.0809154286980629,-0.0881918594241142,-0.0260104776919234,-0.0111915819022102,0.0161017247421801,3
0.219993591308594,-0.0730103328824043,2.93082594871521,1.13903558254242,-0.0623418263269037,2.93899243419801,1.18144965043113,1641.337,1580.616,3148.375,3113.1,-0.09583918,-0.01735529,0.1421887,-0.196267455816269,-0.0863864570856094,-0.0512938722968102,-0.0312101301935526,-0.0134288471121871,0.0193205573344865,3
0.239997863769531,-0.0775500759482384,2.92897343635559,1.1386331319809,-0.0630217183703222,2.93869989564571,1.18187053599376,1523.995,1624.167,3417.882,2777.495,-0.09475474,-0.01467775,0.1377337,-0.226987212896347,-0.09262515604496,-0.0201219636946917,-0.0368338920540454,-0.0158485947310391,0.02280193382306,3
0.259994506835938,-0.0826389640569687,2.92699217796326,1.1386353969574,-0.0638179029240226,2.93835731967507,1.18236341216003,1439.207,1500.997,3532.894,2744.175,-0.09438828,-0.01258823,0.1393013,-0.254444450139999,-0.0990575700998306,0.000112541019916534,-0.0428651747123285,-0.0184436871643672,0.0265355850983733,3
0.279998779296875,-0.0882448479533195,2.9249005317688,1.13885200023651,-0.0647390625194898,2.93796097043536,1.18293365383054,1400.494,1275.906,3476.804,2977.625,-0.0932101,-0.01110538,0.1456829,-0.280294388532639,-0.104583978652954,0.0108329327777028,-0.0492963837173861,-0.0212108567320638,0.030516809833474,3
0.299995422363281,-0.0943706184625626,2.92273235321045,1.1392068862915,-0.0657923226682404,2.93750778201804,1.18358567203635,1350.631,1061.631,3345.044,3324.823,-0.09053309,-0.009934656,0.1533091,-0.30628827214241,-0.108406342566013,0.0177413653582335,-0.0561105313314725,-0.0241427940851591,0.0347350918094591,3
0.319999694824219,-0.101035922765732,2.92052555084229,1.13972508907318,-0.0669860785243584,2.93699414222283,1.18432466377777,1280.807,941.0699,3237.763,3590.474,-0.08597802,-0.008523713,0.1583592,-0.333265870809555,-0.11034233123064,0.0259077735245228,-0.0633008373176985,-0.0272365818771378,0.0391862337367069,3
0.339996337890625,-0.108251482248306,2.91831207275391,1.14046156406403,-0.068326768706371,2.93641728069206,1.18515461486636,1253.219,944.2618,3170.825,3649.842,-0.07944635,-0.006291452,0.1584766,-0.360778272151947,-0.110679753124714,0.0368266031146049,-0.0708499516420146,-0.0304847548730522,0.0438594951176439,4
0.360000610351563,-0.116003021597862,2.91611480712891,1.14145267009735,-0.0698225328270578,2.93577369517774,1.1860805641102,1319.645,1047.121,3120.846,3498.123,-0.07154848,-0.002963033,0.1534737,-0.387577176094055,-0.109858341515064,0.0495537407696247,-0.0787518717320621,-0.0338847303337087,0.0487511600740379,4
0.379997253417969,-0.124251365661621,2.91394972801208,1.14270758628845,-0.0714791088463715,2.935060916796,1.18710606357981,1455.441,1181.71,3090.604,3231.354,-0.06361546,0.001258896,0.1450387,-0.412417322397232,-0.108256638050079,0.062744140625,-0.0869889214763108,-0.0374289027221294,0.0538502862508218,4
0.399993896484375,-0.132943168282509,2.91182637214661,1.14421725273132,-0.0733036822025899,2.9342758538535,1.18823556140379,1579.409,1273.551,3105.053,2981.735,-0.05701881,0.005826104,0.1357485,-0.434590190649033,-0.106165371835232,0.0754821747541428,-0.0955525119207663,-0.0411135764513579,0.0591515566763244,4
0.419998168945313,-0.142023548483849,2.90975022315979,1.14595782756805,-0.0753034649285836,2.93341540321397,1.18947352217404,1630.993,1288.466,3159.2,2844.96,-0.05243711,0.01017521,0.1278589,-0.454018980264664,-0.103802524507046,0.0870288982987404,-0.104434660908044,-0.0449353170220673,0.0646500300148815,4
0.439994812011719,-0.151445940136909,2.90772438049316,1.14789545536041,-0.0774831213880516,2.93247755793201,1.19082283335389,1607.398,1238.289,3218.802,2842.85,-0.0496541,0.01397581,0.1224614,-0.471119999885559,-0.101290002465248,0.0968820303678513,-0.11361726969793,-0.0488863370519643,0.070334502284139,4
0.459999084472656,-0.161176651716232,2.90575170516968,1.14999687671661,-0.0798502821969742,2.93145903476675,1.19228821865812,1541.523,1158.192,3252.929,2938.136,-0.04788417,0.01718642,0.1193396,-0.486535519361496,-0.0986376106739044,0.105068489909172,-0.123096124252221,-0.0529648233581361,0.0762023647937057,4
0.479995727539063,-0.171193465590477,2.90383625030518,1.15223896503448,-0.0824088828700873,2.93035814037613,1.19387211435783,1474.276,1086.226,3248.124,3067.117,-0.04628893,0.01998751,0.1173758,-0.500841021537781,-0.0957762822508812,0.112103343009949,-0.132852887402757,-0.0571628859694044,0.0822422659629699,5
0.5,-0.181480914354324,2.90198349952698,1.15461575984955,-0.085166398670376,2.92917165836334,1.1955791479969,1431.524,1046.266,3216.805,3169.513,-0.04433524,0.02264395,0.1152217,-0.514372289180756,-0.0926382169127464,0.118841469287872,-0.142884000065179,-0.0614789935111996,0.0884520025491718,5
0.519996643066406,-0.192024096846581,2.9001989364624,1.15713465213776,-0.0881260274065667,2.92789821280061,1.19741129917127,1423.638,1045.099,3177.253,3210.429,-0.04192082,0.02537932,0.111885,-0.527158856391907,-0.0892270430922508,0.125946074724197,-0.153170920546857,-0.0659051680111775,0.0948200963613094,5
0.539993286132813,-0.202804356813431,2.89848613739014,1.15980994701385,-0.091293865515634,2.92653518056143,1.19937234186584,1445.732,1073.369,3148.994,3184.315,-0.03929335,0.02828953,0.1070493,-0.539013504981995,-0.0856388658285141,0.133762285113335,-0.163706645289342,-0.0704383960337938,0.101342211863077,5
0.55999755859375,-0.213797613978386,2.89684557914734,1.16265296936035,-0.094676112580471,2.92507989413848,1.20146611391775,1483.776,1113.714,3138.864,3114.515,-0.03688372,0.03132753,0.1010611,-0.549663424491882,-0.0820318087935448,0.14215113222599,-0.17448465888317,-0.0750758741803766,0.108014315705644,5
0.579994201660156,-0.224975854158401,2.89527416229248,1.16566777229309,-0.0982748462459366,2.92353145957921,1.20369390148813,1521.671,1148.917,3145.155,3034.844,-0.03512443,0.0343462,0.09465528,-0.558912038803101,-0.0785753801465034,0.150741204619408,-0.185486174984119,-0.0798095192118365,0.114824778247021,5
0.599998474121094,-0.236310511827469,2.89376592636108,1.16885137557983,-0.102097262171133,2.92188678079254,1.20606015903275,1540.594,1167.011,3163.521,2979.026,-0.0342898,0.03716149,0.0886162,-0.566732823848724,-0.0754169151186943,0.159178704023361,-0.196709126405959,-0.0846384416756885,0.121772319800455,5
0.6199951171875,-0.247775793075562,2.89231276512146,1.17219436168671,-0.106144683970236,2.92014528826426,1.20856570593183,1534.684,1167.32,3181.981,2964.338,-0.03442189,0.03963227,0.08345645,-0.573264360427856,-0.0726630538702011,0.167150601744652,-0.208134604141382,-0.0895545055543457,0.128845234789665,5
0.639999389648438,-0.259351015090942,2.89090514183044,1.17568707466125,-0.110424235525481,2.91830391678686,1.21121495220784,1506.442,1156.376,3195.29,2986.77,-0.0353476,0.04169864,0.07929406,-0.578761875629425,-0.0703786760568619,0.174634352326393,-0.219761081350814,-0.0945570538913933,0.136042578028218,5
0.659996032714844,-0.271020740270615,2.88953328132629,1.17932045459747,-0.114936482147704,2.9163624231229,1.21400824781511,1466.949,1144.385,3197.393,3031.258,-0.03678198,0.04338584,0.0759029,-0.583487033843994,-0.0685951560735703,0.181670442223549,-0.231569557951997,-0.0996379114822372,0.143352587560098,5
0.680000305175781,-0.282773673534393,2.88818669319153,1.18308973312378,-0.119688496929273,2.91431776391831,1.21694997133476,1429.483,1139.651,3190.802,3074.764,-0.03844539,0.04477721,0.07288207,-0.587647438049316,-0.0673246756196022,0.188463434576988,-0.243559016194652,-0.104796640417365,0.150774633349401,5
0.699996948242188,-0.294600605964661,2.88685512542725,1.1869922876358,-0.124680083855354,2.91217002351282,1.22004000142426,1404.462,1146.243,3176.98,3102.29,-0.04017059,0.04596744,0.06985775,-0.591347098350525,-0.0665743574500084,0.195126235485077,-0.255710395848158,-0.11002503961202,0.158296916205407,5
0.719993591308594,-0.306492865085602,2.88552784919739,1.19102871417999,-0.129916240141956,2.90991705174396,1.22328143159838,1393.478,1162.831,3163.788,3106.656,-0.0419352,0.04702031,0.06663123,-0.594612777233124,-0.0663600414991379,0.201821357011795,-0.268018433064612,-0.115320844179508,0.165916177555513,5
0.739997863769531,-0.318441271781921,2.88419365882874,1.19519948959351,-0.135402141159277,2.90755662179454,1.22667746565781,1391.39,1184.935,3153.857,3094.754,-0.04383137,0.0479508,0.063224,-0.597420454025269,-0.0667101293802261,0.20854027569294,-0.280478211503383,-0.120681938755799,0.173629373950669,5
0.759994506835938,-0.3304363489151,2.88284039497375,1.19950437545776,-0.14113644597991,2.90508931062815,1.2302272735046,1393.477,1207.7,3148.936,3074.171,-0.04599652,0.04873486,0.05981023,-0.599754691123962,-0.0676613003015518,0.215241760015488,-0.293070637251543,-0.126100107763583,0.181424685349205,5
0.779998779296875,-0.342469185590744,2.88145542144775,1.20394217967987,-0.147126184485884,2.90251209348295,1.23393520697061,1387.654,1226.615,3151.085,3058.639,-0.04853824,0.04931888,0.05664747,-0.60164088010788,-0.0692543387413025,0.221891209483147,-0.305795832832518,-0.131575403921268,0.189302187598958,5
0.799995422363281,-0.354532122612,2.88002514839172,1.20850849151611,-0.153369252164744,2.89982587587186,1.23779996326238,1373.73,1240.642,3153.832,3054.962,-0.05147677,0.04966066,0.05393311,-0.603147864341736,-0.0715182647109032,0.228315427899361,-0.318634718604462,-0.13709961779199,0.197250069492735,5
0.819999694824219,-0.366619944572449,2.87853574752808,1.21319878101349,-0.159872691993147,2.89702762739878,1.24182590231796,1352.512,1250.847,3156.875,3061.646,-0.0547498,0.0497393,0.05175729,-0.604390561580658,-0.0744678825139999,0.234511807560921,-0.331587821991737,-0.142672976311719,0.205268657531342,4
0.839996337890625,-0.378729701042175,2.87697386741638,1.21800684928894,-0.166633637018892,2.89411858163313,1.24601124935738,1326.747,1259.587,3155.421,3078.35,-0.05825612,0.04956004,0.05010051,-0.605487406253815,-0.0780976861715317,0.240405723452568,-0.344636106234817,-0.148287288494656,0.213346167053785,4
0.860000610351563,-0.390860766172409,2.87532591819763,1.22292864322662,-0.173659158941841,2.89109569582005,1.2503603820997,1300.483,1269.1,3152.088,3096.795,-0.06187588,0.04915141,0.04886197,-0.606553494930267,-0.0823925659060478,0.24609249830246,-0.357780475378537,-0.153942943326036,0.221483157706883,4
0.879997253417969,-0.403014063835144,2.87357950210571,1.2279599905014,-0.180945630646592,2.88796053060595,1.25487105518773,1277.507,1280.951,3145.075,3113.702,-0.06551696,0.04855394,0.04792018,-0.607667028903961,-0.0873256027698517,0.251565337181091,-0.371001963495383,-0.159631780297098,0.229667888678032,4
0.899993896484375,-0.41519170999527,2.87172198295593,1.23309874534607,-0.18849723509595,2.8847112861788,1.25954585807468,1259.338,1295.143,3138.909,3123.618,-0.06911968,0.04780519,0.04718234,-0.608883202075958,-0.0928708910942078,0.256935894489288,-0.384296738353309,-0.165352150505452,0.237897987633041,4
0.919998168945313,-0.427396267652512,2.86974191665649,1.23834240436554,-0.196318384305134,2.8813460641717,1.26438752200817,1245.343,1310.77,3132.801,3128.827,-0.07266755,0.04693138,0.04661644,-0.610226213932037,-0.0989976152777672,0.262185990810394,-0.397661187980262,-0.171102499820431,0.246171218589148,4
0.939994812011719,-0.439630568027496,2.86762833595276,1.24368894100189,-0.204404317663683,2.87786691294234,1.26939309994354,1237.727,1326.656,3127.418,3127.917,-0.07617439,0.04594906,0.04623175,-0.611715197563171,-0.105674870312214,0.267324805259705,-0.4110765036434,-0.176874735369747,0.254475938044738,4
0.959999084472656,-0.451898068189621,2.86537075042725,1.24913728237152,-0.212762239776093,2.87427073255068,1.27456705187416,1227.472,1341.124,3126.131,3127.999,-0.07966953,0.0448533,0.04609925,-0.613375008106232,-0.112877018749714,0.272418290376663,-0.424544411524882,-0.18266959988136,0.262813214588797,3
0.979995727539063,-0.464202761650085,2.86295938491821,1.25468468666077,-0.22138664033507,2.87055989392801,1.27990596665734,1216.599,1353.415,3124.752,3131.43,-0.08315241,0.04364442,0.04627081,-0.615234851837158,-0.120569929480553,0.277372807264328,-0.438046240701377,-0.188479059778567,0.271171490030365,3
1,-0.476549625396729,2.86038494110107,1.26032960414886,-0.230284798736574,2.86673126495361,1.28541435058594,1204.616,1363.606,3125.47,3136.617,-0.08659588,0.04232552,0.04677361,-0.617343604564667,-0.128721594810486,0.282248556613922,-0.451584000205995,-0.194303979492187,0.279552008056641,3
1.01999664306641,-0.488944470882416,2.85763931274414,1.26606917381287,-0.239450461003889,2.86278753653895,1.29108833215045,1192.216,1372.358,3124.14,3146.133,-0.08996637,0.04090717,0.04760339,-0.619743585586548,-0.137286767363548,0.286977052688599,-0.465139182559269,-0.200136395770846,0.2879433116562,3
1.03999328613281,-0.501394152641296,2.85471487045288,1.27190208435059,-0.248887339851819,2.85872711120656,1.2969302096982,1180.046,1380.074,3123.918,3156.096,-0.09321543,0.03940683,0.04872397,-0.622484683990479,-0.146224334836006,0.291648268699646,-0.478708875293167,-0.205975055460915,0.29634359787259,3
1.05999755859375,-0.513906121253967,2.85160517692566,1.27782678604126,-0.258599401509697,2.85454828239877,1.30294243851408,1168.605,1387.417,3122.381,3167.618,-0.09630203,0.03784779,0.05008701,-0.625597357749939,-0.155483409762383,0.296237111091614,-0.492290296490434,-0.211818761581115,0.30475114456651,3
1.07999420166016,-0.526488244533539,2.84830498695374,1.28384220600128,-0.268579290074434,2.85025421515517,1.30912046494367,1163.298,1394.844,3119.79,3175.009,-0.09919636,0.036259,0.05162736,-0.62910521030426,-0.16501297056675,0.300773680210114,-0.50586523043438,-0.217659676417445,0.313154675341593,3
1.09999847412109,-0.539148688316345,2.84480953216553,1.28994941711426,-0.278834517009062,2.84584167750307,1.31546893894041,1156.978,1401.913,3119.998,3182.026,-0.1018973,0.03465495,0.05332548,-0.633022546768188,-0.174770176410675,0.305360436439514,-0.519436284009554,-0.223498921639497,0.321555803983559,3
1.1199951171875,-0.551895618438721,2.84111547470093,1.29614806175232,-0.289357002179081,2.84131414609862,1.32198285851614,1153.83,1408.287,3119.456,3187.996,-0.1043959,0.03305481,0.05515696,-0.637347340583801,-0.184703335165977,0.309931546449661,-0.532985466132485,-0.229328756186667,0.329943393154705,3
1.13999938964844,-0.564737379550934,2.83721995353699,1.30243945121765,-0.300154365346813,2.83666834237095,1.3286669406667,1152.691,1413.62,3121.365,3191.514,-0.10669,0.03147099,0.05711375,-0.642085909843445,-0.194770842790604,0.314568877220154,-0.546515580872639,-0.235150386571708,0.338319178707607,3
1.15999603271484,-0.577681958675385,2.83312153816223,1.30882370471954,-0.311217811600473,2.8319080505249,1.33551574092274,1153.22,1417.968,3122.146,3196.147,-0.1087912,0.02991214,0.05919585,-0.647231936454773,-0.20492160320282,0.319213420152664,-0.560008885098767,-0.240956178420931,0.346672176798798,3
1.18000030517578,-0.590737819671631,2.82881927490234,1.31530272960663,-0.322555076427271,2.82702994219644,1.34253404791935,1153.481,1420.816,3125.441,3200.796,-0.1107023,0.02838389,0.06140107,-0.652793645858765,-0.215117126703262,0.323952823877335,-0.573468357077025,-0.246747413199059,0.355004231116904,3
1.19999694824219,-0.603913128376007,2.82431316375732,1.32187736034393,-0.334156660511822,2.8220381046756,1.34971598112778,1154.356,1422.704,3127.481,3207.441,-0.1124264,0.02689575,0.06371549,-0.658766627311707,-0.225309953093529,0.328729540109634,-0.58687652428584,-0.252516572968185,0.36330452533874,3
1.21999359130859,-0.617216348648071,2.81960391998291,1.32854998111725,-0.346025842163694,2.81693112739735,1.35706356997782,1155.119,1423.458,3131.776,3213.613,-0.1139535,0.02545701,0.06611671,-0.665157556533813,-0.235465124249458,0.333629131317139,-0.600231432569387,-0.258262816909651,0.371571849748761,3
1.23999786376953,-0.630655407905579,2.81469321250916,1.33532202243805,-0.358166167196084,2.81170748469733,1.36457900949675,1156.33,1423.624,3135.098,3221.119,-0.1152723,0.02407946,0.06857768,-0.671955823898315,-0.245538651943207,0.338601589202881,-0.613531154887641,-0.263985315871967,0.379805011417393,2
1.25999450683594,-0.644238531589508,2.80958342552185,1.34219515323639,-0.3705671011502,2.80637170925886,1.37225577835275,1162.937,1423.706,3137.056,3225.272,-0.1163839,0.02277956,0.07105369,-0.67915278673172,-0.25548928976059,0.343655467033386,-0.626758665639206,-0.269676744214496,0.387993470686331,2
1.27999877929688,-0.657973349094391,2.80427765846252,1.34917306900024,-0.383236695417198,2.80092033679326,1.3800988607405,1166.618,1423.073,3142.121,3230.471,-0.1173085,0.02155846,0.07353973,-0.686739921569824,-0.26528936624527,0.348893284797668,-0.639917282339435,-0.275338529371412,0.396139281255613,2
1.29999542236328,-0.671867191791534,2.79877972602844,1.35625767707825,-0.396163740917024,2.79535819025452,1.38810131770546,1171.938,1421.981,3145.86,3235.834,-0.1180489,0.02042601,0.07601282,-0.694690942764282,-0.274901986122131,0.354230493307114,-0.652990303744023,-0.280963485263868,0.404232104259424,2
1.31999969482422,-0.685927033424377,2.79309368133545,1.36345243453979,-0.409356423791328,2.7896817473746,1.39626821685929,1178.387,1420.185,3151.681,3238.989,-0.1186055,0.01938729,0.07845684,-0.702993214130402,-0.284303396940231,0.359740704298019,-0.665981146317813,-0.286553081901244,0.412274054652251,2
1.33999633789063,-0.7001593708992,2.78722453117371,1.3707594871521,-0.422802873722428,2.78389611561957,1.40459220990988,1186.464,1418.247,3155.565,3242.653,-0.1189959,0.01844656,0.08086155,-0.711616337299347,-0.293460220098495,0.365351885557175,-0.678873453515705,-0.29210028151913,0.420255006953505,2
1.35999298095703,-0.714570224285126,2.78117752075195,1.37818241119385,-0.436506138147829,2.77799998376221,1.41307518336622,1193.916,1415.42,3161.768,3245.695,-0.1192329,0.01760253,0.0832212,-0.720546901226044,-0.302354484796524,0.371146619319916,-0.691665859866827,-0.297604496593558,0.428174115871672,2
1.37999725341797,-0.729165375232697,2.77495837211609,1.38572382926941,-0.450469530727146,2.77199192602736,1.42171918854144,1200.584,1412.151,3167.248,3250.431,-0.1193267,0.01685605,0.08552863,-0.729755938053131,-0.310962080955505,0.377069413661957,-0.704356955827446,-0.303065120637236,0.436030508832034,2
1.39999389648438,-0.743949770927429,2.76857304573059,1.39338612556458,-0.464680216184654,2.76587746507559,1.43051627978847,1211.029,1408.977,3171.349,3252.69,-0.1192888,0.01621294,0.08775662,-0.739220976829529,-0.319262236356735,0.383112400770187,-0.716930938559026,-0.308475354130225,0.443814403124744,2
1.41999816894531,-0.758928239345551,2.76202797889709,1.40117335319519,-0.47914673136562,2.75965292774086,1.43947174182117,1217.635,1405.052,3178.639,3256.243,-0.1191376,0.0156656,0.08991107,-0.748925089836121,-0.327248632907867,0.389361888170242,-0.729391385793766,-0.313836736470737,0.451528013536465,2
1.43999481201172,-0.774104833602905,2.75532984733582,1.40908753871918,-0.493855616658466,2.75332410531803,1.44857724249882,1225.376,1401.135,3183.802,3260.231,-0.1188745,0.01521762,0.09197579,-0.75883162021637,-0.334903657436371,0.395710408687592,-0.7417228873516,-0.319142637088802,0.459161800431646,2
1.45999908447266,-0.789483249187469,2.74848532676697,1.41713201999664,-0.508815552717244,2.74688726276417,1.45783815555978,1233.827,1396.849,3190.508,3262.155,-0.118499,0.01486885,0.09393799,-0.768922448158264,-0.342222094535828,0.402221947908401,-0.753929052770513,-0.324394609067776,0.466717998286247,2
1.47999572753906,-0.805066525936127,2.74150156974792,1.42530834674835,-0.524012471663969,2.74034845309416,1.46724577231745,1243.459,1392.982,3194.703,3264.613,-0.1180313,0.01461822,0.09578933,-0.779160559177399,-0.349189579486847,0.408818453550339,-0.765994882555672,-0.329586198544069,0.474187321698441,2
1.5,-0.820857107639313,2.73438549041748,1.4336199760437,-0.539455198877605,2.73370387899399,1.4768055561018,1251.774,1388.564,3201.282,3266.315,-0.1174848,0.01446,0.09752768,-0.789528369903564,-0.355807811021805,0.415582716464996,-0.777924000354858,-0.334718964672088,0.481572013878822,1
1.51999664306641,-0.836856842041016,2.72714400291443,1.44206857681274,-0.555129074991064,2.72695984797977,1.48650843206629,1260.349,1384.466,3205.91,3268.785,-0.116875,0.01439178,0.09914748,-0.799988448619843,-0.362070500850677,0.422430336475372,-0.789701834723693,-0.339786637766398,0.488863054409188,1
1.53999328613281,-0.853067219257355,2.71978425979614,1.45065712928772,-0.571036956668503,2.72011513090874,1.49635616862212,1267.93,1379.871,3212.854,3269.992,-0.1162038,0.01440869,0.1006473,-0.810522675514221,-0.36798483133316,0.429427772760391,-0.801327600455846,-0.344788879974649,0.496059957209413,1
1.55999755859375,-0.869489073753357,2.71231317520142,1.45938694477081,-0.587181951496087,2.71316839067337,1.50635068951315,1274.984,1375.43,3218.208,3272.407,-0.1154763,0.01450638,0.1020274,-0.82109397649765,-0.3735491335392,0.436491191387177,-0.812800388649436,-0.349725300221754,0.503162159625937,1
1.57999420166016,-0.886122643947601,2.70473790168762,1.46825897693634,-0.603548545866849,2.70612630234534,1.51648239107766,1286.07,1371.693,3221.32,3271.994,-0.1147077,0.01468589,0.1032698,-0.831676125526428,-0.378762900829315,0.443603128194809,-0.824106301004481,-0.354589918457504,0.510161057949003,0
1.59999847412109,-0.902967691421509,2.69706511497498,1.47727608680725,-0.620145926473056,2.69898491314762,1.52675696031579,1292.272,1367.272,3227.889,3273.246,-0.113922,0.0149324,0.1043944,-0.842253386974335,-0.38364115357399,0.450856655836105,-0.835248923368005,-0.359384277571697,0.517058871988737,0
1.6199951171875,-0.920023441314697,2.68930125236511,1.4864387512207,-0.636958033083316,2.69175113334911,1.53716445517924,1298.509,1363.185,3232.28,3275.349,-0.1131199,0.0152436,0.1053971,-0.852788805961609,-0.388189077377319,0.458136081695557,-0.846214826007804,-0.364102599125749,0.523847288101157,0
1.63999938964844,-0.937288701534271,2.68145275115967,1.49574863910675,-0.653994195024907,2.68442094880091,1.54771065096602,1304.818,1358.875,3238.284,3275.406,-0.1122927,0.01561562,0.1062749,-0.863267600536346,-0.392421394586563,0.465495467185974,-0.857007552155828,-0.368746407673381,0.530528499715628,0
1.65999603271484,-0.954761862754822,2.67352604866028,1.50520527362823,-0.671237824488362,2.67700149677403,1.55838527903188,1312.28,1355.371,3240.999,3276.093,-0.1114538,0.01604508,0.1070265,-0.873654305934906,-0.396341174840927,0.472834706306458,-0.867614155697522,-0.373310132863173,0.537094492570531,0
1.68000030517578,-0.972440659999847,2.66552686691284,1.51481008529663,-0.688698391434734,2.66948870260877,1.56919420173384,1318.399,1351.539,3245.843,3275.88,-0.1106117,0.01652369,0.107656,-0.883938789367676,-0.399965107440948,0.4802385866642,-0.878038122530658,-0.377795274579551,0.543547424602645,0
1.69999694824219,-0.990322470664978,2.65746092796326,1.52456247806549,-0.706358800111611,2.66188992212981,1.58012683598675,1324.191,1348.33,3248.447,3276.82,-0.1097819,0.01704621,0.1081649,-0.894089579582214,-0.403302401304245,0.487620562314987,-0.888267004546665,-0.382196476749158,0.549879589839776,0
1.71999359130859,-1.00840437412262,2.64933347702026,1.53446352481842,-0.72422180503422,2.6542039701462,1.59118488696678,1328.457,1344.758,3253.518,3276.571,-0.10896,0.01760601,0.1085574,-0.904097259044647,-0.4063740670681,0.495049923658371,-0.898300426012065,-0.386513577704374,0.556090755685004,0
1.73999786376953,-1.02668297290802,2.6411497592926,1.5445122718811,-0.742290383213093,2.64642956573347,1.60237019758524,1331.96,1341.571,3256.851,3277.515,-0.1081435,0.01819873,0.1088388,-0.913931787014008,-0.409191697835922,0.502435505390167,-0.908137821269591,-0.39074633405868,0.562180571969536,0
1.75999450683594,-1.04515445232391,2.63291454315186,1.55470728874207,-0.760546715064628,2.63857437616062,1.61367173667103,1339.672,1339.379,3257.484,3275.54,-0.1073424,0.01882537,0.1089955,-0.923574507236481,-0.411764740943909,0.509751319885254,-0.917767514700581,-0.394889722119545,0.568141810929231,0
1.77999877929688,-1.06381499767303,2.62463212013245,1.56504929065704,-0.779000609654483,2.63063418086074,1.62509557650306,1342.436,1336.565,3261.768,3275.019,-0.1065765,0.01947002,0.1090536,-0.933020651340485,-0.414117097854614,0.517099559307098,-0.927192788821983,-0.398945154262308,0.57397650459845,0
1.79999542236328,-1.08265972137451,2.6163067817688,1.57553648948669,-0.797633790944145,2.62261684350262,1.63663040334288,1344.73,1334.208,3263.685,3275.879,-0.1058425,0.02012996,0.1090165,-0.94224214553833,-0.416262328624725,0.524357736110687,-0.936402499096495,-0.402907835303912,0.579677753977713,0
1.81999969482422,-1.1016845703125,2.6079421043396,1.58616816997528,-0.816456197270346,2.61451808789761,1.64828236949435,1347.151,1331.699,3267.161,3274.622,-0.1051261,0.02080216,0.1088846,-0.951235771179199,-0.418220907449722,0.531581938266754,-0.945399824400851,-0.406779133026206,0.585247526943151,0
1.83999633789063,-1.12088394165039,2.59954237937927,1.59694159030914,-0.835449117627072,2.60634596486888,1.66003989195343,1350.555,1330.092,3267.236,3274.215,-0.1044359,0.02148375,0.1086603,-0.959977149963379,-0.420001208782196,0.538672208786011,-0.954174163352093,-0.410554485950274,0.590679260733698,0
1.85999298095703,-1.14025330543518,2.59110999107361,1.60785591602325,-0.854615270215496,2.5980993048504,1.67190465341613,1352.607,1328.224,3269.42,3272.928,-0.1037754,0.0221681,0.1083501,-0.968467891216278,-0.421622842550278,0.545716524124146,-0.962725359910172,-0.414233826936439,0.595972858753131,0
1.87999725341797,-1.15978705883026,2.58264803886414,1.61890888214111,-0.873957566090845,2.58977685529642,1.6838784559643,1352.73,1326.634,3270.659,3273.443,-0.1031448,0.02285001,0.1079631,-0.976690471172333,-0.423100024461746,0.552650988101959,-0.971053025860989,-0.417816988947023,0.601128080678429,0
1.89999389648438,-1.1794798374176,2.57415914535522,1.63009774684906,-0.893456683142228,2.58138692997148,1.69594933829086,1356.366,1325.954,3269.661,3271.338,-0.1025461,0.02353191,0.1074864,-0.984634935855865,-0.424444228410721,0.559445679187775,-0.979147395688901,-0.421299770153459,0.606138881190213,0
1.91999816894531,-1.19932591915131,2.56564569473267,1.64142155647278,-0.913122862707269,2.57292512231409,1.70812364027167,1355.642,1324.729,3272.19,3270.185,-0.1019863,0.02420221,0.1069445,-0.992303967475891,-0.425677984952927,0.566192924976349,-0.987011339258123,-0.424683405378145,0.611007036871143,0
1.93999481201172,-1.21931934356689,2.55710935592651,1.65287673473358,-0.932936403420974,2.56439990927123,1.72038916582329,1355.378,1324.087,3271.707,3270.158,-0.1014595,0.02486075,0.1063398,-0.999676525592804,-0.426811218261719,0.572761118412018,-0.994635661494588,-0.427963938237592,0.615726855532351,0
1.95999908447266,-1.23945450782776,2.5485520362854,1.66446125507355,-0.952907658613767,2.55580683609405,1.73275232415044,1355.486,1323.263,3273.007,3267.809,-0.1009519,0.02550579,0.1056753,-1.00675928592682,-0.427860707044601,0.579227030277252,-1.00202309041976,-0.431142542523221,0.620300025949072,0
1.97999572753906,-1.25972533226013,2.53997540473938,1.67617106437683,-0.973016570682103,2.54715453300902,1.74520069864106,1355.897,1323.202,3271.032,3267.137,-0.1004747,0.02613432,0.1049578,-1.01353597640991,-0.428831607103348,0.585491895675659,-1.00916501115878,-0.434215511495054,0.624721215103391,0
2,-1.28012573719025,2.53138065338135,1.68800413608551,-0.993273599084619,2.53843849960327,1.7577407641983,1354.907,1322.754,3271.653,3265.384,-0.1000246,0.02674239,0.1041933,-1.02001762390137,-0.429740518331528,0.591655492782593,-1.01606400046349,-0.437183953857422,0.628992018127441,0
2.01999664306641,-1.30064940452576,2.52276873588562,1.69995653629303,-1.01365835337184,2.52966750931758,1.77035989816261,1353.62,1322.948,3269.743,3265.202,-0.09960596,0.02732839,0.1033853,-1.02619099617004,-0.430594235658646,0.59762054681778,-1.02271203275434,-0.440044416427654,0.633107466805174,0
2.03999328613281,-1.32129073143005,2.51414060592651,1.71202600002289,-1.03417354141348,2.52084039703127,1.78305977683431,1351.508,1322.81,3270.375,3263.305,-0.09920541,0.02789112,0.1025373,-1.03206634521484,-0.4314084649086,0.60347056388855,-1.02910913225408,-0.442796909628122,0.637067576131623,0
2.05999755859375,-1.34204351902008,2.50549674034119,1.72420823574066,-1.05482201812353,2.5119559343546,1.79584216754118,1348.52,1323.014,3269.099,3263.218,-0.09881393,0.02842953,0.1016572,-1.03763163089752,-0.432188093662262,0.609114468097687,-1.03525504859546,-0.445441325732794,0.640872191117535,0
2.07999420166016,-1.36290121078491,2.49683809280396,1.73649907112122,-1.07558293843174,2.50302309033894,1.80869416619175,1350.451,1324.065,3265.348,3259.754,-0.09843576,0.02894957,0.1007296,-1.04288733005524,-0.432935178279877,0.614540934562683,-1.0411426556922,-0.447974598585819,0.644516900376035,0
2.09999847412109,-1.38385808467865,2.4881649017334,1.74889636039734,-1.09646699912883,2.4940372624541,1.82162239460902,1347.08,1324.477,3265.488,3258.191,-0.09808689,0.02943911,0.0997837,-1.04784500598907,-0.433664172887802,0.619864046573639,-1.04677411523768,-0.450397658303471,0.648003042098304,0
2.1199951171875,-1.40490782260895,2.4794774055481,1.76139557361603,-1.11745308225396,2.48500753716864,1.83461377976925,1343.518,1325.155,3263.224,3258.244,-0.09775665,0.0299003,0.09882134,-1.05249345302582,-0.43437871336937,0.624959170818329,-1.0521429102862,-0.45270770082608,0.651326581984514,0
2.13999938964844,-1.4260448217392,2.47077560424805,1.77399361133575,-1.138551967509,2.47592927627801,1.8476749948214,1340.597,1325.545,3262.898,3255.767,-0.09742323,0.03033522,0.09784129,-1.05684578418732,-0.435088098049164,0.629900693893433,-1.05725102347782,-0.454905579228273,0.654488747383304,0
2.15999603271484,-1.44726252555847,2.46205973625183,1.78668534755707,-1.15974228854654,2.4668116731246,1.86079281297862,1338.842,1326.621,3259.112,3254.551,-0.09709033,0.03074545,0.09684623,-1.06089210510254,-0.435788184404373,0.634585380554199,-1.06209255378819,-0.456988754464129,0.657485885279498,0
2.17999267578125,-1.46855545043945,2.45333003997803,1.79946780204773,-1.18102676265167,2.45765355853653,1.8739689163698,1336.345,1327.284,3257.776,3252.016,-0.09675584,0.03112898,0.09584064,-1.06464827060699,-0.436485379934311,0.639120399951935,-1.06666760390386,-0.458957270716794,0.660318059240953,0
2.19999694824219,-1.48991775512695,2.44458651542664,1.81233656406403,-1.20240821395574,2.44845371736898,1.88720505326679,1331.803,1328.047,3255.204,3252.188,-0.09641815,0.03148473,0.09483276,-1.06810891628265,-0.437178730964661,0.643435776233673,-1.07097597819164,-0.460811043810786,0.662985148161421,0
2.21999359130859,-1.51134324073792,2.43582916259766,1.82528698444366,-1.22386495005255,2.43922148325834,1.90048779503681,1331.75,1329.401,3250.779,3249.069,-0.09607513,0.0318209,0.09380279,-1.07127857208252,-0.437866032123566,0.64752197265625,-1.07501271071614,-0.462547937042828,0.665484077890325,0
2.23999786376953,-1.53282678127289,2.42705774307251,1.83831667900085,-1.24540792547886,2.42995214277345,1.91382392305993,1327.02,1330.183,3250.215,3247.245,-0.09573212,0.03212939,0.09277483,-1.07416987419128,-0.438555598258972,0.651486337184906,-1.07877930973132,-0.464168599372462,0.667815782108711,0
2.25999450683594,-1.55436217784882,2.41827321052551,1.85142052173615,-1.26701526177039,2.4206551096063,1.92719989352455,1323,1331.158,3246.868,3246.726,-0.09537739,0.03241513,0.09174802,-1.07677257061005,-0.439242720603943,0.655194520950317,-1.08227143928024,-0.465671165158559,0.669977576652695,0
2.27999877929688,-1.57594418525696,2.40947461128235,1.86459505558014,-1.28869796983554,2.41132564607061,1.9406225227075,1320.282,1331.835,3245.067,3243.635,-0.09499389,0.03268115,0.09071875,-1.07910060882568,-0.439928442239761,0.658726155757904,-1.08549040888332,-0.467056197851165,0.67197027217779,0
2.29999542236328,-1.59756708145142,2.40066266059875,1.87783515453339,-1.31043401044317,2.40197323503182,1.95407816727483,1318.486,1332.995,3240.459,3241.775,-0.09459175,0.03292899,0.08969036,-1.08114802837372,-0.440603464841843,0.662003040313721,-1.08843251702753,-0.468322104792631,0.6737915772711,0
2.31999969482422,-1.61922574043274,2.39183735847473,1.89113771915436,-1.33223444283894,2.39259311800549,1.96757367342642,1315.016,1333.568,3238.628,3239.408,-0.09417044,0.03315595,0.08866903,-1.08293044567108,-0.441269725561142,0.665129601955414,-1.09109887036509,-0.469469362144493,0.675442177003072,0
2.33999633789063,-1.64091444015503,2.38299894332886,1.90449798107147,-1.35407709248145,2.38319483607731,1.98109531406483,1311.729,1334.439,3234.397,3238.606,-0.09372995,0.03336559,0.08765315,-1.08444201946259,-0.441919475793839,0.668010771274567,-1.09348640563071,-0.470496651869278,0.67692017506657,0
2.35999298095703,-1.66262853145599,2.37414789199829,1.9179128408432,-1.37596470003558,2.37377721001573,1.99464478579218,1308.099,1334.841,3232.824,3235.91,-0.09325697,0.03355964,0.0866411,-1.08569753170013,-0.442554354667664,0.670741498470306,-1.09559527181965,-0.471404038075479,0.678225663696753,0
2.37999725341797,-1.68436229228973,2.36528444290161,1.93137753009796,-1.39790005743958,2.36433903852774,2.00822381695123,1303.706,1335.334,3229.482,3235.276,-0.09274405,0.03374068,0.08563662,-1.08669030666351,-0.443165421485901,0.673235595226288,-1.09742530100382,-0.472191448508328,0.679358538938131,0
2.39999389648438,-1.7061105966568,2.35640978813171,1.94488728046417,-1.41986083522252,2.35488992936084,2.02181858453579,1304.959,1336.293,3224.012,3230.815,-0.09219171,0.03391754,0.08461859,-1.08742415904999,-0.443742424249649,0.675489783287048,-1.09897439291323,-0.472857979480329,0.680317500623536,0
2.41999816894531,-1.7278687953949,2.34752416610718,1.95843970775604,-1.44185817738692,2.34542508756209,2.03543598721428,1300.928,1336.672,3222.314,3228.534,-0.0916202,0.03408025,0.08361316,-1.08791100978851,-0.444287002086639,0.677624106407166,-1.10024313330221,-0.473403883025206,0.681102911362803,0
2.43999481201172,-1.74963176250458,2.33862829208374,1.97203004360199,-1.46386968334064,2.3359541514805,2.04906215795307,1296.981,1336.94,3218.542,3227.844,-0.09102099,0.03423377,0.08261748,-1.08814334869385,-0.444791376590729,0.679519891738892,-1.10123006676374,-0.473828532921971,0.681713870189648,0
2.45999908447266,-1.77139449119568,2.32972311973572,1.98565518856049,-1.48590651627916,2.32647231790489,2.06270400730194,1294.023,1336.787,3216.866,3224.447,-0.09037118,0.03438204,0.08162564,-1.08813416957855,-0.445254266262054,0.68125855922699,-1.10193556692257,-0.474132089930926,0.682150608395601,0
2.47999572753906,-1.79315197467804,2.32080984115601,1.99930989742279,-1.50794623031618,2.31698924467309,2.07634764018804,1292.546,1337.047,3211.822,3222.347,-0.08967663,0.03452827,0.08063659,-1.08787453174591,-0.445661455392838,0.682736933231354,-1.10235882472314,-0.474314205938057,0.682412625136718,0
2.5,-1.81489956378937,2.3118896484375,2.01299118995667,-1.52999999932945,2.30750012397766,2.08999997377396,1290.736,1336.818,3209.264,3218.748,-0.08893786,0.0346723,0.07965051,-1.08737850189209,-0.446010321378708,0.684069812297821,-1.10250000050292,-0.474374949932098,0.682500019669533,0
2.51999664306641,-1.83663237094879,2.3029637336731,2.02669453620911,-1.55204535801192,2.29801462201262,2.10364710096447,1288.515,1336.788,3204.507,3217.318,-0.08816608,0.03481506,0.07866804,-1.08663928508759,-0.446290224790573,0.685172915458679,-1.10235893238473,-0.47431425226183,0.68241269178437,0
2.53999328613281,-1.85834574699402,2.29403376579285,2.04041743278503,-1.57408507527774,2.28853154739156,2.11729073584934,1285.579,1336.203,3202.712,3214.176,-0.08734955,0.03495812,0.07768651,-1.0856693983078,-0.446501314640045,0.686146318912506,-1.10193578218388,-0.474132182551855,0.682150741652607,0
2.55999755859375,-1.88003492355347,2.28510117530823,2.05415534973145,-1.59612191359838,2.27904971150017,2.13093258853001,1281.848,1335.636,3199.27,3213.067,-0.08648189,0.0351039,0.07670736,-1.08446097373962,-0.446634083986282,0.68690013885498,-1.10123038958312,-0.473828671822132,0.681714070030222,0
2.57999420166016,-1.90169525146484,2.27616763114929,2.06790399551392,-1.61813342708139,2.26957877217893,2.14455876392979,1284.098,1335.41,3193.795,3207.833,-0.08556097,0.03526153,0.07570741,-1.08301568031311,-0.446677774190903,0.687428951263428,-1.10024356351463,-0.47340406813359,0.681103177684783,0
2.59999847412109,-1.92332208156586,2.26723504066467,2.08166098594666,-1.64013077892511,2.26011392621545,2.15817617260023,1281.311,1334.738,3191.907,3204.621,-0.08460969,0.03542117,0.07471244,-1.08134174346924,-0.44663268327713,0.687852442264557,-1.09897493039424,-0.472858210743393,0.680317833349887,0
2.6199951171875,-1.94491064548492,2.258305311203,2.09542202949524,-1.66209156852628,2.2506648119635,2.17177094750084,1278.58,1333.85,3187.825,3203.286,-0.08362326,0.03558644,0.07371949,-1.07943034172058,-0.446490317583084,0.688048601150513,-1.09742594550583,-0.472191725819537,0.679358937915576,0
2.63999938964844,-1.96645665168762,2.24938011169434,2.10918402671814,-1.68402693989188,2.24122663446822,2.18534998730279,1276.957,1332.567,3185.848,3199.133,-0.08258303,0.03576059,0.07272057,-1.0772922039032,-0.446249723434448,0.688105404376984,-1.09559602313537,-0.471404361345641,0.67822612879697,0
2.65999603271484,-1.98795485496521,2.24046206474304,2.12294268608093,-1.70591456353497,2.23180900148401,2.19889946898997,1276.289,1331.62,3180.956,3196.42,-0.08149752,0.03594536,0.07171533,-1.07491838932037,-0.445899367332458,0.687928080558777,-1.09348726343002,-0.470497020956359,0.676920706085208,0
2.67999267578125,-2.00940155982971,2.23155331611633,2.13669514656067,-1.72775723139253,2.2224107117184,2.21242112090437,1275.294,1330.227,3178.362,3192.292,-0.08036621,0.0361404,0.07070271,-1.07231867313385,-0.445437490940094,0.687618851661682,-1.09109983431736,-0.469469776906228,0.675442773735451,0
2.69999694824219,-2.03079104423523,2.22265648841858,2.1504373550415,-1.74955768413056,2.21303058593937,2.22591663964878,1272.585,1328.783,3174.66,3190.729,-0.07919229,0.03634549,0.06968606,-1.06948685646057,-0.444856911897659,0.687114298343658,-1.08843358680109,-0.468322565086308,0.673792239511893,0
2.71999359130859,-2.05211973190308,2.21377325057983,2.16416549682617,-1.77129374718429,2.20367816524265,2.23937229811132,1274.803,1327.571,3169.428,3185.605,-0.07797523,0.03656798,0.06864215,-1.06642413139343,-0.444151014089584,0.686408281326294,-1.08549158402443,-0.467056703481556,0.671970999646117,0
2.73999786376953,-2.07338213920593,2.20490694046021,2.17787766456604,-1.79297647980783,2.19434869114016,2.25279494249708,1272.161,1326.042,3167.884,3182.005,-0.076731,0.03679932,0.06759341,-1.06313633918762,-0.443322986364365,0.685613870620728,-1.08227271937422,-0.465671715947234,0.669978369091845,0
2.75999450683594,-2.09457445144653,2.1960597038269,2.19156956672668,-1.81458384274179,2.18505164650952,2.26617092945464,1270.205,1324.357,3163.648,3180.059,-0.07545055,0.03704372,0.066535,-1.05961298942566,-0.442365944385529,0.684591054916382,-1.07878069424208,-0.464169195088763,0.667816639186824,0
2.77999877929688,-2.11569142341614,2.1872341632843,2.20523834228516,-1.83612684690458,2.17578229366013,2.27950707526701,1270.061,1322.39,3161.339,3174.742,-0.07412057,0.03730391,0.06545843,-1.05586314201355,-0.4412801861763,0.6834357380867,-1.07501419914593,-0.462548577472581,0.665484999299265,0
2.79999542236328,-2.1367290019989,2.17843317985535,2.21887946128845,-1.85758361379882,2.16655004629821,2.2927898361021,1270.254,1320.745,3156.247,3171.396,-0.0727549,0.03757907,0.06436768,-1.05187726020813,-0.440057069063187,0.682058870792389,-1.07097756992209,-0.460811728687929,0.662986133518392,0
2.81999969482422,-2.15768218040466,2.16965889930725,2.23249077796936,-1.87896509797278,2.15735019098767,2.30602599334712,1269.657,1318.65,3153.698,3166.834,-0.07135727,0.0378671,0.06326317,-1.04766416549683,-0.438698202371597,0.680565774440765,-1.06666929835407,-0.458957999791384,0.660319108186353,0
2.83999633789063,-2.17854642868042,2.1609148979187,2.24606823921204,-1.90024960698239,2.14819206138118,2.31920211834584,1268.836,1316.708,3149.175,3164.022,-0.06993354,0.03816875,0.06214461,-1.04321658611298,-0.437198966741562,0.678870975971222,-1.06209435025759,-0.456989527434725,0.657486997379635,0
2.85999298095703,-2.19931745529175,2.15220355987549,2.25960946083069,-1.92143996495749,2.13907444233456,2.33231995936916,1267.66,1314.435,3146.833,3159.687,-0.06847626,0.0384839,0.06100846,-1.03854167461395,-0.43556222319603,0.677055835723877,-1.0572529212638,-0.454906395792563,0.654489922203231,0
2.87999725341797,-2.21999001502991,2.14352774620056,2.27311038970947,-1.94253888918396,2.12999616467562,2.34538119854648,1265.882,1312.224,3143.121,3156.94,-0.06698276,0.03881322,0.05985553,-1.03363287448883,-0.433784514665604,0.675049543380737,-1.05214490868305,-0.452708560680416,0.651327819087361,0
2.89999389648438,-2.24055957794189,2.13489079475403,2.28656721115112,-1.96352501326936,2.1209664217661,2.35837260906308,1269.187,1310.257,3137.747,3150.652,-0.06545464,0.03916248,0.058667,-1.02849006652832,-0.431862026453018,0.672845900058746,-1.04677621342161,-0.450398561093403,0.648004340974112,0
2.91999816894531,-2.26102209091187,2.12629461288452,2.29997825622559,-1.98440911693069,2.11198057539494,2.37130086407726,1267.677,1308.164,3135.374,3146.388,-0.06391693,0.03952155,0.05746656,-1.02311682701111,-0.429799169301987,0.670550286769867,-1.04114485287423,-0.447975543971863,0.644518260536375,0
2.93999481201172,-2.2813720703125,2.11774301528931,2.31333947181702,-2.00517008215741,2.10304771205211,2.38415289053452,1266.051,1305.8,3131.393,3143.653,-0.06236377,0.03989212,0.0562522,-1.0175074338913,-0.427595674991608,0.668056905269623,-1.03525734386973,-0.445442313325187,0.640873612001643,0
2.95999908447266,-2.30160570144653,2.10923790931702,2.32664799690247,-2.02581860575671,2.0941632292003,2.39693531026807,1265.449,1303.247,3128.904,3138.554,-0.06078026,0.04027566,0.05501736,-1.01166820526123,-0.425255119800568,0.665431499481201,-1.02911152474823,-0.442797939051516,0.637069057199471,0
2.97999572753906,-2.32171750068665,2.1007821559906,2.33990001678467,-2.04633384260397,2.08533609591429,2.40963521915279,1265.999,1300.996,3123.939,3134.33,-0.05917331,0.04067263,0.05376158,-1.00559306144714,-0.422774106264114,0.662595748901367,-1.02271452148052,-0.440045487257004,0.633109007445237,0
2.99999237060547,-2.34170293807983,2.09237933158875,2.35309290885925,-2.0667186476113,2.07656508380516,2.42225438451524,1265.886,1298.535,3121.052,3128.999,-0.05754665,0.04108036,0.05248799,-0.999288380146027,-0.420156210660934,0.659642934799194,-1.01606658442979,-0.437185065665935,0.628993617725676,0
3.01999664306641,-2.36155796051025,2.08403134346008,2.36622309684753,-2.08697572864857,2.06784902775215,2.4347944826559,1264.036,1296.061,3116.865,3126.412,-0.05590561,0.04149688,0.05120086,-0.992749810218811,-0.417401015758514,0.656504034996033,-1.00916768936771,-0.434216663853534,0.624722873042298,0
3.03999328613281,-2.38127779960632,2.07574081420898,2.37928676605225,-2.10708469520508,2.05919670122237,2.4472428908773,1266.655,1293.726,3111.856,3120.114,-0.05424806,0.04192741,0.04987999,-0.98598039150238,-0.41450971364975,0.653189599514008,-1.00202586176059,-0.431143734953757,0.620301741541063,0
3.05999755859375,-2.4008572101593,2.06751132011414,2.39228248596191,-2.12705600675913,2.05060360379452,2.45960608409476,1264.384,1291.468,3109.608,3115.865,-0.05259051,0.04236339,0.04854855,-0.978983044624329,-0.411488860845566,0.649785399436951,-0.994638524886308,-0.427965170275055,0.615728628108227,0
3.07999420166016,-2.4202926158905,2.05934453010559,2.40520572662354,-2.14686960564145,2.04207836572333,2.47187164565552,1263.097,1288.972,3104.963,3112.826,-0.0509239,0.04280736,0.04719985,-0.971753299236298,-0.408339381217957,0.646166443824768,-0.987014293508169,-0.424684676509408,0.611008865692653,0
3.09999847412109,-2.43957853317261,2.0512433052063,2.4180543422699,-2.16653584520328,2.033616532251,2.4840459847772,1263.409,1286.459,3102.215,3106.441,-0.04923599,0.04326098,0.04582806,-0.964298784732819,-0.40506649017334,0.642429947853088,-0.979150439632689,-0.421301079877433,0.606140765536421,0
3.1199951171875,-2.45871067047119,2.04321002960205,2.43082404136658,-2.18603502400946,2.02522658035469,2.49611690533293,1263.375,1284.224,3096.959,3102.469,-0.04754328,0.04372121,0.04444074,-0.956613838672638,-0.401669144630432,0.638486325740814,-0.971056158224178,-0.417818336715394,0.601130019760458,0
3.13999938964844,-2.47768473625183,2.03524708747864,2.44351267814636,-2.20537738341953,2.01690410346351,2.50809074721212,1263.256,1281.745,3093.875,3096.768,-0.04584419,0.04418668,0.04303751,-0.948706150054932,-0.398152858018875,0.634430587291718,-0.962728579444533,-0.414235212212131,0.595974851798267,0
3.15999603271484,-2.49649620056152,2.02735662460327,2.45611643791199,-2.22454360124808,2.00865741537402,2.51995554906156,1262.377,1279.433,3088.959,3093.262,-0.04414828,0.04465567,0.04162201,-0.940573215484619,-0.3945192694664,0.630184233188629,-0.95417746870157,-0.410555908149813,0.590681306902481,0
3.17999267578125,-2.51514053344727,2.01954102516174,2.46863293647766,-2.24353658854737,2.00048526354177,2.53171311296128,1261.383,1276.969,3086.16,3087.93,-0.04244813,0.0451281,0.04019178,-0.932222604751587,-0.390775084495544,0.625828266143799,-0.945403214201559,-0.406780591562751,0.585249625391267,0
3.19999694824219,-2.53361368179321,2.01180267333984,2.48105883598328,-2.2623590635174,1.99238647840124,2.54336512160655,1259.33,1274.616,3081.957,3084.679,-0.04074104,0.04560287,0.03875111,-0.923652589321136,-0.386922240257263,0.621289610862732,-0.936405971974636,-0.402909329586355,0.579679903854719,0
3.21999359130859,-2.55191111564636,2.00414371490479,2.49339008331299,-2.28099231507127,1.9843691108104,2.55489999194326,1262.052,1272.36,3076.482,3077.979,-0.03902596,0.04608466,0.03728229,-0.914866387844086,-0.3829625248909,0.616567492485046,-0.927196343299057,-0.398946683654493,0.573978704989081,0
3.23999786376953,-2.57002878189087,1.99656534194946,2.50562524795532,-2.29944628156995,1.97642888457015,2.56632387629027,1260.506,1270.374,3073.409,3073.02,-0.03732527,0.04656472,0.03580791,-0.905867993831635,-0.378901898860931,0.61175674200058,-0.917771149318993,-0.394891285994308,0.568144060931169,0
3.25999450683594,-2.58796191215515,1.98907041549683,2.51776051521301,-2.31770268688992,1.96857366338589,2.57762546085652,1258.505,1268.074,3069.012,3069.791,-0.03563469,0.04704347,0.03432844,-0.896657943725586,-0.374744713306427,0.606762170791626,-0.90814153446928,-0.390747931744771,0.562182870617026,0
3.27999877929688,-2.60570669174194,1.98166036605835,2.52979326248169,-2.33577134012187,1.96079922667992,2.58881081793642,1257.727,1265.735,3065.841,3064.197,-0.03393879,0.04752236,0.03283771,-0.887243688106537,-0.370496690273285,0.601642966270447,-0.898304216251578,-0.386515208538549,0.556093102023818,0
3.29999542236328,-2.6232590675354,1.97433733940125,2.54171991348267,-2.35363442159312,1.95311324175956,2.5998689163037,1257.701,1263.654,3060.587,3059.614,-0.03224555,0.04800113,0.03133748,-0.877625226974487,-0.366159111261368,0.596332430839539,-0.888270870184445,-0.382198140025101,0.549881982853707,0
3.31999969482422,-2.64061546325684,1.96710252761841,2.55353808403015,-2.37130160722417,1.94551154534655,2.61080574581408,1257.089,1261.541,3057.065,3054.087,-0.03055764,0.04847742,0.02983104,-0.867809295654297,-0.36173689365387,0.590913057327271,-0.878038122530657,-0.377795274579551,0.543547424602645,0
3.33999633789063,-2.65777111053467,1.95995783805847,2.56524443626404,-2.38875555478454,1.93800159931817,2.62161057080077,1255.951,1259.495,3052.093,3050.323,-0.02888198,0.04894994,0.02832122,-0.857797384262085,-0.357233166694641,0.585318922996521,-0.867618167158097,-0.373311858882592,0.53709697585572,0
3.35999298095703,-2.67472338676453,1.95290493965149,2.57683682441711,-2.40599926516969,1.93058211247293,2.63228524896102,1254.781,1257.413,3048.835,3044.994,-0.02721218,0.04941855,0.02680663,-0.847597122192383,-0.352653652429581,0.579619467258453,-0.857011633930453,-0.36874816394697,0.530531026528563,0
3.37999725341797,-2.69146728515625,1.94594502449036,2.58831191062927,-2.42303550945299,1.9232518924954,2.64283149572124,1252.404,1255.413,3044.432,3041.764,-0.0255477,0.04988268,0.02529174,-0.837210536003113,-0.348001331090927,0.573754489421844,-0.846218976345105,-0.364104384899943,0.523849857357654,0
3.39999389648438,-2.70800018310547,1.93907940387726,2.59966635704041,-2.43984769972619,1.91601807669906,2.65323904237604,1254.583,1253.439,3039.164,3035.001,-0.02388429,0.05034632,0.02376087,-0.826642870903015,-0.343279004096985,0.567727446556091,-0.835253140422974,-0.35938609205264,0.51706148254665,0
3.41999816894531,-2.72431802749634,1.93230962753296,2.61089873313904,-2.45644516534361,1.90887665092339,2.66351366424015,1252.555,1251.854,3035.861,3030.265,-0.02224325,0.05080148,0.0222373,-0.815898239612579,-0.338491499423981,0.561618447303772,-0.824110582941664,-0.354591760855451,0.510163708672097,0
3.43999481201172,-2.74041795730591,1.92563652992249,2.62200546264648,-2.4728118459714,1.90183452548138,2.67364541920187,1250.47,1249.856,3031.139,3027.158,-0.02061873,0.0512496,0.02071932,-0.804981291294098,-0.333643019199371,0.555335402488708,-0.812804733542555,-0.349727169707881,0.503164849321754,0
3.45999908447266,-2.75629591941833,1.91906201839447,2.63298463821411,-2.48895692832918,1.89488774758421,2.68363999427827,1249.635,1247.93,3027.918,3021.388,-0.01899793,0.05169182,0.0192013,-0.793900549411774,-0.328738689422607,0.548953294754028,-0.801332006385299,-0.344790775723006,0.496062684689628,0
3.47999572753906,-2.77194881439209,1.91258633136749,2.64383268356323,-2.50486489870395,1.88804299234919,2.69348778574196,1248.675,1246.193,3022.609,3017.597,-0.01738884,0.05212731,0.01768743,-0.782658517360687,-0.323780119419098,0.542396605014801,-0.789706299681989,-0.339788558913217,0.488865818431069,0
3.49999237060547,-2.78737425804138,1.90621101856232,2.65454769134521,-2.52053886467493,1.8812989226718,2.70319071733255,1248.257,1244.447,3019.121,3011.695,-0.01578935,0.0525558,0.01617672,-0.771262884140015,-0.318771511316299,0.535752296447754,-0.777928522316836,-0.334720910345999,0.481574813188698,0
3.51999664306641,-2.80256867408752,1.89993667602539,2.66512703895569,-2.53598168290031,1.87465430941181,2.7127505574575,1245.463,1242.783,3014.631,3008.98,-0.0142069,0.05297485,0.01467907,-0.759717524051666,-0.313715577125549,0.528963804244995,-0.765999459475408,-0.329588167864767,0.474190155029786,0
3.53999328613281,-2.81752920150757,1.89376449584961,2.6755678653717,-2.55117869390181,1.86811546013321,2.72215823120146,1246.81,1240.961,3009.734,3002.866,-0.01263137,0.05338888,0.01317747,-0.748030006885529,-0.308615475893021,0.522038578987122,-0.753933682518821,-0.324396601119134,0.466720864320997,0
3.55999755859375,-2.83225297927856,1.88769483566284,2.68586874008179,-2.56613872308604,1.86167857751006,2.73141920191151,1244.613,1239.644,3006.283,2998.527,-0.01108088,0.05379192,0.01169064,-0.736204981803894,-0.303474932909012,0.515040457248688,-0.741727567798258,-0.319144650954242,0.459164697851087,0
3.57999420166016,-2.84673833847046,1.88172876834869,2.69602656364441,-2.58084770246059,1.8553497146065,2.74052476083022,1242.707,1237.94,3001.775,2995.193,-0.009547965,0.05418589,0.01021638,-0.724249005317688,-0.298297911882401,0.507895767688751,-0.729396114728537,-0.313838771199258,0.451530940972359,0
3.59999847412109,-2.86098122596741,1.87586712837219,2.7060399055481,-2.59531431270705,1.84912513636775,2.74948028171299,1241.696,1236.335,2998.368,2989.968,-0.008024104,0.0545715,0.008751257,-0.712169945240021,-0.29308807849884,0.500664055347443,-0.716935713767317,-0.308477408768949,0.443817359206151,0
3.6199951171875,-2.87498068809509,1.87011027336121,2.71590566635132,-2.60952509409627,1.84301063413925,2.75827743234631,1241.029,1234.833,2993.339,2985.958,-0.006515157,0.05494858,0.007297965,-0.699972569942474,-0.287847101688385,0.493288099765778,-0.704361775018033,-0.303067194200314,0.436033492140578,0
3.63999938964844,-2.88873386383057,1.8644585609436,2.7256224155426,-2.6234885835008,1.83700253474321,2.76692149746096,1240.197,1233.378,2989.84,2980.804,-0.005023255,0.05531605,0.005858477,-0.687663912773132,-0.282577991485596,0.485842168331146,-0.691670720740692,-0.297606588091786,0.428177124984152,0
3.65999603271484,-2.90223908424377,1.8589129447937,2.73518776893616,-2.63719194552437,1.83110636089208,2.77540453133521,1238.615,1231.922,2985.207,2977.519,-0.00355319,0.0556733,0.00443729,-0.675249993801117,-0.277283519506454,0.478270530700684,-0.678878353700696,-0.292102389931838,0.420258040401444,0
3.67999267578125,-2.91549396514893,1.8534734249115,2.74460029602051,-2.65063849381582,1.82532068681534,2.78372858527554,1237.386,1230.44,2981.823,2972.853,-0.002099636,0.05602056,0.003031382,-0.662738859653473,-0.271967053413391,0.470628678798676,-0.665986083416798,-0.286555206197011,0.41227711095171,0
3.69999694824219,-2.92849636077881,1.8481410741806,2.75385785102844,-2.66383127580226,1.81964420129024,2.79189554578451,1235.379,1229.057,2977.708,2969.607,-0.0006620619,0.05635788,0.001644714,-0.650136649608612,-0.266630917787552,0.462878942489624,-0.65299527533123,-0.280965624398954,0.404235181908735,0
3.71999359130859,-2.94124531745911,1.84291553497314,2.76295828819275,-2.6767584210412,1.81408201183655,2.79989806449274,1236.445,1227.565,2972.984,2964.246,0.0007609175,0.05668778,0.0002668467,-0.637450456619263,-0.261277198791504,0.45502096414566,-0.639922285921447,-0.275340682272968,0.396142378711232,0
3.73999786376953,-2.95373916625977,1.83779716491699,2.77190065383911,-2.68942811570037,1.808630596175,2.80774120902801,1234.772,1226.514,2969.759,2959.949,0.002154883,0.0570062,-0.00108657,-0.624685287475586,-0.255908459424973,0.447122931480408,-0.626763698705669,-0.269678909802388,0.38799658639423,0
3.75999450683594,-2.96597623825073,1.83278679847717,2.7806830406189,-2.70182915057228,1.80329477731443,2.81541804035694,1232.566,1225.082,2965.641,2957.374,0.003522589,0.05731322,-0.002414954,-0.61184960603714,-0.250528335571289,0.439116925001144,-0.613536214864365,-0.263987493038594,0.379808143784027,0
3.77999877929688,-2.97795534133911,1.82788372039795,2.78930401802063,-2.7139695770734,1.79807109095524,2.82293354268985,1231.927,1223.674,2962.359,2952.608,0.004875461,0.05761134,-0.00372523,-0.598951637744904,-0.245139703154564,0.43105161190033,-0.60023651686137,-0.258265004538452,0.371574997167698,0
3.79999542236328,-2.98967528343201,1.82308888435364,2.79776191711426,-2.72583886061506,1.79296406983666,2.83028119461452,1231.195,1222.455,2958.108,2948.852,0.006206586,0.05789945,-0.005012602,-0.585997462272644,-0.239744231104851,0.422895133495331,-0.586881630238189,-0.252518769916838,0.363307686166475,0
3.81999206542969,-3.0011351108551,1.81840205192566,2.80605578422546,-2.73744054699573,1.78797218830065,2.83746319114912,1230.263,1221.207,2954.679,2944.747,0.007514358,0.0581771,-0.006275473,-0.572993993759155,-0.234344184398651,0.414688140153885,-0.573473482003301,-0.246749618311662,0.355007403690404,0
3.83999633789063,-3.01233410835266,1.81382346153259,2.81418395042419,-2.74877791451009,1.78309403578861,2.84448156171422,1228.723,1219.954,2950.892,2941.707,0.008796741,0.05844431,-0.007512245,-0.559948742389679,-0.228942021727562,0.4064100086689,-0.560014026276881,-0.240958390526246,0.346675359432959,0
3.85999298095703,-3.02327156066895,1.8093523979187,2.82214522361755,-2.75984146370944,1.77833369964791,2.85133042569855,1229.124,1218.642,2946.898,2937.226,0.01005556,0.05870238,-0.008728777,-0.546869397163391,-0.223540142178535,0.398065984249115,-0.546520735526767,-0.235152604475377,0.338322369684062,0
3.87999725341797,-3.03394675254822,1.80499005317688,2.82993936538696,-2.77063893010371,1.77368785150474,2.85801457175126,1227.454,1217.693,2944.012,2933.578,0.01128164,0.05894864,-0.009914949,-0.533761739730835,-0.218140959739685,0.389702320098877,-0.532990631455729,-0.229330978680956,0.329946590735853,0
3.89999389648438,-3.04435968399048,1.8007345199585,2.83756446838379,-2.78116151864576,1.76916027562219,2.86452855531919,1225.89,1216.384,2940.069,2931.248,0.01247789,0.05918442,-0.01107183,-0.520635068416595,-0.212747946381569,0.381257772445679,-0.519441457145543,-0.223501147495394,0.321559006401168,0
3.91999816894531,-3.05450940132141,1.79658770561218,2.84502053260803,-2.79141684911929,1.7647476934202,2.87087709341145,1225.84,1215.247,2937.466,2926.222,0.01365275,0.0594107,-0.01220473,-0.507496416568756,-0.207363411784172,0.372801214456558,-0.505870408491346,-0.2176619043907,0.313157880805522,0
