t,x_s1,x_s2,x_s3,x_s_d1,x_s_d2,x_s_d3,propellers_rpms1,propellers_rpms2,propellers_rpms3,propellers_rpms4,rollRad,pitchRad,yawRad,v_s1,v_s2,v_s3,v_s_d1,v_s_d2,v_s_d3,insideCount
0,-0.0599999986588955,2.94000005722046,1.17999994754791,-0.0599999986588955,2.94000005722046,1.17999994754791,0,0,0,0,0,0,0,0,0,0,-1.06581410364015E-15,4.44089209850063E-16,4.44089209850063E-16,0
0.0200042724609375,-0.0599999986588955,2.94000005722046,1.17811644077301,-0.0600018701838461,2.93999925195556,1.18000110611101,0,0,0,0,-0.01635288,0.0001297794,-0.01587137,-1.10653664009419E-09,-7.76775763711157E-08,-0.0941759571433067,-0.000280105751305916,-0.000120521679537258,0.00017339880334547,5
0.0400009155273438,-0.0599999986588955,2.94000005722046,1.17242503166199,-0.0600148724204753,2.93999365745638,1.18000915511487,0,0,0,0,-0.03270202,0.0005238493,-0.03175127,-1.08383135799528E-09,-7.60859677484405E-08,-0.284568399190903,-0.00111101934050116,-0.00047804058392963,0.00068777389696065,5
0.05999755859375,-0.0599058829247952,2.93990302085876,1.16596508026123,-0.0600498857373401,2.93997859220429,1.18003083002592,1868.045,3252.776,3183.965,1722.467,-0.04942134,0.0003294761,-0.01369451,0.00470573361963034,-0.0048492681235075,-0.322995036840439,-0.00247936261166862,-0.00106680046642749,0.00153484356504269,5
0.0800018310546875,-0.0598203651607037,2.93960738182068,1.16000306606293,-0.0601175574246769,2.93994947496775,1.18007272202403,1925.47,2314.342,3252.104,2829.49,-0.07543031,-0.002136388,0.02094816,0.00427580252289772,-0.0147783467546105,-0.298098683357239,-0.00437268608126799,-0.00188144466206175,0.00270690098422899,5
0.0999984741210938,-0.0599374361336231,2.93904495239258,1.15498650074005,-0.0602281887669101,2.93990187339187,1.18014120809498,980.3633,1498.905,3914.776,3896.553,-0.1031932,-0.008062454,0.06330716,-0.00585348811000586,-0.0281159561127424,-0.250829756259918,-0.00677637982016689,-0.00291568692648091,0.00419490191241918,4
0.120002746582031,-0.060463834553957,2.93818354606628,1.15081310272217,-0.0603919599823235,2.93983140721312,1.18024259027882,346.3677,980.3242,4173,4613.35,-0.1214306,-0.01542023,0.1040006,-0.026319894939661,-0.043067704886198,-0.208667606115341,-0.00967921398219614,-0.00416469537060396,0.00599189453988277,4
0.139999389648438,-0.0615635886788368,2.93704128265381,1.14728271961212,-0.0606185767455666,2.93973390035084,1.18038287685052,352.9831,747.1869,3975.256,4854.895,-0.1254008,-0.02116627,0.1351042,-0.0549877062439919,-0.0571127757430077,-0.176518321037292,-0.0130660253322238,-0.00562194567796536,0.00808849210174802,4
0.160003662109375,-0.0633408203721046,2.93568110466003,1.14427483081818,-0.0609177895434042,2.93960515744296,1.18056810382587,820.8789,814.8843,3462.896,4692.37,-0.118459,-0.0235237,0.1522688,-0.0888616293668747,-0.0680140852928162,-0.15039274096489,-0.0169265510445065,-0.00728302204135792,0.0104783414199936,3
0.180000305175781,-0.0658468306064606,2.93417239189148,1.1418251991272,-0.0612986871007165,2.9394412678651,1.18080389755851,1348.771,1083.458,3006.561,4255.247,-0.1079816,-0.02277961,0.1557774,-0.125300616025925,-0.0754298344254494,-0.122480452060699,-0.0212451141043368,-0.00914117907931815,0.0131517376757159,3
0.199996948242188,-0.0690848827362061,2.93255400657654,1.14006149768829,-0.0617704296168641,2.93923829023936,1.18109592864822,1636.376,1381.093,2918.642,3666.31,-0.09982859,-0.02030074,0.1501562,-0.161902666091919,-0.0809149518609047,-0.0881859958171844,-0.0260104776919234,-0.0111915819022102,0.0161017247421801,3
0.220001220703125,-0.073010191321373,2.93082618713379,1.13903558254242,-0.0623420644491781,2.93899233174064,1.18144979784016,1641.275,1580.582,3148.373,3113.171,-0.09583864,-0.01735529,0.1421899,-0.196265652775764,-0.0863863080739975,-0.0512932389974594,-0.03121219533433,-0.0134297356845702,0.019321835755004,3
0.239997863769531,-0.0775498822331429,2.92897367477417,1.13863301277161,-0.0630217183703222,2.93869989564571,1.18187053599376,1524.318,1624.36,3417.4,2777.474,-0.09475581,-0.01467775,0.137734,-0.226984724402428,-0.0926242172718048,-0.0201276689767838,-0.0368338920540454,-0.0158485947310391,0.02280193382306,3
0.260002136230469,-0.0826387703418732,2.92699241638184,1.1386353969574,-0.0638182299684225,2.938357178957,1.18236361461609,1438.946,1500.771,3533.363,2744.222,-0.09438989,-0.01258823,0.1393024,-0.254444003105164,-0.099057100713253,0.000119341537356377,-0.0428675524613532,-0.0184447102433459,0.0265370570382875,3
0.279998779296875,-0.088244616985321,2.92490077018738,1.13885200023651,-0.0647390625194898,2.93796097043536,1.18293365383054,1400.575,1276.039,3476.524,2977.672,-0.0932117,-0.01110538,0.1456834,-0.280292928218842,-0.104583442211151,0.0108312778174877,-0.0492963837173861,-0.0212108567320638,0.030516809833474,3
0.300003051757813,-0.0943703800439835,2.92273259162903,1.13920700550079,-0.0657927507678135,2.93750759781875,1.18358593705038,1350.461,1061.501,3345.396,3324.776,-0.09053309,-0.009935189,0.15331,-0.30628827214241,-0.108406484127045,0.0177476890385151,-0.0561132031658829,-0.0241439437008635,0.0347367458022363,3
0.319999694824219,-0.101035661995411,2.92052578926086,1.13972508907318,-0.0669860785243584,2.93699414222283,1.18432466377777,1281.031,941.2526,3237.322,3590.493,-0.08597909,-0.008523713,0.1583593,-0.333264261484146,-0.110342137515545,0.0259031672030687,-0.0633008373176985,-0.0272365818771378,0.0391862337367069,3
0.340003967285156,-0.108251228928566,2.91831207275391,1.1404618024826,-0.0683273092598492,2.93641704810699,1.18515494949472,1253.074,944.1105,3171.21,3649.773,-0.07944689,-0.006291984,0.1584771,-0.360778599977493,-0.110679984092712,0.0368329286575317,-0.0708528993697216,-0.0304860231979345,0.0438613199015142,4
0.360000610351563,-0.116002753376961,2.91611480712891,1.14145278930664,-0.0698225328270578,2.93577369517774,1.1860805641102,1319.79,1047.265,3120.515,3498.15,-0.07154955,-0.002963033,0.1534742,-0.387576192617416,-0.109858550131321,0.0495508797466755,-0.0787518717320621,-0.0338847303337087,0.0487511600740379,4
0.379997253417969,-0.124251112341881,2.91394972801208,1.14270782470703,-0.0714791088463715,2.935060916796,1.18710606357981,1455.228,1181.544,3091.021,3231.326,-0.06361546,0.001258293,0.1450403,-0.412418067455292,-0.108257211744785,0.0627509132027626,-0.0869889214763108,-0.0374289027221294,0.0538502862508218,4
0.400001525878906,-0.132942914962769,2.91182637214661,1.14421737194061,-0.0733044112230977,2.93427554017634,1.18823601270221,1579.289,1273.509,3104.962,2981.948,-0.05701668,0.005825605,0.1357505,-0.434589952230453,-0.106166049838066,0.0754802674055099,-0.0955558400788823,-0.0411150084648172,0.0591536169647403,4
0.419998168945313,-0.142023265361786,2.90975022315979,1.14595770835876,-0.0753034649285836,2.93341540321397,1.18947352217404,1631.703,1288.803,3158.42,2844.725,-0.05243764,0.01017588,0.1278573,-0.454017817974091,-0.103801965713501,0.0870190411806107,-0.104434660908044,-0.0449353170220673,0.0646500300148815,4
0.44000244140625,-0.15144570171833,2.90772438049316,1.1478955745697,-0.077483988232608,2.93247718495301,1.19082336997196,1606.917,1238.059,3219.588,2842.829,-0.04965677,0.01397528,0.1224611,-0.471121668815613,-0.101289682090282,0.0968959406018257,-0.113620829717891,-0.048887868829098,0.0703367061060819,4
0.459999084472656,-0.161176413297653,2.90575170516968,1.14999687671661,-0.0798502821969742,2.93145903476675,1.19228821865812,1541.396,1158.258,3252.69,2938.385,-0.0478879,0.01718602,0.1193399,-0.486535429954529,-0.0986383259296417,0.105066739022732,-0.123096124252221,-0.0529648233581361,0.0762023647937057,4
0.480003356933594,-0.17119325697422,2.90383625030518,1.15223908424377,-0.0824098964715798,2.93035770425173,1.19387274182544,1474.187,1086.156,3248.559,3066.84,-0.04628947,0.01998711,0.1173768,-0.500842571258545,-0.0957777798175812,0.112112678587437,-0.132856662250146,-0.057164510180779,0.0822446027733248,5
0.5,-0.181480690836906,2.90198349952698,1.15461564064026,-0.085166398670376,2.92917165836334,1.1955791479969,1431.884,1046.383,3216.172,3169.646,-0.04433577,0.02264425,0.1152225,-0.514371633529663,-0.0926395729184151,0.118830420076847,-0.142884000065179,-0.0614789935111996,0.0884520025491718,5
0.520004272460938,-0.192023918032646,2.9001989364624,1.15713477134705,-0.088127196023106,2.92789770997757,1.19741202260058,1423.557,1044.996,3177.694,3210.224,-0.04192135,0.02537884,0.1118865,-0.52716052532196,-0.0892281159758568,0.125954210758209,-0.153174893518032,-0.065906877469682,0.0948225558197254,5
0.540000915527344,-0.202804177999496,2.89848613739014,1.15980982780457,-0.0912951145137283,2.92653464315245,1.19937311505516,1445.749,1073.419,3148.534,3184.689,-0.03929601,0.02828905,0.1070509,-0.539013683795929,-0.0856398418545723,0.133754268288612,-0.163710711144578,-0.0704401454577151,0.101344728821151,5
0.55999755859375,-0.213797494769096,2.89684557914734,1.16265296936035,-0.094676112580471,2.92507989413848,1.20146611391775,1484.079,1113.822,3138.924,3114.102,-0.03688904,0.03132739,0.1010607,-0.549665451049805,-0.0820328593254089,0.142156064510345,-0.17448465888317,-0.0750758741803766,0.108014315705644,5
0.580001831054688,-0.224975794553757,2.8952739238739,1.16566812992096,-0.0982762614093182,2.92353085067394,1.20369477754168,1520.448,1148.596,3146.12,3035.386,-0.03512763,0.03434424,0.09465969,-0.558915674686432,-0.0785779803991318,0.150758221745491,-0.185490414529404,-0.0798113433697334,0.11482740272751,5
0.599998474121094,-0.236310482025146,2.89376544952393,1.16885137557983,-0.102097262171133,2.92188678079254,1.20606015903275,1541.288,1167.198,3162.628,2978.959,-0.03428767,0.03716156,0.08861747,-0.566734433174133,-0.0754198953509331,0.15916346013546,-0.196709126405959,-0.0846384416756885,0.121772319800455,5
0.620002746582031,-0.247775852680206,2.89231204986572,1.172194480896,-0.106146271928021,2.92014460501038,1.20856668895334,1535.06,1167.329,3182.309,2963.701,-0.03441816,0.03963268,0.08345688,-0.573267936706543,-0.0726651251316071,0.167157799005508,-0.208139001499973,-0.0895563976148993,0.128847956964108,5
0.639999389648438,-0.25935110449791,2.89090442657471,1.17568695545197,-0.110424235525481,2.91830391678686,1.21121495220784,1506.515,1156.406,3194.694,2987.269,-0.0353476,0.04169855,0.0792954,-0.578763484954834,-0.0703797116875648,0.174622371792793,-0.219761081350814,-0.0945570538913933,0.136042578028218,5
0.660003662109375,-0.271020919084549,2.88953256607056,1.17932069301605,-0.114938248900541,2.91636166293851,1.21400934151928,1466.602,1144.319,3198.062,3031.057,-0.03678305,0.04338524,0.07590466,-0.583491027355194,-0.0685960352420807,0.181685626506805,-0.231574097577923,-0.0996398647564507,0.143355397804799,5
0.680000305175781,-0.282773911952972,2.88818597793579,1.18308973312378,-0.119688496929273,2.91431776391831,1.21694997133476,1429.422,1139.69,3190.275,3075.261,-0.03844753,0.04477681,0.07288315,-0.587649941444397,-0.0673256516456604,0.188454568386078,-0.243559016194652,-0.104796640417365,0.150774633349401,5
0.699996948242188,-0.294600933790207,2.88685441017151,1.18699252605438,-0.124680083855354,2.91217002351282,1.22004000142426,1404.377,1146.224,3177.656,3101.751,-0.04017005,0.0459673,0.06985793,-0.591351807117462,-0.0665758773684502,0.195142611861229,-0.255710395848158,-0.11002503961202,0.158296916205407,5
0.720001220703125,-0.306493252515793,2.88552713394165,1.19102883338928,-0.129918284978346,2.90991617190799,1.22328269744952,1392.894,1162.728,3163.683,3107.364,-0.04193094,0.04701999,0.06663345,-0.594615995883942,-0.0663616210222244,0.201818376779556,-0.268023157655716,-0.11532287703907,0.16591910230247,5
0.739997863769531,-0.318441689014435,2.884192943573,1.19519925117493,-0.135402141159277,2.90755662179454,1.22667746565781,1393.328,1185.192,3152.787,3093.683,-0.04382658,0.04795327,0.06321852,-0.59742259979248,-0.0667099356651306,0.208521544933319,-0.280478211503383,-0.120681938755799,0.173629373950669,5
0.760002136230469,-0.330436885356903,2.88283967971802,1.19950449466705,-0.14113868194985,2.90508834855275,1.23022865767651,1392.604,1207.631,3149.944,3074.231,-0.04599918,0.04873483,0.05981027,-0.599758327007294,-0.0676612332463264,0.21526500582695,-0.293075466693575,-0.12610218573757,0.181427675003881,5
0.779998779296875,-0.342469692230225,2.88145470619202,1.20394217967987,-0.147126184485884,2.90251209348295,1.23393520697061,1387.078,1226.544,3150.67,3059.615,-0.0485441,0.04931806,0.05664995,-0.601642608642578,-0.069254532456398,0.221884086728096,-0.305795832832518,-0.131575403921268,0.189302187598958,5
0.800003051757813,-0.35453274846077,2.88002419471741,1.20850884914398,-0.153371683173492,2.89982482987671,1.2378014681726,1373.714,1240.6,3154.596,3054.264,-0.05147731,0.04966024,0.05393456,-0.60315215587616,-0.0715199112892151,0.228334128856659,-0.318639638509124,-0.13710173468952,0.197253115148089,5
0.819999694824219,-0.366620600223541,2.87853479385376,1.21319878101349,-0.159872691993147,2.89702762739878,1.24182590231796,1352.807,1250.884,3156.066,3062.061,-0.05474927,0.04973939,0.05175875,-0.604392826557159,-0.074468731880188,0.234495937824249,-0.331587821991737,-0.142672976311719,0.205268657531342,4
0.840003967285156,-0.378730416297913,2.87697291374207,1.21800720691681,-0.166636266402775,2.89411745028271,1.24601287707125,1326.869,1259.559,3156.009,3077.739,-0.05825398,0.04956017,0.05010194,-0.605491757392883,-0.0780989974737167,0.240419343113899,-0.344641102544584,-0.148289438267168,0.213349260007538,4
0.860000610351563,-0.390861541032791,2.87532496452332,1.22292876243591,-0.173659158941841,2.89109569582005,1.2503603820997,1300.575,1269.122,3151.27,3097.472,-0.06187695,0.04915169,0.0488637,-0.606555938720703,-0.0823923423886299,0.246076300740242,-0.357780475378537,-0.153942943326036,0.221483157706883,4
0.879997253417969,-0.403014987707138,2.8735785484314,1.22796046733856,-0.180945630646592,2.88796053060595,1.25487105518773,1277.252,1280.912,3145.928,3113.21,-0.06551696,0.04855383,0.04792153,-0.607672214508057,-0.0873266011476517,0.251585781574249,-0.371001963495383,-0.159631780297098,0.229667888678032,4
0.900001525878906,-0.415192723274231,2.87172102928162,1.23309922218323,-0.188500167066783,2.88471002463366,1.2595476731043,1258.205,1295.052,3138.849,3124.789,-0.06911702,0.04780446,0.04718617,-0.608887016773224,-0.0928713902831078,0.256935268640518,-0.384301823631742,-0.165354338558695,0.237901135662636,4
0.919998168945313,-0.427397310733795,2.86974120140076,1.23834252357483,-0.196318384305134,2.8813460641717,1.26438752200817,1247.81,1310.945,3131.7,3127.323,-0.07266062,0.04693466,0.04660882,-0.61022937297821,-0.0989959090948105,0.262164920568466,-0.397661187980262,-0.171102499820431,0.246171218589148,4
0.94000244140625,-0.439631670713425,2.86762762069702,1.24368953704834,-0.204407453948074,2.87786556348678,1.26939504145298,1236.754,1326.723,3128.406,3127.98,-0.076176,0.04594985,0.04622995,-0.61171954870224,-0.105674527585506,0.267350614070892,-0.411081631631503,-0.176876941799768,0.254479112513653,4
0.959999084472656,-0.451899230480194,2.86537003517151,1.24913775920868,-0.212762239776093,2.87427073255068,1.27456705187416,1227.006,1341.055,3125.633,3128.944,-0.07967539,0.04485362,0.04609969,-0.613376677036285,-0.112875901162624,0.272409707307816,-0.424544411524882,-0.18266959988136,0.262813214588797,3
0.980003356933594,-0.464204013347626,2.86295866966248,1.25468564033508,-0.221389982382338,2.87055845593844,1.2799080355438,1216.476,1353.329,3125.725,3130.676,-0.08315348,0.04364475,0.04627109,-0.615239083766937,-0.12057164311409,0.277395665645599,-0.438051398499298,-0.18848127903492,0.271174682952979,3
1,-0.476550936698914,2.86038422584534,1.26033020019531,-0.230284798736574,2.86673126495361,1.28541435058594,1204.947,1363.656,3124.499,3137.128,-0.08659641,0.04232625,0.04677441,-0.617344975471497,-0.128721296787262,0.282229721546173,-0.451584000205995,-0.194303979492187,0.279552008056641,3
1.02000427246094,-0.488945841789246,2.85763835906982,1.26607000827789,-0.239454009753966,2.86278600961093,1.2910905289958,1192.311,1372.293,3124.865,3145.454,-0.08996478,0.04090751,0.04760446,-0.619747698307037,-0.137288257479668,0.286992967128754,-0.465144357597929,-0.200138622445408,0.287946515251652,3
1.04000091552734,-0.501395523548126,2.85471391677856,1.27190268039703,-0.24889099213045,2.8587255397331,1.29693247063265,1180.137,1380.13,3123.044,3156.788,-0.09321703,0.03940706,0.04872603,-0.622486472129822,-0.146223410964012,0.291631698608398,-0.478714054341683,-0.205977283860805,0.296346803950333,3
1.05999755859375,-0.513907611370087,2.85160422325134,1.277827501297,-0.258599401509697,2.85454828239877,1.30294243851408,1169.435,1387.469,3122.538,3166.69,-0.09630736,0.03784848,0.05008596,-0.625601708889008,-0.155483573675156,0.296243488788605,-0.492290296490434,-0.211818761581115,0.30475114456651,3
1.08000183105469,-0.526489734649658,2.84830379486084,1.28384351730347,-0.268583149539609,2.85025255453512,1.30912285413647,1160.581,1394.684,3121.049,3176.568,-0.09920382,0.03625586,0.05163634,-0.629110872745514,-0.165016427636147,0.300802767276764,-0.50587040849135,-0.217661904390701,0.313157880805523,3
1.09999847412109,-0.539150238037109,2.84480834007263,1.28995025157928,-0.278834517009062,2.84584167750307,1.31546893894041,1158.335,1401.893,3118.855,3181.67,-0.1018925,0.03465552,0.05332594,-0.633025825023651,-0.174770817160606,0.30533555150032,-0.519436284009554,-0.223498921639497,0.321555803983559,3
1.12000274658203,-0.551897287368774,2.84111428260803,1.29614913463593,-0.289361068555186,2.84131239645058,1.32198537579665,1154.505,1408.376,3119.897,3186.908,-0.1043874,0.03305641,0.05515463,-0.637353539466858,-0.184705033898354,0.309942275285721,-0.532990631455731,-0.229330978680957,0.329946590735853,3
1.13999938964844,-0.564739048480988,2.83721899986267,1.30244016647339,-0.300154365346813,2.83666834237095,1.3286669406667,1152.92,1413.764,3120.326,3192.201,-0.1066889,0.03147236,0.05711219,-0.642088711261749,-0.194768726825714,0.314549624919891,-0.546515580872639,-0.235150386571708,0.338319178707607,3
1.16000366210938,-0.577683806419373,2.83312058448792,1.30882489681244,-0.311222084148811,2.83190621216671,1.33551838583369,1152.568,1417.836,3123.258,3195.905,-0.1087928,0.02991226,0.05919518,-0.647238194942474,-0.204922527074814,0.319238036870956,-0.560014026276883,-0.240958390526247,0.34667535943296,3
1.18000030517578,-0.590739727020264,2.82881832122803,1.31530380249023,-0.322555076427271,2.82702994219644,1.34253404791935,1153.44,1420.897,3124.773,3201.342,-0.1107055,0.02838469,0.0613998,-0.652796506881714,-0.215116292238235,0.323943048715591,-0.573468357077025,-0.246747413199059,0.355004231116904,3
1.19999694824219,-0.603915154933929,2.82431197166443,1.32187879085541,-0.334156660511822,2.8220381046756,1.34971598112778,1154.102,1422.587,3128.505,3206.808,-0.1124253,0.02689621,0.06371439,-0.658772170543671,-0.225312441587448,0.328752130270004,-0.58687652428584,-0.252516572968185,0.36330452533874,3
1.22000122070313,-0.617218434810638,2.81960272789001,1.32855129241943,-0.346030421585499,2.81692915700008,1.35706640485806,1154.423,1423.394,3131.571,3214.449,-0.113946,0.02545711,0.0661191,-0.665159821510315,-0.235466092824936,0.333624839782715,-0.600236516861372,-0.258265004538453,0.371574997167698,3
1.23999786376953,-0.630657494068146,2.81469202041626,1.33532273769379,-0.358166167196084,2.81170748469733,1.36457900949675,1159.277,1423.882,3133.477,3219.611,-0.1152637,0.02408366,0.06856967,-0.671956181526184,-0.24553482234478,0.338569611310959,-0.613531154887641,-0.263985315871967,0.379805011417393,2
1.26000213623047,-0.64424067735672,2.80958223342896,1.34219646453857,-0.370571882958536,2.80636965178032,1.3722587385199,1161.488,1423.647,3138.383,3225.646,-0.1163892,0.0227794,0.07105414,-0.679157555103302,-0.255488902330399,0.343686252832413,-0.626763698705669,-0.269678909802388,0.38799658639423,2
1.27999877929688,-0.657975435256958,2.80427646636963,1.34917426109314,-0.383236695417198,2.80092033679326,1.3800988607405,1165.706,1423.017,3141.74,3231.696,-0.1173186,0.02155724,0.07354318,-0.686741054058075,-0.265288084745407,0.348888844251633,-0.639917282339435,-0.275338529371412,0.396139281255613,2
1.30000305175781,-0.671869337558746,2.79877829551697,1.3562593460083,-0.396168722856641,2.79535604666509,1.38810440176341,1171.641,1421.778,3146.994,3235.154,-0.1180494,0.02042521,0.07601484,-0.694695949554443,-0.274904876947403,0.354254215955734,-0.652995275331231,-0.280965624398954,0.404235181908735,2
1.31999969482422,-0.685929238796234,2.79309225082397,1.36345362663269,-0.409356423791328,2.7896817473746,1.39626821685929,1179.343,1420.413,3150.376,3239.028,-0.1186023,0.01938837,0.07845666,-0.702993392944336,-0.284302800893784,0.359717071056366,-0.665981146317813,-0.286553081901244,0.412274054652251,2
1.34000396728516,-0.700161576271057,2.78722310066223,1.37076091766357,-0.422808053134535,2.78389388706324,1.40459541621271,1186.47,1418.134,3156.279,3242.149,-0.1189922,0.01844665,0.0808624,-0.711620569229126,-0.293461322784424,0.36536517739296,-0.678878353700697,-0.292102389931837,0.420258040401443,2
1.36000061035156,-0.714572548866272,2.78117609024048,1.37818348407745,-0.436511415158101,2.77799771321212,1.41307845008695,1194.173,1415.591,3160.694,3246.331,-0.119235,0.01760287,0.08322199,-0.720547616481781,-0.302352130413055,0.371127754449844,-0.691670720740693,-0.297606588091785,0.42817712498415,2
1.37999725341797,-0.729167759418488,2.77495694160461,1.3857250213623,-0.450469530727146,2.77199192602736,1.42171918854144,1201.17,1412.207,3167.547,3249.623,-0.1193357,0.01685635,0.08552646,-0.729760587215424,-0.310961484909058,0.377079337835312,-0.704356955827446,-0.303065120637236,0.436030508832034,2
1.40000152587891,-0.743952333927155,2.76857161521912,1.39338803291321,-0.464685685951852,2.76587511158757,1.43051966583492,1207.994,1408.57,3173.196,3254.189,-0.1192963,0.0162089,0.08776564,-0.739227950572968,-0.319267183542252,0.383149743080139,-0.716935713767318,-0.308477408768949,0.443817359206152,2
1.41999816894531,-0.758930861949921,2.76202654838562,1.40117466449738,-0.47914673136562,2.75965292774086,1.43947174182117,1219.241,1405.224,3177.048,3255.857,-0.1191306,0.01566646,0.08991158,-0.748925864696503,-0.327249705791473,0.389330744743347,-0.729391385793766,-0.313836736470737,0.451528013536465,2
1.44000244140625,-0.774107575416565,2.75532841682434,1.40908896923065,-0.493861275572861,2.75332167044526,1.4485807456364,1226.35,1401.163,3184.122,3259.056,-0.1188638,0.01521964,0.09197293,-0.75883686542511,-0.334904879331589,0.395715743303299,-0.741727567798258,-0.319144650954242,0.459164697851088,2
1.45999908447266,-0.789486050605774,2.74848413467407,1.41713297367096,-0.508815552717244,2.74688726276417,1.45783815555978,1234.104,1397.112,3189.318,3262.872,-0.1184995,0.01487009,0.09393585,-0.76892364025116,-0.342219084501266,0.402201801538467,-0.753929052770513,-0.324394609067776,0.466717998286247,2
1.48000335693359,-0.805069386959076,2.74150037765503,1.42531001567841,-0.524018315758597,2.74034593854351,1.46724939009041,1242.285,1392.686,3196.241,3264.626,-0.118035,0.01461755,0.09578932,-0.779167532920837,-0.349190503358841,0.408849716186523,-0.765999459475408,-0.329588167864767,0.474190155029787,2
1.5,-0.820860028266907,2.73438429832458,1.43362152576447,-0.539455198877605,2.73370387899399,1.4768055561018,1251.808,1388.729,3200.52,3266.759,-0.117488,0.01446052,0.09752616,-0.789530098438263,-0.355807453393936,0.415573209524155,-0.777924000354858,-0.334718964672088,0.481572013878822,1
1.51999664306641,-0.836859881877899,2.72714281082153,1.44207060337067,-0.555129074991064,2.72695984797977,1.48650843206629,1260.239,1384.264,3206.997,3268.02,-0.1168712,0.01439247,0.09914595,-0.799993872642517,-0.362073421478271,0.422452032566071,-0.789701834723693,-0.339786637766398,0.488863054409188,1
1.54000091552734,-0.853070318698883,2.71978306770325,1.45065903663635,-0.571043070329722,2.72011250037111,1.49635995326965,1267.392,1379.807,3212.512,3270.813,-0.1161937,0.01440901,0.1006494,-0.810523509979248,-0.367985963821411,0.429419994354248,-0.801332006385301,-0.344790775723006,0.496062684689629,1
1.55999755859375,-0.86949211359024,2.7123122215271,1.45938813686371,-0.587181951496087,2.71316839067337,1.50635068951315,1278.026,1375.939,3216.153,3271.022,-0.1154693,0.01451102,0.1020181,-0.821091771125793,-0.373544245958328,0.436455011367798,-0.812800388649436,-0.349725300221754,0.503162159625937,1
1.58000183105469,-0.88612574338913,2.70473694801331,1.46826088428497,-0.60355483331529,2.70612359703193,1.51648628330776,1284.348,1371.422,3223.097,3272.417,-0.1147162,0.01468565,0.1032687,-0.831681311130524,-0.378761678934097,0.443640142679214,-0.824110582941666,-0.354591760855452,0.510163708672098,0
1.59999847412109,-0.902970850467682,2.69706416130066,1.47727799415588,-0.620145926473056,2.69898491314762,1.52675696031579,1291.214,1367.266,3227.626,3274.415,-0.1139338,0.0149309,0.1043964,-0.842253684997559,-0.383640706539154,0.450857043266296,-0.835248923368005,-0.359384277571697,0.517058871988737,0
1.62000274658203,-0.920026659965515,2.6893002986908,1.48644125461578,-0.636964489205914,2.69174835545992,1.53716845182668,1298.224,1362.883,3233.578,3274.554,-0.1131188,0.01524298,0.1053985,-0.852793097496033,-0.388193249702454,0.458161354064941,-0.846218976345106,-0.364104384899943,0.523849857357655,0
1.63999938964844,-0.937291920185089,2.68145179748535,1.49575054645538,-0.653994195024907,2.68442094880091,1.54771065096602,1306.157,1359.236,3236.491,3275.413,-0.1122879,0.01561736,0.1062739,-0.863264620304108,-0.39242148399353,0.465463012456894,-0.857007552155828,-0.368746407673381,0.530528499715628,0
1.66000366210938,-0.954765141010284,2.67352485656738,1.50520753860474,-0.671244443874359,2.67699864863716,1.55838937674714,1312.375,1355.19,3241.806,3275.517,-0.1114501,0.01604573,0.1070267,-0.873657166957855,-0.396342068910599,0.472847938537598,-0.867618167158098,-0.373311858882592,0.53709697585572,0
1.68000030517578,-0.972443878650665,2.66552567481995,1.51481199264526,-0.688698391434734,2.66948870260877,1.56919420173384,1318.318,1351.745,3244.809,3276.779,-0.1106171,0.01652346,0.1076574,-0.88393759727478,-0.399963229894638,0.480221807956696,-0.878038122530658,-0.377795274579551,0.543547424602645,0
1.69999694824219,-0.990325748920441,2.65745949745178,1.52456498146057,-0.706358800111611,2.66188992212981,1.58012683598675,1323.191,1347.994,3250.013,3276.615,-0.1097851,0.01704466,0.1081673,-0.894095003604889,-0.403304368257523,0.487650573253632,-0.888267004546665,-0.382196476749158,0.549879589839776,0
1.72000122070313,-1.00840771198273,2.64933204650879,1.5344660282135,-0.724228658537036,2.6542010212754,1.5911891296115,1327.367,1344.634,3253.556,3277.538,-0.1089526,0.0176047,0.1085617,-0.904098749160767,-0.406376242637634,0.495049864053726,-0.898304216251578,-0.386515208538549,0.556093102023817,0
1.73999786376953,-1.02668631076813,2.64114832878113,1.54451394081116,-0.742290383213093,2.64642956573347,1.60237019758524,1335.433,1342.223,3254.494,3275.801,-0.1081334,0.01820374,0.1088281,-0.913928627967834,-0.409187942743301,0.502393901348114,-0.908137821269591,-0.39074633405868,0.562180571969536,0
1.76000213623047,-1.04515790939331,2.63291311264038,1.55470967292786,-0.76055371708895,2.63857136338517,1.61367607125764,1338.598,1339.175,3259.127,3275.421,-0.1073456,0.01882613,0.1089915,-0.92357861995697,-0.411763280630112,0.509783864021301,-0.917771149318994,-0.394891285994308,0.568144060931169,0
1.77999877929688,-1.06381833553314,2.62463068962097,1.56505155563354,-0.779000609654483,2.63063418086074,1.62509557650306,1341.358,1336.594,3261.34,3276.383,-0.1065872,0.01946896,0.1090546,-0.933019042015076,-0.41411566734314,0.517095148563385,-0.927192788821983,-0.398945154262308,0.57397650459845,0
1.80000305175781,-1.0826632976532,2.61630535125732,1.57553923130035,-0.797640935141499,2.62261376955408,1.63663482594136,1344.271,1333.844,3265.188,3275.14,-0.1058436,0.02012904,0.1090183,-0.942245483398438,-0.416265577077866,0.524385690689087,-0.936405971974637,-0.402909329586356,0.579679903854719,0
1.81999969482422,-1.1016880273819,2.6079409122467,1.5861701965332,-0.816456197270346,2.61451808789761,1.64828236949435,1348.152,1332.01,3265.479,3274.885,-0.105124,0.02080325,0.1088851,-0.951231718063354,-0.418220996856689,0.531550765037537,-0.945399824400851,-0.406779133026206,0.585247526943151,0
1.84000396728516,-1.12088751792908,2.5995409488678,1.59694385528564,-0.835456397410825,2.6063428325813,1.66004439848636,1350.708,1329.885,3268.082,3273.546,-0.1044327,0.0214841,0.1086614,-0.959979116916656,-0.420002222061157,0.538685083389282,-0.95417746870157,-0.410555908149813,0.59068130690248,0
1.86000061035156,-1.14025688171387,2.59110856056213,1.60785782337189,-0.854622615239374,2.59809614449182,1.6719092003358,1352.689,1328.461,3268.24,3273.779,-0.1037802,0.02216807,0.1083518,-0.968465626239777,-0.421621114015579,0.545696020126343,-0.962728579444532,-0.414235212212131,0.595974851798267,0
1.87999725341797,-1.15979087352753,2.58264660835266,1.61891102790833,-0.873957566090845,2.58977685529642,1.6838784559643,1353.303,1326.698,3271.018,3272.578,-0.1031559,0.02284975,0.1079611,-0.976693212985992,-0.423099845647812,0.552661776542664,-0.971053025860989,-0.417816988947023,0.601128080678429,0
1.90000152587891,-1.17948353290558,2.57415771484375,1.6301007270813,-0.893464153455626,2.58138371570432,1.69595396277071,1353.059,1325.367,3271.922,3272.847,-0.102553,0.02352707,0.1074966,-0.984641373157501,-0.424450129270554,0.559487581253052,-0.979150439632688,-0.421301079877433,0.606140765536421,0
1.91999816894531,-1.19932973384857,2.56564402580261,1.64142370223999,-0.913122862707269,2.57292512231409,1.70812364027167,1357.515,1325.064,3270.066,3269.872,-0.1019778,0.024203,0.106945,-0.992301940917969,-0.425680488348007,0.566151857376099,-0.987011339258123,-0.424683405378145,0.611007036871143,0
1.94000244140625,-1.21932315826416,2.55710768699646,1.65287899971008,-0.932943991899774,2.5643966441608,1.72039386345315,1356.703,1324.103,3272.144,3268.572,-0.1014467,0.02486312,0.1063359,-0.999680399894714,-0.426812767982483,0.572766959667206,-0.994638524886308,-0.427965170275055,0.615728628108227,0
1.95999908447266,-1.23945832252502,2.54855060577393,1.66446304321289,-0.952907658613767,2.55580683609405,1.73275232415044,1355.502,1323.575,3271.637,3268.928,-0.1009535,0.02550668,0.1056735,-1.00675785541534,-0.42785781621933,0.579203128814697,-1.00202309041976,-0.431142542523221,0.620300025949072,0
1.98000335693359,-1.2597291469574,2.53997397422791,1.67617356777191,-0.973024270010337,2.54715122020317,1.74520546489201,1354.63,1322.843,3272.895,3266.984,-0.1004795,0.02613317,0.1049578,-1.01354193687439,-0.428832471370697,0.585528612136841,-1.00916768936771,-0.434216663853535,0.624722873042297,0
2,-1.28012943267822,2.53137922286987,1.68800640106201,-0.993273599084619,2.53843849960327,1.7577407641983,1354.784,1322.953,3270.74,3266.067,-0.1000289,0.02674222,0.1041921,-1.02001738548279,-0.429740935564041,0.591642737388611,-1.01606400046349,-0.437183953857422,0.628992018127441,0
2.01999664306641,-1.3006534576416,2.52276730537415,1.69995927810669,-1.01365835337184,2.52966750931758,1.77035989816261,1353.739,1322.727,3270.989,3264.071,-0.09960116,0.02732921,0.1033833,-1.02619516849518,-0.430597722530365,0.597644090652466,-1.02271203275434,-0.440044416427654,0.633107466805174,0
2.04000091552734,-1.3212947845459,2.51413917541504,1.71202850341797,-1.0341813929022,2.52083701875502,1.78306463727984,1350.768,1322.731,3269.952,3264.409,-0.09919369,0.02789131,0.1025404,-1.03206515312195,-0.431410253047943,0.603459239006042,-1.02911152474823,-0.442797939051516,0.637069057199471,0
2.05999755859375,-1.34204721450806,2.50549554824829,1.72420990467072,-1.05482201812353,2.5119559343546,1.79584216754118,1352.044,1323.556,3266.759,3261.622,-0.09880594,0.02843462,0.101647,-1.03762710094452,-0.432183563709259,0.609070897102356,-1.03525504859546,-0.445441325732794,0.640872191117535,0
2.08000183105469,-1.36290514469147,2.49683690071106,1.7365015745163,-1.07559088172821,2.50301967256038,1.80869908347065,1348.595,1323.804,3267.392,3260.077,-0.09844535,0.02894885,0.1007287,-1.0428911447525,-0.43293359875679,0.614583194255829,-1.04114485287423,-0.447975543971863,0.644518260536375,0
2.09999847412109,-1.38386201858521,2.4881637096405,1.74889886379242,-1.09646699912883,2.4940372624541,1.82162239460902,1345.536,1324.444,3265.167,3259.9,-0.09810074,0.02943667,0.09978733,-1.0478435754776,-0.433663785457611,0.619862258434296,-1.04677411523768,-0.450397658303471,0.648003042098304,0
2.12000274658203,-1.40491199493408,2.47947597503662,1.76139855384827,-1.11746110947495,2.48500408327971,1.83461874900143,1343.416,1324.844,3264.678,3257.106,-0.09775505,0.02989954,0.09882259,-1.0524970293045,-0.434383124113083,0.624986886978149,-1.05214490868305,-0.452708560680417,0.651327819087362,0
2.13999938964844,-1.42604887485504,2.47077417373657,1.77399587631226,-1.138551967509,2.47592927627801,1.8476749948214,1341.992,1325.898,3260.974,3255.848,-0.09741737,0.03033707,0.09784009,-1.05684185028076,-0.435088843107224,0.629863679409027,-1.05725102347782,-0.454905579228273,0.654488747383304,0
2.16000366210938,-1.44726669788361,2.46205830574036,1.78668785095215,-1.15975039167652,2.46680818657414,1.86079782920208,1339.181,1326.46,3259.973,3253.679,-0.09708501,0.03074627,0.09684607,-1.06089377403259,-0.435789257287979,0.634599030017853,-1.0620943502576,-0.456989527434725,0.657486997379635,0
2.18000030517578,-1.4685595035553,2.45332860946655,1.79946982860565,-1.18103490068612,2.45765005696766,1.87397395420079,1336.168,1327.492,3256.503,3253.258,-0.09676063,0.03112855,0.09584236,-1.06464529037476,-0.436483144760132,0.639097511768341,-1.06666929835407,-0.458957999791384,0.660319108186354,0
2.19999694824219,-1.4899218082428,2.44458484649658,1.81233882904053,-1.20240821395574,2.44845371736898,1.88720505326679,1332.468,1328.094,3255.695,3251.124,-0.0964304,0.03148437,0.09482979,-1.06811118125916,-0.43717834353447,0.643449783325195,-1.07097597819164,-0.460811043810786,0.662985148161421,0
2.22000122070313,-1.51134753227234,2.43582773208618,1.82529020309448,-1.22387315175433,2.43921795429519,1.90049287228091,1328.045,1328.908,3253.152,3250.755,-0.09608366,0.03181561,0.09381363,-1.07128429412842,-0.437872111797333,0.647569358348846,-1.07501419914593,-0.462548577472581,0.665484999299265,0
2.23999786376953,-1.53283071517944,2.42705655097961,1.83831906318665,-1.24540792547886,2.42995214277345,1.91382392305993,1328.9,1330.391,3248.054,3247.05,-0.09572253,0.03213028,0.09277537,-1.07416749000549,-0.438558310270309,0.651441633701324,-1.07877930973132,-0.464168599372462,0.667815782108711,0
2.26000213623047,-1.55436635017395,2.41827154159546,1.85142302513123,-1.26702351885107,2.42065155681516,1.92720500505083,1324.825,1331.238,3247.143,3244.754,-0.09536301,0.03241803,0.09174209,-1.07677555084229,-0.439244300127029,0.655197501182556,-1.08227271937422,-0.465671715947234,0.669978369091845,0
2.27999877929688,-1.57594835758209,2.40947294235229,1.86459708213806,-1.28869796983554,2.41132564607061,1.9406225227075,1320.196,1332.127,3243.84,3244.759,-0.09499602,0.03268213,0.0907164,-1.07909893989563,-0.439925849437714,0.658704817295074,-1.08549040888332,-0.467056197851165,0.67197027217779,0
2.30000305175781,-1.59757137298584,2.4006609916687,1.87783789634705,-1.31044231452835,2.40196966201596,1.95408330789913,1316.931,1332.643,3242.411,3241.8,-0.09459762,0.03292706,0.08969182,-1.0811527967453,-0.44060480594635,0.662042438983917,-1.08843358680109,-0.468322565086307,0.673792239511894,0
2.31999969482422,-1.61922991275787,2.39183568954468,1.89114010334015,-1.33223444283894,2.39259311800549,1.96757367342642,1314.907,1333.716,3237.598,3240.223,-0.09417417,0.03315543,0.08866905,-1.08292937278748,-0.441270053386688,0.665112912654877,-1.09109887036509,-0.469469362144493,0.675442177003072,0
2.33999633789063,-1.64091873168945,2.3829972743988,1.90450072288513,-1.35407709248145,2.38319483607731,1.98109531406483,1312.078,1334.271,3235.555,3237.295,-0.09372409,0.03336625,0.08765088,-1.08444547653198,-0.441922545433044,0.668033123016357,-1.09348640563071,-0.470496651869278,0.67692017506657,0
2.36000061035156,-1.66263270378113,2.37414622306824,1.91791534423828,-1.37597305876702,2.37377361348711,1.99464996024512,1307.207,1334.799,3232.39,3237.151,-0.09324579,0.03355972,0.08664401,-1.08569622039795,-0.442555457353592,0.670730710029602,-1.09559602313537,-0.471404361345641,0.678226128796969,0
2.37999725341797,-1.68436646461487,2.36528277397156,1.93137919902802,-1.39790005743958,2.36433903852774,2.00822381695123,1307.337,1335.74,3227.335,3233.511,-0.092735,0.03374568,0.08562563,-1.08668601512909,-0.443160712718964,0.673193395137787,-1.09742530100382,-0.472191448508328,0.679358538938131,0
2.40000152587891,-1.70611500740051,2.35640811920166,1.94488990306854,-1.4198692197338,2.35488632173988,2.02182377494768,1303.003,1336.153,3226.033,3231.136,-0.09220023,0.03391661,0.08461789,-1.08742666244507,-0.443740874528885,0.675534427165985,-1.09897493039424,-0.472858210743393,0.680317833349887,0
2.41999816894531,-1.7278733253479,2.34752249717712,1.95844233036041,-1.44185817738692,2.34542508756209,2.03543598721428,1299.325,1336.605,3221.906,3230.406,-0.09163404,0.03407788,0.08361739,-1.08790838718414,-0.444286108016968,0.677619516849518,-1.10024313330221,-0.473403883025206,0.681102911362803,0
2.44000244140625,-1.74963617324829,2.33862638473511,1.97203326225281,-1.46387808506052,2.33595053645515,2.04906735901791,1297.059,1336.661,3219.931,3226.571,-0.09101833,0.03423311,0.08261824,-1.08814561367035,-0.444794833660126,0.679546594619751,-1.10123038958312,-0.473828671822132,0.681714070030222,0
2.45999908447266,-1.7713987827301,2.32972145080566,1.98565769195557,-1.48590651627916,2.32647231790489,2.06270400730194,1295.363,1337.085,3215.016,3224.566,-0.09036478,0.03438386,0.08162418,-1.08812987804413,-0.445254057645798,0.681222021579742,-1.10193556692257,-0.474132089930926,0.682150608395601,0
2.48000335693359,-1.79315626621246,2.32080817222595,1.99931275844574,-1.50795464064698,2.31698562594271,2.07635284658344,1292.861,1336.924,3212.652,3221.49,-0.0896713,0.03452922,0.08063608,-1.08787500858307,-0.445661693811417,0.682750761508942,-1.10235893238473,-0.47431425226183,0.68241269178437,0
2.5,-1.8149037361145,2.31188821792603,2.01299381256104,-1.52999999932945,2.30750012397766,2.08999997377396,1290.532,1336.984,3208.076,3219.963,-0.08894319,0.0346721,0.07965189,-1.08737504482269,-0.446007609367371,0.684047758579254,-1.10250000050292,-0.474374949932098,0.682500019669533,0
2.51999664306641,-1.83663654327393,2.30296206474304,2.02669787406921,-1.55204535801192,2.29801462201262,2.10364710096447,1287.522,1336.536,3206.154,3216.958,-0.08816981,0.03481358,0.0786697,-1.08664202690125,-0.4462910592556,0.685206174850464,-1.10235893238473,-0.47431425226183,0.68241269178437,0
2.54000091552734,-1.85834980010986,2.29403209686279,2.04042077064514,-1.57409348237975,2.28852793005043,2.11729594024597,1284.001,1336.099,3202.792,3215.543,-0.08734423,0.03495659,0.07769094,-1.08566904067993,-0.446502655744553,0.686147332191467,-1.10193556692257,-0.474132089930926,0.682150608395601,0
2.55999755859375,-1.8800390958786,2.28509950637817,2.05415797233582,-1.59612191359838,2.27904971150017,2.13093258853001,1285.905,1336.014,3197.129,3210.801,-0.08646805,0.03510926,0.07669444,-1.08445703983307,-0.446630716323853,0.686856031417847,-1.10123038958312,-0.473828671822132,0.681714070030222,0
2.58000183105469,-1.90169942378998,2.27616596221924,2.06790709495544,-1.61814182127198,2.26957516039323,2.14456396033363,1283.089,1335.445,3195.272,3207.595,-0.08556204,0.03526257,0.07570296,-1.08301615715027,-0.446676015853882,0.687461733818054,-1.10024313330221,-0.473403883025206,0.681102911362804,0
2.59999847412109,-1.92332601547241,2.26723337173462,2.0816638469696,-1.64013077892511,2.26011392621545,2.15817617260023,1280.033,1334.703,3191.302,3206.423,-0.08462088,0.03541983,0.07471466,-1.08133721351624,-0.446630239486694,0.687841475009918,-1.09897493039424,-0.472858210743393,0.680317833349887,0
2.62000274658203,-1.94491469860077,2.25830364227295,2.09542536735535,-1.66209994121933,2.25066120942759,2.17177613059669,1278.232,1333.55,3189.364,3202.358,-0.08362539,0.03558522,0.0737213,-1.07943058013916,-0.446492195129395,0.688077926635742,-1.09742530100382,-0.472191448508328,0.679358538938131,0
2.63999938964844,-1.96646046638489,2.24937868118286,2.10918688774109,-1.68402693989188,2.24122663446822,2.18534998730279,1277.603,1332.751,3184.345,3199.677,-0.0825825,0.03576068,0.07272179,-1.07728743553162,-0.446249336004257,0.688074707984924,-1.09559602313537,-0.471404361345641,0.67822612879697,0
2.66000366210938,-1.98795866966248,2.24046087265015,2.12294578552246,-1.70592290617745,2.23180541187802,2.19890463348308,1276.613,1331.489,3181.827,3195.458,-0.08149326,0.03594536,0.07171602,-1.07491815090179,-0.445900171995163,0.687942147254944,-1.09348640563071,-0.470496651869278,0.67692017506657,0
2.68000030517578,-2.0094051361084,2.23155188560486,2.13669753074646,-1.72776555581996,2.22240712994983,2.2124262741215,1275.392,1330.407,3177.011,3193.338,-0.08036941,0.03614007,0.07070383,-1.07231462001801,-0.445435404777527,0.687591254711151,-1.09109887036509,-0.469469362144494,0.675442177003072,0
2.69999694824219,-2.03079462051392,2.22265481948853,2.15043997764587,-1.74955768413056,2.21303058593937,2.22591663964878,1273.648,1328.844,3175.099,3189.325,-0.07920135,0.03634556,0.06968239,-1.06948697566986,-0.444856375455856,0.687124848365784,-1.08843358680109,-0.468322565086308,0.673792239511893,0
2.72000122070313,-2.05212330818176,2.21377158164978,2.16416907310486,-1.77130202882336,2.20367460188472,2.23937742484041,1270.883,1327.304,3171.447,3187.661,-0.07798641,0.03656268,0.0686539,-1.06642639636993,-0.444155365228653,0.686450839042664,-1.08549040888332,-0.467056197851165,0.671970272177789,0
2.73999786376953,-2.07338571548462,2.20490550994873,2.17788052558899,-1.79297647980783,2.19434869114016,2.25279494249708,1273.909,1326.007,3166.127,3181.784,-0.07672354,0.03679933,0.06759498,-1.06313407421112,-0.443325102329254,0.685571432113647,-1.08227271937422,-0.465671715947234,0.669978369091845,0
2.76000213623047,-2.0945782661438,2.19605779647827,2.19157242774963,-1.81459207318004,2.18504810518187,2.26617602448799,1271.899,1324.459,3163.953,3178.14,-0.07543723,0.03704571,0.06653041,-1.059614777565,-0.442367374897003,0.684593856334686,-1.07877930973132,-0.464168599372462,0.667815782108711,0
2.77999877929688,-2.11569547653198,2.18723249435425,2.20524072647095,-1.83612684690458,2.17578229366013,2.27950707526701,1269.999,1322.635,3160.15,3175.825,-0.07412057,0.0373043,0.06545725,-1.05586099624634,-0.441277951002121,0.68341201543808,-1.07501419914593,-0.462548577472581,0.665484999299265,0
2.80000305175781,-2.13673305511475,2.17843127250671,2.21888256072998,-1.85759178470316,2.16654653058634,2.29279489428112,1268.954,1320.523,3157.826,3171.417,-0.07275916,0.03757735,0.06436908,-1.05187952518463,-0.440057247877121,0.682090163230896,-1.07097597819164,-0.460811043810786,0.662985148161422,0
2.81999969482422,-2.15768575668335,2.16965746879578,2.23249363899231,-1.87896509797278,2.15735019098767,2.30602599334712,1269.518,1318.728,3152.874,3167.572,-0.07136047,0.03786654,0.06326276,-1.04766285419464,-0.438697755336761,0.680549919605255,-1.06666929835407,-0.458957999791384,0.660319108186353,0
2.83999633789063,-2.17855024337769,2.16091346740723,2.24607133865356,-1.90024960698239,2.14819206138118,2.31920211834584,1269.099,1316.622,3150.147,3162.898,-0.06992875,0.03816917,0.06214162,-1.04321813583374,-0.437200605869293,0.678889453411102,-1.06209435025759,-0.456989527434725,0.657486997379635,0
2.86000061035156,-2.19932103157043,2.15220189094543,2.25961232185364,-1.9214480311499,2.13907097167731,2.33232495272651,1266.819,1314.423,3146.51,3160.75,-0.06846721,0.03848388,0.0610096,-1.0385400056839,-0.435562670230865,0.677046537399292,-1.05725102347782,-0.454905579228273,0.654488747383304,0
2.87999725341797,-2.21999359130859,2.14352631568909,2.27311253547668,-1.94253888918396,2.12999616467562,2.34538119854648,1269.297,1312.403,3141.487,3155.078,-0.06697264,0.03881745,0.05984484,-1.03362917900085,-0.433781147003174,0.675012171268463,-1.05214490868305,-0.452708560680416,0.651327819087361,0
2.90000152587891,-2.24056339263916,2.13488912582397,2.28657007217407,-1.96353299953007,2.12096298550123,2.3583775529389,1267.434,1310.301,3139.255,3151.07,-0.0654621,0.0391616,0.05866724,-1.02848923206329,-0.43186017870903,0.67288076877594,-1.04677411523767,-0.450397658303471,0.648003042098304,0
2.91999816894531,-2.26102590560913,2.12629318237305,2.29998087882996,-1.98440911693069,2.11198057539494,2.37130086407726,1266.275,1308.034,3135,3148.123,-0.06392971,0.03951906,0.05747172,-1.02311325073242,-0.429797828197479,0.670542180538177,-1.04114485287423,-0.447975543971863,0.644518260536375,0
2.94000244140625,-2.28137612342834,2.11774134635925,2.31334233283997,-2.00517798053537,2.10304431360073,2.38415778000673,1266.015,1305.592,3132.56,3142.671,-0.06236377,0.03989074,0.05625428,-1.01750779151917,-0.427597492933273,0.668078303337097,-1.03525504859546,-0.445441325732794,0.640872191117535,0
2.95999908447266,-2.3016095161438,2.10923624038696,2.32665038108826,-2.02581860575671,2.0941632292003,2.39693531026807,1266.435,1303.413,3127.463,3138.755,-0.06077547,0.04027633,0.05501682,-1.01166522502899,-0.425255000591278,0.665399789810181,-1.02911152474823,-0.442797939051516,0.637069057199471,0
2.98000335693359,-2.32172131538391,2.10078072547913,2.33990263938904,-2.04634164528706,2.08533273863774,2.40964004938531,1266.368,1300.957,3124.701,3133.371,-0.05916745,0.04067286,0.05376092,-1.00559294223785,-0.422774285078049,0.662608563899994,-1.02271203275434,-0.440044416427654,0.633107466805174,0
3,-2.3417067527771,2.09237766265869,2.35309505462646,-2.06672639957428,2.07656174835205,2.42225918334961,1265.762,1298.644,3119.896,3130.153,-0.05754931,0.04108002,0.0524888,-0.999285280704498,-0.420154124498367,0.659617960453033,-1.01606400046349,-0.437183953857422,0.628992018127441,0
3.01999664306641,-2.36156177520752,2.08402967453003,2.36622524261475,-2.08697572864857,2.06784902775215,2.4347944826559,1265.004,1296.09,3117.351,3125.069,-0.05591307,0.04149691,0.0511972,-0.992749631404877,-0.417400032281876,0.656515002250671,-1.00916768936771,-0.434216663853534,0.624722873042298,0
3.04000091552734,-2.38128185272217,2.07573938369751,2.37928986549377,-2.10709234004513,2.05919341186127,2.44724762339747,1263.006,1293.624,3113.469,3122.152,-0.05425871,0.04192313,0.04989015,-0.985981404781342,-0.41451221704483,0.653226435184479,-1.00202309041976,-0.43114254252322,0.620300025949072,0
3.05999755859375,-2.40086102485657,2.06750988960266,2.39228487014771,-2.12705600675913,2.05060360379452,2.45960608409476,1265.989,1291.306,3108.156,3115.639,-0.05258358,0.04236374,0.04854829,-0.978981912136078,-0.411490440368652,0.64974719285965,-0.994638524886308,-0.427965170275055,0.615728628108227,0
3.08000183105469,-2.42029619216919,2.05934309959412,2.40520834922791,-2.14687713595163,2.04207512564123,2.47187630727625,1264.812,1289.114,3105.335,3110.77,-0.05091005,0.04280987,0.0471937,-0.971754491329193,-0.408340334892273,0.64617258310318,-0.987011339258122,-0.424683405378145,0.611007036871143,0
3.09999847412109,-2.43958234786987,2.05124187469482,2.41805648803711,-2.16653584520328,2.033616532251,2.4840459847772,1263.244,1286.653,3101.04,3107.644,-0.04923599,0.04326169,0.04582639,-0.964296162128448,-0.405064433813095,0.642405807971954,-0.979150439632689,-0.421301079877433,0.606140765536421,0
3.12000274658203,-2.45871448516846,2.04320812225342,2.43082690238953,-2.18604243256806,2.0252233926589,2.49612149158362,1262.499,1284.069,3098.364,3102.187,-0.04754701,0.04372023,0.04444115,-0.956613957881927,-0.401668518781662,0.63851523399353,-0.971053025860989,-0.417816988947023,0.601128080678429,0
3.13999938964844,-2.4776885509491,2.03524541854858,2.44351530075073,-2.20537738341953,2.01690410346351,2.50809074721212,1262.725,1281.76,3093.273,3097.746,-0.04584845,0.04418573,0.04303893,-0.948704242706299,-0.39815229177475,0.634418785572052,-0.962728579444533,-0.414235212212131,0.595974851798267,0
3.15999603271484,-2.49650025367737,2.02735471725464,2.45611929893494,-2.22454360124808,2.00865741537402,2.51995554906156,1262.558,1279.343,3089.817,3092.313,-0.04414403,0.04465576,0.04162117,-0.940573334693909,-0.394520103931427,0.630200505256653,-0.95417746870157,-0.410555908149813,0.590681306902481,0
3.18000030517578,-2.51514458656311,2.01953911781311,2.46863555908203,-2.24354380138856,2.00048216005771,2.53171757805356,1260.724,1276.967,3085.787,3088.858,-0.04243854,0.04512806,0.04019378,-0.932220816612244,-0.39077490568161,0.625817954540253,-0.94539982440085,-0.406779133026206,0.58524752694315,0
3.19999694824219,-2.53361749649048,2.01180100440979,2.48106074333191,-2.2623590635174,1.99238647840124,2.54336512160655,1262.472,1274.664,3080.541,3082.995,-0.04072932,0.04560631,0.03874161,-0.923649489879608,-0.386919051408768,0.621254324913025,-0.936405971974636,-0.402909329586355,0.579679903854719,0
3.22000122070313,-2.55191469192505,2.00414180755615,2.49339270591736,-2.28099938900442,1.98436606709459,2.55490437104486,1260.684,1272.552,3077.64,3078.208,-0.03903076,0.04608424,0.03728127,-0.914864063262939,-0.382959365844727,0.616597712039948,-0.927192788821982,-0.398945154262308,0.573976504598449,0
3.23999786376953,-2.57003164291382,1.99656367301941,2.50562763214111,-2.29944628156995,1.97642888457015,2.56632387629027,1259.058,1270.253,3073.155,3074.696,-0.03733699,0.04656284,0.03581154,-0.905864119529724,-0.378899395465851,0.61175149679184,-0.917771149318993,-0.394891285994308,0.568144060931169,0
3.26000213623047,-2.58796501159668,1.98906874656677,2.51776337623596,-2.31770961544581,1.96857068222185,2.57762974996267,1258.592,1267.936,3070.043,3068.754,-0.03563523,0.04704285,0.0343289,-0.896656692028046,-0.37474462389946,0.606782734394073,-0.90813782126959,-0.39074633405868,0.562180571969535,0
3.27999877929688,-2.60571002960205,1.98165893554688,2.52979564666748,-2.33577134012187,1.96079922667992,2.58881081793642,1258.38,1265.818,3064.688,3064.518,-0.03393613,0.04752282,0.03283709,-0.887240648269653,-0.370495915412903,0.601616680622101,-0.898304216251578,-0.386515208538549,0.556093102023818,0
3.30000305175781,-2.62326192855835,1.97433590888977,2.54172253608704,-2.35364119854729,1.95311032582551,2.59987311156116,1258.089,1263.633,3061.212,3058.726,-0.03224129,0.04800157,0.03133663,-0.877623438835144,-0.36615839600563,0.596343040466309,-0.888267004546666,-0.382196476749158,0.549879589839776,0
3.31999969482422,-2.64061832427979,1.96710109710693,2.55354046821594,-2.37130160722417,1.94551154534655,2.61080574581408,1257.051,1261.581,3056.148,3054.977,-0.03055924,0.0484772,0.02983197,-0.8678058385849,-0.361734956502914,0.59089183807373,-0.878038122530657,-0.377795274579551,0.543547424602645,0
3.33999633789063,-2.6577742099762,1.95995628833771,2.56524729728699,-2.38875555478454,1.93800159931817,2.62161057080077,1255.526,1259.442,3053.137,3049.817,-0.02888411,0.04894906,0.02832259,-0.857795834541321,-0.357232093811035,0.58534049987793,-0.867618167158097,-0.373311858882592,0.53709697585572,0
3.36000061035156,-2.6747260093689,1.95290338993073,2.57683968544006,-2.406005803634,1.93057929915441,2.6322892965819,1253.167,1257.374,3048.788,3046.537,-0.02721111,0.04941712,0.02681169,-0.847595036029816,-0.352652817964554,0.579617202281952,-0.857007552155826,-0.36874640767338,0.530528499715627,0
3.37999725341797,-2.6914701461792,1.94594323635101,2.58831405639648,-2.42303550945299,1.9232518924954,2.64283149572124,1255.523,1255.356,3043.328,3039.807,-0.02553705,0.04988562,0.02528276,-0.837208390235901,-0.347999274730682,0.57372385263443,-0.846218976345105,-0.364104384899943,0.523849857357654,0
3.40000152587891,-2.70800280570984,1.93907797336578,2.59966897964478,-2.43985407218584,1.9160153348077,2.65324298723213,1253.823,1253.74,3040.045,3034.759,-0.02388483,0.05034664,0.02375884,-0.826640129089355,-0.343276530504227,0.567751526832581,-0.835248923368004,-0.359384277571698,0.517058871988738,0
3.41999816894531,-2.72432088851929,1.93230795860291,2.61090111732483,-2.45644516534361,1.90887665092339,2.66351366424015,1251.484,1251.726,3035.265,3031.955,-0.02225124,0.05080052,0.02224017,-0.815894067287445,-0.338488906621933,0.561602234840393,-0.824110582941664,-0.354591760855451,0.510163708672097,0
3.44000244140625,-2.74042057991028,1.92563509941101,2.62200832366943,-2.47281804716281,1.90183185728196,2.67364925803476,1250.654,1249.741,3032.221,3026.017,-0.02061979,0.05124917,0.02071956,-0.804979264736176,-0.333642035722733,0.555356025695801,-0.812800388649434,-0.349725300221754,0.503162159625937,0
3.45999908447266,-2.75629854202271,1.91906023025513,2.6329870223999,-2.48895692832918,1.89488774758421,2.68363999427827,1249.527,1247.979,3026.965,3022.295,-0.01899899,0.05169161,0.01920263,-0.793897569179535,-0.328737437725067,0.548930525779724,-0.801332006385299,-0.344790775723006,0.496062684689628,0
3.48000335693359,-2.77195143699646,1.91258490085602,2.6438353061676,-2.50487092366784,1.88804039997555,2.69349151548162,1249.288,1246.159,3023.333,3016.364,-0.01738458,0.05212764,0.01768671,-0.782656729221344,-0.323779225349426,0.542408585548401,-0.78970183472369,-0.339786637766397,0.488863054409187,0
3.5,-2.78737688064575,1.90620923042297,2.65454983711243,-2.5205447997813,1.88129636896134,2.70319439144611,1248.032,1244.49,3018.154,3012.803,-0.01579041,0.05255566,0.01617827,-0.771259963512421,-0.318769723176956,0.535728573799133,-0.777924000354857,-0.334718964672089,0.481572013878822,0
3.51999664306641,-2.80257105827332,1.89993536472321,2.6651291847229,-2.53598168290031,1.87465430941181,2.7127505574575,1246.682,1242.765,3014.981,3007.545,-0.01420903,0.05297515,0.01467631,-0.759715616703033,-0.313713878393173,0.528968453407288,-0.765999459475408,-0.329588167864767,0.474190155029786,0
3.54000091552734,-2.81753158569336,1.89376294612885,2.6755702495575,-2.55118444594166,1.86811298519115,2.72216179198813,1243.946,1241.088,3010.452,3004.833,-0.01264096,0.05338591,0.01318564,-0.748028039932251,-0.308614611625671,0.522057592868805,-0.753929052770513,-0.324394609067776,0.466717998286246,0
3.55999755859375,-2.83225584030151,1.88769352436066,2.68587064743042,-2.56613872308604,1.86167857751006,2.73141920191151,1245.787,1239.358,3005.663,2998.115,-0.01107715,0.05379224,0.01169027,-0.736204385757446,-0.303474724292755,0.515017449855804,-0.741727567798258,-0.319144650954242,0.459164697851087,0
3.58000183105469,-2.84674072265625,1.88172745704651,2.69602870941162,-2.58085326729328,1.85534732021446,2.74052820572674,1243.426,1238.115,3002.091,2994.078,-0.009539976,0.05418702,0.01021315,-0.724248588085175,-0.298297315835953,0.507902085781097,-0.729391385793765,-0.313836736470737,0.451528013536464,0
3.59999847412109,-2.86098384857178,1.87586557865143,2.70604157447815,-2.59531431270705,1.84912513636775,2.74948028171299,1241.807,1236.382,2997.563,2990.622,-0.008021974,0.05457218,0.008749546,-0.712168097496033,-0.293086320161819,0.500643670558929,-0.716935713767317,-0.308477408768949,0.443817359206151,0
3.62000274658203,-2.87498378753662,1.87010860443115,2.71590757369995,-2.60953046793176,1.84300832192796,2.75828075900647,1240.863,1234.83,2994.176,2985.378,-0.006515157,0.05494858,0.007297313,-0.699970662593842,-0.287845224142075,0.493304967880249,-0.704356955827444,-0.303065120637236,0.436030508832034,0
3.63999938964844,-2.88873648643494,1.86445736885071,2.72562408447266,-2.6234885835008,1.83700253474321,2.76692149746096,1239.532,1233.348,2989.345,2981.921,-0.005025918,0.05531544,0.005860399,-0.687661647796631,-0.282576143741608,0.485829442739487,-0.691670720740692,-0.297606588091786,0.428177124984152,0
3.65999603271484,-2.90224170684814,1.85891151428223,2.73518967628479,-2.63719194552437,1.83110636089208,2.77540453133521,1239.008,1231.862,2985.737,2976.68,-0.003551059,0.05567343,0.004435915,-0.675248444080353,-0.277282059192657,0.478279262781143,-0.678878353700696,-0.292102389931838,0.420258040401444,0
3.68000030517578,-2.91549634933472,1.85347247123718,2.74460220336914,-2.65064357486757,1.82531850058072,2.78373173068862,1236.651,1230.505,2981.682,2973.606,-0.002095908,0.05602045,0.00303256,-0.662736892700195,-0.271965324878693,0.470625221729279,-0.665981146317811,-0.286553081901244,0.412274054652249,0
3.69999694824219,-2.92849898338318,1.84813976287842,2.75385928153992,-2.66383127580226,1.81964420129024,2.79189554578451,1237.284,1228.929,2976.959,2968.603,-0.0006556702,0.05635986,0.001638195,-0.650134563446045,-0.266628563404083,0.462855786085129,-0.65299527533123,-0.280965624398954,0.404235181908735,0
3.72000122070313,-2.94124794006348,1.84291422367096,2.76296019554138,-2.6767633032417,1.81407991116207,2.79990108680742,1235.803,1227.82,2973.755,2963.994,0.0007589513,0.05668813,0.0002655227,-0.637446939945221,-0.261274367570877,0.455042690038681,-0.639917282339434,-0.275338529371411,0.396139281255611,0
3.73999786376953,-2.95374155044556,1.83779621124268,2.77190256118774,-2.68942811570037,1.808630596175,2.80774120902801,1233.597,1226.394,2969.43,2961.466,0.00214817,0.05700509,-0.001083374,-0.624681770801544,-0.255906164646149,0.447113305330276,-0.626763698705669,-0.269678909802388,0.38799658639423,0
3.76000213623047,-2.96597814559937,1.83278560638428,2.78068494796753,-2.70183383146282,1.803292763258,2.81542093805117,1233.103,1224.973,2966.186,2956.391,0.003523676,0.05731335,-0.00241602,-0.611847221851349,-0.25052684545517,0.439125418663025,-0.613531154887639,-0.263985315871967,0.379805011417393,0
3.77999877929688,-2.97795701026917,1.82788300514221,2.78930568695068,-2.7139695770734,1.79807109095524,2.82293354268985,1232.201,1223.748,2961.766,2952.816,0.004876604,0.05761158,-0.003725762,-0.598949134349823,-0.245138138532639,0.43103763461113,-0.60023651686137,-0.258265004538452,0.371574997167698,0
3.80000305175781,-2.98967742919922,1.8230881690979,2.79776358604431,-2.72584333814708,1.79296214327972,2.83028396642013,1231.294,1222.464,2958.412,2948.49,0.006207319,0.05789956,-0.005012602,-0.58599466085434,-0.239742562174797,0.422899782657623,-0.586876524285838,-0.252516572968186,0.363304525338741,0
3.81999969482422,-3.00113677978516,1.81840133666992,2.80605721473694,-2.73744492223163,1.78797030575888,2.83746589962856,1230.093,1221.185,2954.292,2945.307,0.007511918,0.05817699,-0.00627494,-0.572991251945496,-0.234342530369759,0.414677202701569,-0.573468357077023,-0.246747413199059,0.355004231116903,0
3.83999633789063,-3.01233577728271,1.81382250785828,2.81418538093567,-2.74877791451009,1.78309403578861,2.84448156171422,1229.278,1219.952,2951.116,2940.975,0.008793651,0.05844431,-0.00751331,-0.559946238994598,-0.228940665721893,0.406413346529007,-0.560014026276881,-0.240958390526246,0.346675359432959,0
3.86000061035156,-3.02327299118042,1.8093513250351,2.82214689254761,-2.75984563331209,1.77833190558438,2.85133300688122,1227.449,1218.769,2947.396,2938.236,0.01004953,0.05870068,-0.008723451,-0.546866893768311,-0.223539352416992,0.398079603910446,-0.546515580872635,-0.235150386571708,0.338319178707605,0
3.87999725341797,-3.03394842147827,1.80498862266541,2.82994055747986,-2.77063893010371,1.77368785150474,2.85801457175126,1228.203,1217.452,2943.539,2933.44,0.01128432,0.05894875,-0.009914416,-0.533760905265808,-0.21814090013504,0.389683902263641,-0.532990631455729,-0.229330978680956,0.329946590735853,0
3.90000152587891,-3.04436111450195,1.80073392391205,2.83756589889526,-2.78116548164984,1.76915857045225,2.8645310086075,1226.647,1216.506,2940.31,2930.207,0.01248423,0.05918493,-0.01107289,-0.520633816719055,-0.21274733543396,0.381262183189392,-0.519436284009554,-0.223498921639498,0.32155580398356,0
3.91999816894531,-3.05451059341431,1.79658651351929,2.84502148628235,-2.79141684911929,1.7647476934202,2.87087709341145,1225.562,1215.238,2936.703,2927.269,0.01365281,0.05941071,-0.01220367,-0.507494866847992,-0.207362100481987,0.372781187295914,-0.505870408491346,-0.2176619043907,0.313157880805522,0
