t,x_s1,x_s2,x_s3,x_s_d1,x_s_d2,x_s_d3,propellers_rpms1,propellers_rpms2,propellers_rpms3,propellers_rpms4,rollRad,pitchRad,yawRad,v_s1,v_s2,v_s3,v_s_d1,v_s_d2,v_s_d3,insideCount
0,-0.0599999986588955,2.94000005722046,1.17999994754791,-0.0599999986588955,2.94000005722046,1.17999994754791,0,0,0,0,0,0,0,0,0,0,-1.06581410364015E-15,4.44089209850063E-16,4.44089209850063E-16,0
0.0199985504150391,-0.0599999986588955,2.94000005722046,1.1771354675293,-0.0600018685815247,2.93999925264499,1.1800011051191,0,0,0,0,-0.01635394,-0.002474609,2.024222E-05,-3.71994488546079E-08,-3.93859025393795E-08,-0.143225952982903,-0.000279946173977888,-0.000120453017871082,0.000173300017377699,9
0.0399990081787109,-0.0599999986588955,2.94000005722046,1.17048275470734,-0.0600148703014743,2.93999365836812,1.1800091538031,0,0,0,0,-0.03270734,-0.004950816,5.430172E-05,-3.62924446051238E-08,-3.87405769686211E-08,-0.332637369632721,-0.0011109142447864,-0.000477995364179603,0.000687708837706811,9
0.0599994659423828,-0.0599995739758015,2.93987059593201,1.16407775878906,-0.0600498904664975,2.93997859016946,1.18003083295349,1695.253,2831.995,3014.153,2752.073,-0.03300882,-0.004756405,0.01634439,2.12899049074622E-05,-0.00647865189239383,-0.320250898599625,-0.00247951833951941,-0.00106686747177115,0.00153493996800067,9
0.0799999237060547,-0.0600854456424713,2.93961358070374,1.15838325023651,-0.0601175490846357,2.93994947855624,1.18007271686115,2420.82,2187.325,2779.498,2952.934,-0.0269677,-0.003916977,0.04321665,-0.00429360335692763,-0.012851195409894,-0.284728109836578,-0.00437248097278563,-0.00188135640961186,0.00270677401230774,9
0.0999984741210938,-0.0603754594922066,2.93927955627441,1.15355825424194,-0.0602281887669101,2.93990187339187,1.18014120809498,2685.983,1336.577,2539.837,3700.408,-0.01274855,-0.002845854,0.07089874,-0.0145006533712149,-0.0166959371417761,-0.2412478774786,-0.00677637982016689,-0.00291568692648091,0.00419490191241918,9
0.119998931884766,-0.0609662383794785,2.938960313797,1.1495053768158,-0.0603919230601972,2.93983142309968,1.18024256742227,2977.675,980.899,2172.481,3996.823,0.009146232,-0.001266067,0.09388049,-0.0295390151441097,-0.0159567464143038,-0.202646523714066,-0.00967861374975049,-0.00416443710735115,0.00599152296740588,9
0.139999389648438,-0.0619143098592758,2.93877482414246,1.14610028266907,-0.0606185767455666,2.93973390035084,1.18038287685052,3358.95,891.8084,1703.506,4044.452,0.03462203,0.0007362046,0.1088091,-0.0474036708474159,-0.00927787460386753,-0.170254647731781,-0.0130660253322238,-0.00562194567796536,0.00808849210174802,9
0.159999847412109,-0.0632361024618149,2.9388484954834,1.1433070898056,-0.0609177249752248,2.93960518522485,1.18056806385509,3657.327,996.089,1325.77,3906.356,0.05733513,0.002392934,0.1147764,-0.0660894960165024,0.00368676334619522,-0.13966116309166,-0.0169257706321904,-0.00728268625174051,0.0104778583075938,9
0.179998397827148,-0.064919114112854,2.93928503990173,1.14116621017456,-0.0612986465792905,2.93944128530034,1.18080387247382,3711.401,1202.411,1178.665,3680.486,0.07180461,0.002858809,0.1130927,-0.0841507986187935,0.0218269750475883,-0.107045412063599,-0.0212446806785156,-0.00914099258829578,0.0131514693644856,10
0.19999885559082,-0.0669381096959114,2.94013905525208,1.13973319530487,-0.0617704792283666,2.93923826889292,1.1810959593601,3484.586,1421.491,1291.318,3452.09,0.07574828,0.001873994,0.1066338,-0.100949935615063,0.0427039489150047,-0.0716523379087448,-0.0260109531407025,-0.0111917864745373,0.0161020190676231,10
0.219999313354492,-0.0692675113677979,2.94140648841858,1.1390209197998,-0.0623420049171324,2.93899235735562,1.18144976098699,3068.816,1583.892,1582.117,3280.849,0.07063412,-0.0001304949,0.09877705,-0.116470225155354,0.0633747726678848,-0.0356124117970467,-0.0312116790433783,-0.0134295135389972,0.0193215161463106,10
0.239999771118164,-0.0718856528401375,2.94303607940674,1.13897037506104,-0.063021788625926,2.93869986541668,1.18187057948532,2627.376,1655.481,1909.372,3188.39,0.06052515,-0.002402704,0.09227847,-0.130907088518143,0.0814758390188217,-0.0025261864066124,-0.0368344480011416,-0.0158488339395432,0.022802277980796,10
0.259998321533203,-0.0747742056846619,2.94495534896851,1.13945722579956,-0.063818066443955,2.93835724931701,1.18236351338666,2317.396,1635.705,2142.621,3161.192,0.05004573,-0.0042797,0.08854871,-0.144427508115768,0.095961332321167,0.02434385381639,-0.04286636357961,-0.0184441987007453,0.0265363210638542,10
0.279998779296875,-0.0779178664088249,2.94709849357605,1.14033055305481,-0.0647390625194898,2.93796097043536,1.18293365383054,2221.231,1544.292,2218.027,3172.538,0.04256421,-0.00539663,0.08751991,-0.157183036208153,0.107157848775387,0.0436654537916183,-0.0492963837173861,-0.0212108567320638,0.030516809833474,9
0.299999237060547,-0.0813048109412193,2.94942307472229,1.14146089553833,-0.065792536715479,2.93750768991949,1.18358580454179,2321.792,1413.61,2147.048,3201.067,0.03932156,-0.005715144,0.08800012,-0.169347211718559,0.116233855485916,0.0565177202224731,-0.0561118672418845,-0.0241433688900884,0.0347359188016424,9
0.319999694824219,-0.0849255248904228,2.95191311836243,1.14277172088623,-0.0669860785243584,2.93699414222283,1.18432466377777,2531.35,1285.299,1991.999,3227.29,0.03956591,-0.005465872,0.08834697,-0.181035935878754,0.124498292803764,0.065540611743927,-0.0633008373176985,-0.0272365818771378,0.0391862337367069,9
0.339998245239258,-0.088769719004631,2.95457053184509,1.14424204826355,-0.0683269038426322,2.9364172225467,1.18515469852215,2746.602,1199.474,1826.726,3231.394,0.04129919,-0.005032309,0.08719113,-0.192209959030151,0.132872775197029,0.0735163167119026,-0.0708506885691688,-0.0304850719522193,0.043859951310657,9
0.35999870300293,-0.0928237065672874,2.95740365982056,1.14589083194733,-0.069822382620517,2.93577375980741,1.18608047112519,2888.3,1177.53,1709.613,3203.299,0.04221294,-0.004802212,0.08392703,-0.202699542045593,0.141652852296829,0.082442045211792,-0.0787511019946779,-0.0338843991372162,0.0487506835699294,9
0.379999160766602,-0.0970701724290848,2.96041417121887,1.14775490760803,-0.0714792747653362,2.93506084540571,1.18710616629155,2918.576,1212.757,1669.512,3152.199,0.04053775,-0.005021656,0.07879829,-0.212323129177094,0.150525107979774,0.0932048186659813,-0.0869897229117765,-0.0374292475574207,0.0538507823775527,9
0.399999618530273,-0.101489916443825,2.96358966827393,1.14986789226532,-0.0733042289655903,2.93427561859665,1.18823589987613,2841.7,1279.693,1704.807,3098.064,0.03557593,-0.005736449,0.07265906,-0.220987126231194,0.1587765365839,0.105650864541531,-0.0955550080350531,-0.0411146504596022,0.0591531018899743,9
0.419998168945313,-0.106064058840275,2.9669017791748,1.1522444486618,-0.0753034649285836,2.93341540321397,1.18947352217404,2696.285,1350.424,1786.739,3059.075,0.02776935,-0.006820888,0.06657267,-0.228707641363144,0.165599912405014,0.118828400969505,-0.104434660908044,-0.0449353170220673,0.0646500300148815,9
0.439998626708984,-0.110775798559189,2.9703094959259,1.15487372875214,-0.0774835548069347,2.93247737144397,1.19082310166083,2536.544,1405.088,1876.016,3042.473,0.01834203,-0.008069378,0.06144392,-0.2355867177248,0.170386150479317,0.131466448307037,-0.113619049702587,-0.0488871029382406,0.0703356041918149,9
0.459999084472656,-0.115611493587494,2.97376728057861,1.15772318840027,-0.0798502821969742,2.93145903476675,1.19228821865812,2411.92,1432.984,1938.749,3046.661,0.008750071,-0.009290171,0.05777687,-0.241785153746605,0.172892302274704,0.142472088336945,-0.123096124252221,-0.0529648233581361,0.0762023647937057,9
0.479999542236328,-0.120561502873898,2.9772322177887,1.16074967384338,-0.0824093896672336,2.93035792231548,1.19387242808941,2350.314,1432.038,1958.622,3065.127,0.0001868232,-0.01035863,0.05560638,-0.24750067293644,0.17324860394001,0.151322916150093,-0.13285477482153,-0.0571636980729742,0.0822434343651008,9
0.499998092651367,-0.125620186328888,2.98066902160645,1.16391229629517,-0.0851661261416979,2.92917177562482,1.19557897928867,2354.084,1408.973,1935.68,3090.316,-0.006712231,-0.01123215,0.05457562,-0.252934008836746,0.171839371323586,0.158133447170258,-0.142883031072219,-0.0614785765805993,0.0884514026963699,8
0.519998550415039,-0.130785092711449,2.98405170440674,1.16718256473541,-0.0881263195578599,2.92789808709608,1.19741148002684,2404.464,1377.42,1883.223,3113.952,-0.01193682,-0.01194268,0.05412669,-0.258245408535004,0.169137060642242,0.163512408733368,-0.153171913786256,-0.0659055953743427,0.0948207112238116,8
0.539999008178711,-0.136055499315262,2.98736262321472,1.17054760456085,-0.0912948022612966,2.92653477750595,1.19937292175603,2473.192,1352.262,1819.625,3129.51,-0.01597684,-0.01256746,0.05371534,-0.263520061969757,0.165551707148552,0.168253988027573,-0.163709694677519,-0.0704397081003365,0.101344099579621,8
0.559999465942383,-0.141430824995041,2.99058938026428,1.17400968074799,-0.0946764453845371,2.92507975094219,1.20146631993932,2531.841,1344.042,1764.13,3133.534,-0.0195753,-0.01320395,0.05298999,-0.268766760826111,0.161334872245789,0.173101797699928,-0.174485697560587,-0.0750763210942518,0.108014958696444,8
0.579998016357422,-0.146909713745117,2.99372029304504,1.17758023738861,-0.0982755538235842,2.92353115512831,1.2036943395124,2561.171,1355.583,1729.06,3127.991,-0.02345073,-0.01393259,0.05186333,-0.273944705724716,0.156549349427223,0.178527981042862,-0.185488294752812,-0.0798104312890852,0.11482609048482,8
0.599998474121094,-0.152489811182022,2.99674224853516,1.18127405643463,-0.102097262171133,2.92188678079254,1.20606015903275,2553.55,1383.609,1719.236,3117.491,-0.02807504,-0.01479812,0.05049708,-0.279004842042923,0.151101320981979,0.18469263613224,-0.196709126405959,-0.0846384416756885,0.121772319800455,8
0.619998931884766,-0.158168256282806,2.99963855743408,1.18510258197784,-0.106145477944935,2.92014494663912,1.20856619743999,2514.521,1419.854,1730.008,3108.607,-0.03356116,-0.0157984,0.04919801,-0.283922702074051,0.144814595580101,0.191426008939743,-0.208136802817102,-0.0895554515830839,0.128846595874672,8
0.639999389648438,-0.163942620158195,3.0023889541626,1.18907022476196,-0.110424235525481,2.91830391678686,1.21121495220784,2457.319,1455.841,1752.596,3105.425,-0.03968323,-0.01689669,0.04830339,-0.2887182533741,0.137518659234047,0.198379889130592,-0.219761081350814,-0.0945570538913933,0.136042578028218,8
0.659997940063477,-0.169811740517616,3.00497126579285,1.19317257404327,-0.114936923832667,2.9163622330782,1.21400852123914,2399.565,1484.112,1774.91,3110.385,-0.045988,-0.01803652,0.04806245,-0.293455898761749,0.129121243953705,0.20511993765831,-0.231570692856072,-0.099638399799755,0.143353290119784,8
0.679998397827148,-0.175776451826096,3.00736427307129,1.19739890098572,-0.119688032378415,2.91431796380157,1.21694968375564,2355.753,1501.698,1787.82,3122.05,-0.05197425,-0.01916144,0.04857876,-0.298235327005386,0.119645349681377,0.211314141750336,-0.243557864937104,-0.104796145063404,0.150773920666137,8
0.69999885559082,-0.181839868426323,3.00954866409302,1.20173466205597,-0.124680571585341,2.91216981365623,1.22004030335236,2334.919,1508.043,1785.779,3138.337,-0.05724092,-0.02022777,0.04978889,-0.303171068429947,0.109224200248718,0.216786324977875,-0.255711562515536,-0.1100255415964,0.15829763842809,8
0.719999313354492,-0.188007295131683,3.01150989532471,1.20616662502289,-0.129917773765869,2.90991639186844,1.22328238098464,2336.73,1506.591,1770.275,3155.309,-0.06159092,-0.02121527,0.05151037,-0.308371394872665,0.0980616882443428,0.221600577235222,-0.268021976505935,-0.115322368823317,0.165918371114489,8
0.739999771118164,-0.194285586476326,3.01323747634888,1.21068549156189,-0.13540267613015,2.90755639161152,1.22667779683026,2355.697,1501.614,1744.891,3170.629,-0.06504558,-0.02212661,0.05349691,-0.313913941383362,0.086381122469902,0.225945070385933,-0.280479406212952,-0.12068245280595,0.173630113532805,7
0.759998321533203,-0.200682297348976,3.01472496986389,1.21528780460358,-0.141137563960274,2.90508882959244,1.2302279655877,2381.462,1499.807,1716.416,3180.963,-0.06782112,-0.02298201,0.05552837,-0.319836407899857,0.0743752345442772,0.230115115642548,-0.293073051970232,-0.126101146749576,0.181426180175103,7
0.779998779296875,-0.207205027341843,3.01596832275391,1.21997535228729,-0.147126184485884,2.90251209348295,1.23393520697061,2404.028,1503.349,1691.888,3186.459,-0.07022063,-0.02381292,0.0574595,-0.326136559247971,0.0621719248592854,0.234378173947334,-0.305795832832518,-0.131575403921268,0.189302187598958,7
0.799999237060547,-0.213860735297203,3.01696491241455,1.22475385665894,-0.153370467664426,2.8998253528763,1.23780071571459,2415.929,1514.764,1675.396,3187.353,-0.0725493,-0.02464809,0.05925357,-0.332785069942474,0.0498245656490326,0.238922476768494,-0.318637178554805,-0.1371006762399,0.197251592319181,7
0.819999694824219,-0.220655634999275,3.01771140098572,1.22963035106659,-0.159872691993147,2.89702762739878,1.24182590231796,2413.662,1531.317,1670.077,3186.182,-0.07500953,-0.02550669,0.06097092,-0.339744985103607,0.037322536110878,0.243825107812881,-0.331587821991737,-0.142672976311719,0.205268657531342,7
0.839998245239258,-0.22759535908699,3.01820373535156,1.23461091518402,-0.166634294361289,2.89411829879707,1.24601165628363,2399.076,1550.454,1673.723,3185.46,-0.07765831,-0.02639299,0.06272984,-0.346986651420593,0.0246222876012325,0.249026089906693,-0.344637355311016,-0.148287825937249,0.213346940291454,7
0.85999870300293,-0.234685361385345,3.01843738555908,1.23969864845276,-0.173658476530939,2.8910959894424,1.25035995965485,2377.271,1568.736,1682.824,3186.977,-0.08041202,-0.02729474,0.06465984,-0.354500412940979,0.0116817653179169,0.254388183355331,-0.357779218042882,-0.153942402329629,0.221482379356217,7
0.879999160766602,-0.241931304335594,3.01840710639954,1.24489319324493,-0.180946338277887,2.88796022613197,1.25487149324521,2355.682,1583.486,1691.691,3191.844,-0.08309648,-0.02818956,0.06685084,-0.362298011779785,-0.00150882452726364,0.259727001190186,-0.371003228241413,-0.159632324481982,0.229668671616073,7
0.899999618530273,-0.249339550733566,3.01810884475708,1.25019156932831,-0.188499434070438,2.88471034002151,1.25954721934464,2339.706,1592.881,1697.626,3199.589,-0.08550984,-0.02905455,0.06933231,-0.370411396026611,-0.0149154467508197,0.264919251203537,-0.384300552311253,-0.165353791545005,0.237900348654692,7
0.919998168945313,-0.256917089223862,3.01753973960876,1.25558912754059,-0.196318384305134,2.8813460641717,1.26438752200817,2333.597,1596.753,1697.184,3209.842,-0.08748537,-0.02986948,0.07205601,-0.378878116607666,-0.028458608314395,0.269879549741745,-0.397661187980262,-0.171102499820431,0.246171218589148,7
0.939998626708984,-0.264671742916107,3.01669907569885,1.26108181476593,-0.204405885800988,2.87786623821667,1.26939407069523,2337.244,1597.767,1690.573,3220.186,-0.08894798,-0.03062475,0.07492484,-0.387732863426208,-0.0420311912894249,0.274635672569275,-0.411079067636589,-0.176875838584386,0.254477525278661,7
0.959999084472656,-0.272611618041992,3.01558876037598,1.26666700839996,-0.212762239776093,2.87427073255068,1.27456705187416,2348.745,1597.92,1678.756,3229.63,-0.08992963,-0.03132037,0.07781428,-0.396992981433868,-0.0555202215909958,0.27926042675972,-0.424544411524882,-0.18266959988136,0.262813214588797,7
0.979999542236328,-0.280744731426239,3.01421213150024,1.27234506607056,-0.221388311353785,2.87055917493534,1.27990700109753,2362.894,1599.518,1666.35,3236.452,-0.09054641,-0.03196965,0.08061876,-0.406657814979553,-0.0688339248299599,0.283902049064636,-0.438048819599778,-0.188480169406503,0.271173086491326,7
0.999998092651367,-0.289078801870346,3.01257395744324,1.27811861038208,-0.23028393740968,2.86673163555851,1.28541381738356,2375.502,1603.696,1655.741,3240.991,-0.09095281,-0.03258804,0.08326844,-0.416703939437866,-0.081914097070694,0.288674771785736,-0.45158270821391,-0.194303423584087,0.279551208251994,7
1.01999855041504,-0.297620743513107,3.01067900657654,1.28399217128754,-0.239451348187707,2.86278715480854,1.29108888135949,2382.663,1611.451,1649.843,3242.99,-0.09130115,-0.03319257,0.08575137,-0.42709556221962,-0.0947421789169312,0.293676942586899,-0.465140476318736,-0.200136952439402,0.28794411255494,7
1.03999900817871,-0.306376546621323,3.00853252410889,1.2899706363678,-0.248890079057088,2.85872593260306,1.29693190539675,2383.605,1621.84,1648.605,3243.909,-0.09169637,-0.03379338,0.08809979,-0.437790364027023,-0.107329800724983,0.298923879861832,-0.478712759579464,-0.205976726760794,0.296346002430842,7
1.05999946594238,-0.315351575613022,3.00613832473755,1.29605865478516,-0.258600340480156,2.85454787838601,1.30294301978152,2378.55,1632.718,1652.967,3244.61,-0.09217148,-0.03439206,0.09037942,-0.448753386735916,-0.119707092642784,0.304402709007263,-0.492291591500725,-0.211819318787865,0.30475194623957,7
1.07999801635742,-0.324550747871399,3.00350022315979,1.30225932598114,-0.268581219802083,2.85025338484727,1.30912165953701,2370.52,1642.251,1659.924,3246.753,-0.09268333,-0.03498435,0.09265446,-0.459958076477051,-0.131901472806931,0.310031771659851,-0.50586781946303,-0.217660790404144,0.31315627807366,7
1.09999847412109,-0.333978623151779,3.0006217956543,1.30857396125793,-0.278834517009062,2.84584167750307,1.31546893894041,2362.594,1649.552,1667.291,3250.427,-0.09314565,-0.03555799,0.09497095,-0.471391767263412,-0.143923938274384,0.315731525421143,-0.519436284009554,-0.223498921639497,0.321555803983559,7
1.11999893188477,-0.343639582395554,2.99750661849976,1.31500232219696,-0.289359035362208,2.84131327127672,1.32198411715334,2358.301,1654.374,1671.646,3255.898,-0.09346524,-0.03610128,0.09733585,-0.483049929141998,-0.155759945511818,0.321417480707169,-0.532988048794549,-0.229329867434001,0.329944991945551,7
1.13999938964844,-0.353538304567337,2.99415922164917,1.32154381275177,-0.300154365346813,2.83666834237095,1.3286669406667,2358.506,1656.508,1673.593,3262.132,-0.09357176,-0.03660462,0.09972509,-0.494935810565948,-0.167375534772873,0.327074497938156,-0.546515580872639,-0.235150386571708,0.338319178707607,7
1.15999794006348,-0.36367928981781,2.99058485031128,1.32819783687592,-0.31121887973388,2.83190759093694,1.33551640214821,2363.665,1656.843,1671.88,3269.047,-0.09343594,-0.03706587,0.1020823,-0.507047653198242,-0.178723305463791,0.332699239253998,-0.560010170393828,-0.240956731447489,0.346672972457667,7
1.17999839782715,-0.374066859483719,2.98678970336914,1.33496475219727,-0.322553982624406,2.82703041282926,1.34253337080327,2371.819,1657.511,1668.104,3274.955,-0.0930844,-0.03748825,0.1043479,-0.519378006458282,-0.189756721258163,0.3383469581604,-0.573467075844405,-0.246746861920456,0.355003437972878,7
1.19999885559082,-0.384704977273941,2.98278093338013,1.34184598922729,-0.334157779891176,2.82203762303794,1.34971667407692,2381.285,1659.63,1662.839,3279.763,-0.09259012,-0.03787867,0.1064682,-0.531906425952911,-0.2004404515028,0.344064354896545,-0.586877800774655,-0.252517122205661,0.363305315546124,7
1.21999931335449,-0.395597100257874,2.97856569290161,1.34884452819824,-0.346029276726411,2.81692964960096,1.35706569613575,2388.964,1663.205,1659.92,3282.673,-0.09204151,-0.03824992,0.1084209,-0.544606685638428,-0.210762143135071,0.349928259849548,-0.600235245789198,-0.258264457631606,0.371574210313473,7
1.23999786376953,-0.406745970249176,2.97415113449097,1.35596370697021,-0.358166167196084,2.81170748469733,1.36457900949675,2393.718,1668.031,1659.372,3284.742,-0.09151314,-0.03860945,0.1102076,-0.557443737983704,-0.220729574561119,0.355961978435516,-0.613531154887641,-0.263985315871967,0.379805011417393,7
1.2599983215332,-0.418153613805771,2.96954369544983,1.36320722103119,-0.370569492049568,2.80637068052165,1.37225725843336,2394.762,1673.976,1662.094,3285.882,-0.09105028,-0.03896418,0.1118589,-0.570383667945862,-0.230366602540016,0.362176775932312,-0.626761182173783,-0.269677827009021,0.387995028541113,7
1.27999877929688,-0.429821491241455,2.96474957466125,1.37057781219482,-0.383236695417198,2.80092033679326,1.3800988607405,2393.467,1680.265,1666.208,3287.26,-0.09066359,-0.03931252,0.113413,-0.583394229412079,-0.239701494574547,0.368530601263046,-0.639917282339435,-0.275338529371412,0.396139281255613,7
1.29999923706055,-0.441750556230545,2.95977425575256,1.37807762622833,-0.396166231882091,2.79535711846185,1.3881028597315,2390.695,1685.152,1672.569,3288.944,-0.09032483,-0.03965074,0.1149119,-0.596453964710236,-0.248761117458344,0.374993771314621,-0.652992789539212,-0.280964554832093,0.404233643085061,7
1.31999778747559,-0.453941464424133,2.9546229839325,1.38570773601532,-0.409355153534276,2.78968229393073,1.39626743050967,2388.654,1688.198,1678.313,3291.966,-0.08998129,-0.03997192,0.1163771,-0.609546005725861,-0.257559806108475,0.381504714488983,-0.665979912040938,-0.286552550826386,0.412273290576068,8
1.33999824523926,-0.466394692659378,2.94930100440979,1.39346837997437,-0.42280416857195,2.783895558482,1.40459301148342,2388.398,1689.791,1682.821,3295.61,-0.08958075,-0.04027126,0.1178132,-0.622661113739014,-0.266097903251648,0.388032257556915,-0.678874678563316,-0.292100808622893,0.420255765316334,8
1.35999870300293,-0.479110509157181,2.94381380081177,1.40135931968689,-0.436510095902056,2.77799828085114,1.41307763340462,2391.124,1690.68,1684.138,3299.944,-0.08909445,-0.0405429,0.1192002,-0.63578987121582,-0.274362832307816,0.39454510807991,-0.691669505523675,-0.297606065217852,0.428176372706927,8
1.3799991607666,-0.492088973522186,2.93816709518433,1.40938067436218,-0.450470874182571,2.77199134797602,1.42172002020435,2395.776,1690.738,1684.691,3303.843,-0.08851974,-0.04078897,0.1205131,-0.64892566204071,-0.282339155673981,0.401067405939102,-0.704358160626625,-0.303065639028665,0.436031254660118,8
1.39999771118164,-0.505330085754395,2.93236684799194,1.4175329208374,-0.464682951063699,2.76587628833354,1.43051797280888,2401.765,1690.791,1683.821,3307.632,-0.08787473,-0.04101268,0.12172,-0.662054359912872,-0.290013134479523,0.407610923051834,-0.716933326165324,-0.308476381450513,0.44381588116678,8
1.41999816894531,-0.51883327960968,2.92641925811768,1.42581713199615,-0.47914673136562,2.75965292774086,1.43947174182117,2407.419,1691.797,1683.255,3310.289,-0.08719988,-0.04122041,0.1228026,-0.675159096717834,-0.297379821538925,0.414211958646774,-0.729391385793766,-0.313836736470737,0.451528013536465,8
1.43999862670898,-0.532597601413727,2.920330286026,1.43423473834991,-0.4938584461112,2.75332288788357,1.44857899406484,2412.227,1694.269,1682.442,3312.283,-0.08654474,-0.04141695,0.1237528,-0.688216388225555,-0.304444164037704,0.420877695083618,-0.741725227577294,-0.31914364402254,0.459163249142831,8
1.45999908447266,-0.546621680259705,2.9141058921814,1.44278740882874,-0.508815552717244,2.74688726276417,1.45783815555978,2414.811,1697.023,1684.382,3313.163,-0.08594607,-0.04160816,0.1245854,-0.701205015182495,-0.311224371194839,0.427634119987488,-0.753929052770513,-0.324394609067776,0.466717998286247,8
1.47999954223633,-0.56090372800827,2.90775108337402,1.45147657394409,-0.524015393706918,2.74034719582071,1.46724758120123,2415.695,1699.663,1687.49,3314.219,-0.0854161,-0.04179618,0.1253203,-0.714101612567902,-0.317744046449661,0.434458374977112,-0.76599717101811,-0.329587183205524,0.474188738365705,8
1.49999809265137,-0.575441539287567,2.90127062797546,1.4603031873703,-0.539453715106405,2.73370451741928,1.47680463757674,2415.203,1702.458,1691.638,3315.01,-0.08495004,-0.04197834,0.1259852,-0.726888239383698,-0.324027270078659,0.441332757472992,-0.777922869861026,-0.334718478252175,0.481571314049288,8
1.51999855041504,-0.59023255109787,2.89466881752014,1.46926760673523,-0.555130581228843,2.72695919988774,1.48650936449923,2414.409,1703.826,1696.363,3316.456,-0.08451915,-0.04215358,0.1266008,-0.739550650119781,-0.330093592405319,0.448220938444138,-0.789702950965343,-0.339787118053995,0.488863745415943,8
1.53999900817871,-0.605274140834808,2.8879497051239,1.47836935520172,-0.571041541911266,2.72011315800687,1.49635900710582,2414.527,1705.299,1699.299,3318.255,-0.08410103,-0.04231603,0.1271764,-0.752078413963318,-0.335952937602997,0.455086022615433,-0.801330904905084,-0.34479030178684,0.496062002820904,8
1.55999946594238,-0.620563447475433,2.88111758232117,1.48760771751404,-0.587183501790833,2.71316772362485,1.50635164921945,2415.577,1705.129,1702.435,3320.221,-0.08366853,-0.0424641,0.1277139,-0.764466762542725,-0.341609597206116,0.461920827627182,-0.812801474874933,-0.34972576759424,0.503162832051264,8
1.57999801635742,-0.636097550392151,2.8741762638092,1.49698185920715,-0.603551689586986,2.70612494969039,1.51648433719019,2418.025,1704.387,1703.896,3322.653,-0.08320514,-0.04259673,0.1282007,-0.776709020137787,-0.347061634063721,0.468707919120789,-0.824108441976122,-0.354590839657789,0.510162383312438,8
1.59999847412109,-0.651873528957367,2.86713004112244,1.50649106502533,-0.620145926473056,2.69898491314762,1.52675696031579,2421.17,1703.664,1704.76,3324.634,-0.08271192,-0.04271604,0.1286243,-0.788799583911896,-0.35230541229248,0.475458323955536,-0.835248923368005,-0.359384277571697,0.517058871988737,8
1.61999893188477,-0.667888104915619,2.85998320579529,1.51613438129425,-0.636961261140657,2.69174974440622,1.53716645350051,2425.018,1703.759,1703.921,3326.453,-0.08220805,-0.0428231,0.1289681,-0.800727903842926,-0.357338309288025,0.48216700553894,-0.846216901179681,-0.364103492014234,0.523848572731403,8
1.63999938964844,-0.68413782119751,2.8527398109436,1.52591168880463,-0.653994195024907,2.68442094880091,1.54771065096602,2428.114,1703.905,1704.506,3327.26,-0.0817175,-0.04292323,0.1292297,-0.812485337257385,-0.362165302038193,0.488863617181778,-0.857007552155828,-0.368746407673381,0.530528499715628,8
1.65999794006348,-0.700619041919708,2.84540390968323,1.5358225107193,-0.671239479331992,2.67700078474105,1.55838630345892,2430.398,1704.226,1705.344,3328.019,-0.08125784,-0.0430191,0.1294096,-0.824058353900909,-0.366796523332596,0.495541781187057,-0.867615158565213,-0.373310564369123,0.537095113393405,8
1.67999839782715,-0.717327654361725,2.83797907829285,1.54586660861969,-0.688696716710861,2.66948942319567,1.56919316499998,2431.368,1704.895,1707.336,3328.164,-0.08084025,-0.04311338,0.1295199,-0.835435628890991,-0.371246844530106,0.5022052526474,-0.878037137680598,-0.377794850826084,0.543546814933542,8
1.69999885559082,-0.734259843826294,2.83046841621399,1.55604314804077,-0.706360494347389,2.66188919314749,1.58012788479941,2431.828,1706.172,1708.691,3328.397,-0.08047167,-0.04320393,0.129572,-0.846604406833649,-0.375531077384949,0.508826851844788,-0.888267970958778,-0.382196892569292,0.54988018809491,8
1.71999931335449,-0.751411020755768,2.82287502288818,1.56635129451752,-0.724226945158621,2.65420175849427,1.59118806894864,2431.424,1706.511,1711.831,3328.26,-0.08014251,-0.04329128,0.1295846,-0.857558846473694,-0.379665076732635,0.51540744304657,-0.898303268694426,-0.386514800831178,0.556092515440802,8
1.73999786376953,-0.768776834011078,2.81520175933838,1.57678949832916,-0.742290383213093,2.64642956573347,1.60237019758524,2431.21,1706.127,1714.311,3328.834,-0.07983252,-0.04337331,0.1295654,-0.868291795253754,-0.383659929037094,0.521913170814514,-0.908137821269591,-0.39074633405868,0.562180571969536,8
1.7599983215332,-0.786352872848511,2.80745124816895,1.58735620975494,-0.760550216073323,2.63857286977439,1.61367390396219,2431.23,1705.34,1716.687,3329.278,-0.07952252,-0.04344894,0.1295203,-0.878801047801971,-0.387521713972092,0.528335928916931,-0.917769332013572,-0.394890504058555,0.568142935932543,8
1.77999877929688,-0.804134547710419,2.79962635040283,1.59804916381836,-0.779000609654483,2.63063418086074,1.62509557650306,2432.354,1704.711,1717.031,3330.102,-0.07920401,-0.04351499,0.129443,-0.889082551002502,-0.391250520944595,0.53464937210083,-0.927192788821983,-0.398945154262308,0.57397650459845,8
1.79999923706055,-0.822117149829865,2.79172945022583,1.60886657238007,-0.79763736303951,2.62261530652977,1.63663261464007,2433.758,1703.407,1718.003,3330.408,-0.07887325,-0.04357251,0.1293308,-0.899136602878571,-0.394846469163895,0.540868937969208,-0.936404235539493,-0.402908582446823,0.579678828918647,9
1.81999778747559,-0.84029632806778,2.78376317024231,1.61980628967285,-0.816454394064092,2.61451886376689,1.64828125322378,2435.561,1701.932,1718.156,3330.922,-0.07853076,-0.04362364,0.1291742,-0.908959269523621,-0.398308902978897,0.546986222267151,-0.945398976945681,-0.406778768389922,0.585247002328031,9
1.83999824523926,-0.858667314052582,2.77573037147522,1.63086652755737,-0.835450937570646,2.606345181798,1.6600410185852,2437.064,1700.656,1718.617,3330.88,-0.07818242,-0.04366998,0.1289701,-0.918547570705414,-0.401639133691788,0.553012669086456,-0.954174989692508,-0.410554841501469,0.590679772277779,9
1.85999870300293,-0.8772252202034,2.76763367652893,1.64204525947571,-0.854620778981102,2.59809693458245,1.67190806360445,2438.637,1700.298,1717.807,3330.761,-0.07784526,-0.04371153,0.1287137,-0.927894473075867,-0.404839515686035,0.55893474817276,-0.962727774564036,-0.414234865894539,0.595974353538898,9
1.8799991607666,-0.895965158939362,2.75947523117065,1.65334069728851,-0.873959418228252,2.58977605837344,1.68387960252558,2439.27,1699.617,1718.751,3329.854,-0.07752781,-0.04375147,0.1284126,-0.93699711561203,-0.407917588949203,0.564772009849548,-0.971053808954927,-0.417817325890467,0.60112856545088,9
1.89999771118164,-0.914882123470306,2.75125765800476,1.66475081443787,-0.893460418296025,2.58138532283915,1.69595165052899,2439.398,1698.668,1719.756,3329.238,-0.07723114,-0.04378983,0.1280719,-0.945849359035492,-0.410881847143173,0.570507526397705,-0.979148917665041,-0.421300425017273,0.606139823365946,9
1.91999816894531,-0.933971107006073,2.74298286437988,1.67627358436584,-0.913122862707269,2.57292512231409,1.70812364027167,2438.932,1697.654,1721.309,3328.349,-0.07694778,-0.04382711,0.1277011,-0.954448044300079,-0.413740575313568,0.57613730430603,-0.987011339258123,-0.424683405378145,0.611007036871143,9
1.93999862670898,-0.953226804733276,2.73465299606323,1.68790626525879,-0.932940197657643,2.56439827671719,1.72039151463653,2438.727,1697.1,1721.58,3327.648,-0.0766756,-0.04386013,0.1273039,-0.962788939476013,-0.416498631238937,0.581636011600494,-0.99463709319481,-0.4279645542582,0.615727741822989,9
1.95999908447266,-0.972644329071045,2.72626972198486,1.69964647293091,-0.952907658613767,2.55580683609405,1.73275232415044,2438.324,1695.633,1722.998,3326.619,-0.07640609,-0.04388943,0.1268878,-0.970873177051544,-0.419160783290863,0.587010562419891,-1.00202309041976,-0.431142542523221,0.620300025949072,9
1.9799976348877,-0.992218315601349,2.71783518791199,1.71149134635925,-0.973018495512246,2.54715370480838,1.74520189020262,2438.287,1693.596,1723.784,3326.053,-0.07612486,-0.04391393,0.1264513,-0.978699505329132,-0.421728402376175,0.592242479324341,-1.00916568071436,-0.434215799586116,0.624721629590192,9
1.99999809265137,-1.01194357872009,2.70935106277466,1.72343802452087,-0.993271661096953,2.53843933346522,1.75773956449162,2438.431,1691.477,1724.377,3325.255,-0.07582445,-0.04393363,0.125993,-0.986268699169159,-0.424200743436813,0.597332000732422,-1.01606335446626,-0.437183675902864,0.628991618224387,9
2.01999855041504,-1.03181517124176,2.70081949234009,1.73548328876495,-1.01366030404084,2.52966666999921,1.77036110571964,2439.23,1690.022,1723.347,3324.46,-0.07550914,-0.04394695,0.1255063,-0.993579030036926,-0.426574498414993,0.602265298366547,-1.02271265493931,-0.440044684136465,0.633107851967309,9
2.03999900817871,-1.05182778835297,2.69224262237549,1.74762451648712,-1.03417943002831,2.52083786332482,1.7830634221674,2439.769,1687.855,1723.588,3323.134,-0.0751821,-0.04395601,0.1249906,-1.0006320476532,-0.428849279880524,0.607061862945557,-1.02911092662815,-0.442797681697156,0.63706868693465,9
2.05999755859375,-1.07197642326355,2.68362212181091,1.75985872745514,-1.05482201812353,2.5119559343546,1.79584216754118,2440.33,1685.603,1723.33,3322.034,-0.07484495,-0.04396133,0.1244415,-1.00742506980896,-0.431025058031082,0.611711204051971,-1.03525504859546,-0.445441325732794,0.640872191117535,9
2.07999801635742,-1.09225559234619,2.67496013641357,1.77218317985535,-1.07558691007788,2.50302138145056,1.8086966248299,2440.339,1683.551,1723.676,3320.389,-0.0744998,-0.04396506,0.1238616,-1.01395750045776,-0.433103442192078,0.616223633289337,-1.04114375428791,-0.447975071280863,0.644517580459114,9
2.09999847412109,-1.11266005039215,2.66625833511353,1.78459477424622,-1.09646699912883,2.4940372624541,1.82162239460902,2440.542,1682.145,1722.725,3318.885,-0.07415519,-0.04396559,0.1232493,-1.02022516727448,-0.435085266828537,0.620578527450562,-1.04677411523768,-0.450397658303471,0.648003042098304,9
2.11999893188477,-1.13318467140198,2.65751886367798,1.7970906496048,-1.11745709586255,2.485005810225,1.83461626438416,2440.026,1680.214,1723.471,3316.703,-0.07381324,-0.04396399,0.1226132,-1.0262291431427,-0.436974287033081,0.624795377254486,-1.0521439094894,-0.452708130755304,0.651327200538896,8
2.1399974822998,-1.15382397174835,2.64874339103699,1.80966770648956,-1.13854995096316,2.47593014394135,1.84767374648347,2439.544,1677.64,1723.879,3315.121,-0.07346489,-0.0439592,0.1219538,-1.03196692466736,-0.438773512840271,0.628852427005768,-1.05725054902531,-0.454905375084611,0.654488453674597,8
2.15999794006348,-1.17457270622253,2.63993382453918,1.82232284545898,-1.15974431432775,2.46681080148754,1.86079406703369,2438.766,1675.251,1724.568,3313.084,-0.07310324,-0.04395175,0.1212765,-1.03743934631348,-0.440484046936035,0.632754325866699,-1.06209300290918,-0.456988947708343,0.657486163306784,8
2.17999839782715,-1.19542551040649,2.63109183311462,1.83505237102509,-1.18103286617629,2.4576509323604,1.8739726947423,2438.644,1673.098,1723.734,3311.39,-0.07272773,-0.04393896,0.1205778,-1.04264450073242,-0.442104279994965,0.636476516723633,-1.06666887474518,-0.458957817524312,0.66031884595227,8
2.19999885559082,-1.21637725830078,2.62221908569336,1.84785318374634,-1.20241025668069,2.44845283844151,1.88720631781084,2438.261,1670.389,1724.157,3309.074,-0.07233625,-0.04392192,0.1198617,-1.04758560657501,-0.443633735179901,0.640039920806885,-1.07097637612794,-0.460811215031657,0.662985394502945,8
2.21999740600586,-1.23742246627808,2.6133177280426,1.86072170734406,-1.22386905090202,2.43921971877738,1.90049033365798,2438.202,1667.072,1724.023,3307.294,-0.07192133,-0.04390008,0.1191233,-1.05226182937622,-0.445070624351501,0.643427968025208,-1.07501345493598,-0.46254825725983,0.665484538597853,8
2.23999786376953,-1.25855588912964,2.60438942909241,1.87365472316742,-1.24540792547886,2.42995214277345,1.91382392305993,2438.026,1663.989,1723.997,3305.052,-0.07148138,-0.04387398,0.118362,-1.05667436122894,-0.446412533521652,0.646649539470673,-1.07877930973132,-0.464168599372462,0.667815782108711,8
2.2599983215332,-1.27977228164673,2.59543633460999,1.88664853572845,-1.26701939030951,2.42065333321126,1.92720244928693,2438.333,1661.465,1722.614,3302.879,-0.07102384,-0.04384309,0.1175725,-1.06082105636597,-0.447656095027924,0.649689435958862,-1.08227207933222,-0.465671440555045,0.66997797287536,8
2.27999877929688,-1.30106639862061,2.58646035194397,1.89969992637634,-1.28869796983554,2.41132564607061,1.9406225227075,2438.166,1658.391,1722.681,3300.116,-0.07055246,-0.04380847,0.1167577,-1.06470382213593,-0.448800981044769,0.652570128440857,-1.08549040888332,-0.467056197851165,0.67197027217779,8
2.29999923706055,-1.32243275642395,2.57746338844299,1.91280543804169,-1.31043816248474,2.40197144852433,1.95408073758635,2437.984,1654.967,1722.459,3297.725,-0.07006564,-0.04377012,0.1159155,-1.0683206319809,-0.449847102165222,0.655278503894806,-1.08843305191934,-0.468322334941636,0.673791908394614,8
2.31999778747559,-1.3438663482666,2.56844758987427,1.92596185207367,-1.33223236173323,2.39259401344714,1.96757238512285,2437.528,1652.099,1722.233,3294.848,-0.06956656,-0.04372857,0.115049,-1.07167136669159,-0.450794547796249,0.657819807529449,-1.0910986293707,-0.469469258451341,0.675442027816066,7
2.33999824523926,-1.36536133289337,2.55941462516785,1.9391655921936,-1.35407917814146,2.38319393867607,1.98109660518773,2436.912,1648.323,1722.59,3292.187,-0.06904724,-0.04368383,0.1141589,-1.07475543022156,-0.451643764972687,0.660189270973206,-1.09348662008434,-0.470496744142684,0.676920307823584,7
2.35999870300293,-1.38691282272339,2.55036687850952,1.9524130821228,-1.37597096908363,2.3737745126195,1.99464866663155,2436.641,1645.734,1721.456,3289.277,-0.06851568,-0.04363323,0.1132453,-1.07757151126862,-0.452392846345901,0.662374496459961,-1.09559583531025,-0.471404280529741,0.678226012524276,7
2.3799991607666,-1.40851521492004,2.54130601882935,1.96570086479187,-1.39790215061238,2.36433813789396,2.0082251127249,2436.079,1641.919,1721.875,3286.172,-0.0679676,-0.0435789,0.1123115,-1.0801215171814,-0.453042209148407,0.664390623569489,-1.09742546213314,-0.472191517837776,0.679358638684859,7
2.39999771118164,-1.43016314506531,2.53223419189453,1.97902536392212,-1.41986502747765,2.35488812555058,2.02182117974142,2435.686,1638.017,1721.7,3283.333,-0.06739821,-0.04352031,0.1113558,-1.08240485191345,-0.453590780496597,0.66622531414032,-1.09897466165884,-0.47285809511406,0.680317666989874,7
2.41999816894531,-1.45185172557831,2.52315354347229,1.99238300323486,-1.44185817738692,2.34542508756209,2.03543598721428,2435.177,1633.989,1721.819,3280.234,-0.06680273,-0.0434564,0.110379,-1.0844224691391,-0.454037040472031,0.667884528636932,-1.10024313330221,-0.473403883025206,0.681102911362803,6
2.43999862670898,-1.47357511520386,2.51406598091125,2.00576996803284,-1.46387388420027,2.33595234396796,2.0490647584853,2435.246,1630.444,1720.578,3277.236,-0.06618541,-0.04338716,0.1093763,-1.08617305755615,-0.454377561807632,0.669351935386658,-1.10123022817855,-0.473828602374257,0.681713970113108,6
2.45999908447266,-1.49532842636108,2.50497364997864,2.01918292045593,-1.48590651627916,2.32647231790489,2.06270400730194,2434.953,1626.494,1720.56,3273.667,-0.06554945,-0.04331259,0.1083509,-1.08765876293182,-0.454611301422119,0.670650720596313,-1.10193556692257,-0.474132089930926,0.682150608395601,6
2.4799976348877,-1.51710605621338,2.49587893486023,2.03261828422546,-1.50794833289881,2.31698833999053,2.07634894178684,2434.806,1621.937,1720.309,3270.559,-0.06489165,-0.04323376,0.107299,-1.08887839317322,-0.454737216234207,0.671767771244049,-1.10235885164239,-0.474314217520657,0.682412641801014,5
2.49999809265137,-1.53890252113342,2.48678374290466,2.04607248306274,-1.52999789647758,2.30750102877607,2.08999867200848,2434.392,1617.687,1720.275,3267.013,-0.06421094,-0.04315067,0.1062221,-1.08983242511749,-0.454754173755646,0.672712504863739,-1.10250000050163,-0.474374949931546,0.682500019668738,5
2.51999855041504,-1.56071281433105,2.47769045829773,2.05954194068909,-1.5520474605947,2.29801371732999,2.10364840256337,2434.409,1613.967,1719.034,3263.529,-0.06351479,-0.04306172,0.1051175,-1.09051895141602,-0.454660296440125,0.673468768596649,-1.10235890547318,-0.474314240682543,0.682412675124841,5
2.53999900817871,-1.58253169059753,2.46860122680664,2.07302308082581,-1.5740913806044,2.28852883438564,2.11729463914691,2433.926,1609.559,1719.328,3259.595,-0.0628048,-0.0429685,0.10399,-1.09093999862671,-0.454456210136414,0.674059629440308,-1.10193562074175,-0.474132113087814,0.682150641712234,4
2.55999755859375,-1.60435366630554,2.45951843261719,2.08651256561279,-1.59612191359838,2.27904971150017,2.13093258853001,2433.582,1604.72,1719.226,3256.125,-0.06207456,-0.0428705,0.1028374,-1.09109425544739,-0.454142063856125,0.67446893453598,-1.10123038958312,-0.473828671822132,0.681714070030222,3
2.57999801635742,-1.62617313861847,2.450443983078,2.10000658035278,-1.6181376241771,2.2695769662859,2.14456136213196,2433.01,1600.096,1719.371,3252.258,-0.06132301,-0.04276824,0.1016621,-1.09098243713379,-0.453717321157455,0.674705386161804,-1.10024334841354,-0.473403975581601,0.681103044526962,1
2.59999847412109,-1.64798521995544,2.44138050079346,2.11350154876709,-1.64013077892511,2.26011392621545,2.15817617260023,2432.994,1595.942,1718.224,3248.49,-0.06055442,-0.04265958,0.1004615,-1.09060323238373,-0.453179925680161,0.674750924110413,-1.09897493039424,-0.472858210743393,0.680317833349887,0
2.61999893188477,-1.66978454589844,2.43232989311218,2.12699413299561,-1.66209575487342,2.25066301069528,2.17177353904914,2432.603,1591.03,1718.523,3244.332,-0.05976826,-0.04254559,0.09923933,-1.08995926380157,-0.452530145645142,0.674629151821136,-1.09742562325992,-0.472191587166126,0.67935873843001,0
2.6399974822998,-1.69156539440155,2.42329454421997,2.14048075675964,-1.68402485020812,2.24122753360076,2.185348693689,2432.425,1585.748,1718.361,3240.59,-0.05896079,-0.04242629,0.09799238,-1.08904957771301,-0.451767444610596,0.674325585365295,-1.09559621095794,-0.471404442160446,0.678226245068088,0
2.65999794006348,-1.71332287788391,2.41427683830261,2.15395784378052,-1.70591664919621,2.23180810408224,2.19890076011363,2432.061,1580.752,1718.371,3236.438,-0.05813041,-0.04230272,0.09672233,-1.08787536621094,-0.450890809297562,0.673849999904633,-1.093487048984,-0.470496928686224,0.676920573332903,0
2.67999839782715,-1.73505163192749,2.40527892112732,2.16742157936096,-1.7277634747138,2.22240802539167,2.21242498581764,2432.247,1575.988,1717.298,3232.442,-0.05728246,-0.04217222,0.09542535,-1.08643531799316,-0.449898481369019,0.673185884952545,-1.09109911135695,-0.469469465836558,0.675442326188514,0
2.69999885559082,-1.75674629211426,2.39630317687988,2.18086886405945,-1.74955976015262,2.21302969268507,2.22591792480533,2431.954,1570.915,1717.495,3227.909,-0.05642013,-0.04203746,0.0941058,-1.08473181724548,-0.44879087805748,0.672359645366669,-1.08843331936148,-0.468322450014513,0.673792073954033,0
2.71999740600586,-1.77840161323547,2.38735175132751,2.19429588317871,-1.77129788800495,2.2036763835632,2.23937486147656,2431.888,1565.24,1717.339,3223.912,-0.05553916,-0.04189685,0.09276016,-1.08276391029358,-0.447568297386169,0.671353876590729,-1.08549099645889,-0.467056450668518,0.671970635915057,0
2.73999786376953,-1.80001223087311,2.37842702865601,2.20769953727722,-1.79297647980783,2.19434869114016,2.25279494249708,2431.444,1559.974,1717.574,3219.388,-0.05463954,-0.04175197,0.09139217,-1.08053290843964,-0.446230828762054,0.670183718204498,-1.08227271937422,-0.465671715947234,0.669978369091845,0
2.7599983215332,-1.82157301902771,2.36953115463257,2.22107601165771,-1.81458795796224,2.18504987584512,2.26617347697213,2431.642,1554.879,1716.553,3215.156,-0.05372502,-0.04160018,0.08999798,-1.07803738117218,-0.444777429103851,0.668825745582581,-1.07878000199166,-0.464168897232749,0.667816210650842,0
2.77999877929688,-1.84307861328125,2.36066722869873,2.23442220687866,-1.83612684690458,2.17578229366013,2.27950707526701,2431.274,1549.566,1716.923,3210.294,-0.05279877,-0.04144411,0.08858366,-1.07528042793274,-0.443209201097488,0.667310774326324,-1.07501419914593,-0.462548577472581,0.665484999299265,0
2.79999732971191,-1.8645236492157,2.35183668136597,2.24773454666138,-1.85758565652604,2.16654916736975,2.29279110064756,2431.325,1543.364,1716.82,3206.191,-0.05185388,-0.04128219,0.08714397,-1.07226097583771,-0.441526770591736,0.665615022182465,-1.07097717199316,-0.460811557470228,0.66298588718143,0
2.81999778747559,-1.88590335845947,2.34304213523865,2.26100969314575,-1.87896306346215,2.15735106638076,2.30602473388812,2430.894,1537.991,1717.095,3201.295,-0.05089248,-0.04111548,0.08568449,-1.06898140907288,-0.439730435609818,0.663761258125305,-1.06666972196052,-0.458958182057406,0.660319370418926,0
2.83999824523926,-1.90721225738525,2.33428573608398,2.2742440700531,-1.90025163276617,2.14819118974301,2.3192033724025,2431.208,1532.254,1716.275,3196.968,-0.04991509,-0.04094291,0.08419976,-1.06544041633606,-0.437819600105286,0.661720991134644,-1.06209390114388,-0.456989334193641,0.657486719356853,0
2.85999870300293,-1.92844498157501,2.32556986808777,2.28743457794189,-1.92144601460316,2.13907183934104,2.33232370438801,2430.966,1526.793,1716.536,3191.841,-0.04892759,-0.04076501,0.08269609,-1.06164133548737,-0.435795068740845,0.659527659416199,-1.05725149792792,-0.454905783370899,0.65448904109052,0
2.87999725341797,-1.94959664344788,2.31689643859863,2.30057764053345,-1.94253888918396,2.12999616467562,2.34538119854648,2431.091,1520.319,1716.524,3187.473,-0.04792305,-0.04058125,0.08116891,-1.05758392810822,-0.433657914400101,0.657159209251404,-1.05214490868305,-0.452708560680416,0.651327819087361,0
2.89999771118164,-1.9706619977951,2.30826854705811,2.31367039680481,-1.96352900640172,2.1209647036328,2.35837508100222,2430.763,1514.506,1716.908,3182.445,-0.04690253,-0.04039323,0.07962286,-1.05327045917511,-0.431408703327179,0.65463650226593,-1.04677516433438,-0.450398109700476,0.648003691539142,0
2.91999816894531,-1.99163615703583,2.29968762397766,2.32670903205872,-1.98440911693069,2.11198057539494,2.37130086407726,2431.291,1508.533,1715.975,3177.915,-0.04586869,-0.04019882,0.07805186,-1.04869997501373,-0.429046928882599,0.651929438114166,-1.04114485287423,-0.447975543971863,0.644518260536375,0
2.93999862670898,-2.01251363754272,2.29115581512451,2.33969068527222,-2.00517403134858,2.10304601282548,2.38415533527198,2431.045,1502.872,1716.44,3172.485,-0.04482739,-0.03999962,0.07646402,-1.04387652873993,-0.426574110984802,0.64907968044281,-1.03525619623725,-0.445441819530995,0.640872901562472,0
2.95999717712402,-2.03328967094421,2.28267621994019,2.35261178016663,-2.02581664288168,2.09416407377059,2.39693409515492,2431.234,1496.04,1716.532,3167.997,-0.04377065,-0.03979508,0.07485417,-1.03879964351654,-0.423991858959198,0.646058082580566,-1.029112122866,-0.442798196404884,0.637069427462863,0
2.9799976348877,-2.05395913124084,2.27425026893616,2.36546945571899,-2.04633579327653,2.08533525659438,2.40963642671202,2431.06,1490.012,1716.848,3162.819,-0.04270166,-0.03958576,0.07322637,-1.03347206115723,-0.421301037073135,0.642885386943817,-1.0227138993024,-0.44004521955114,0.633108622287341,0
2.99999809265137,-2.07451677322388,2.26588034629822,2.37826013565063,-2.06672446158539,2.07656258221453,2.42225798364216,2431.49,1483.957,1716.207,3157.933,-0.04162201,-0.03937111,0.07157771,-1.02789378166199,-0.418501883745193,0.639540016651154,-1.01606464645845,-0.437184231811008,0.628992418029098,0
3.01999855041504,-2.09495806694031,2.257568359375,2.39098119735718,-2.08697765348254,2.06784819954987,2.43479567421983,2431.425,1477.889,1716.612,3152.535,-0.04053651,-0.0391506,0.06991363,-1.0220685005188,-0.41559624671936,0.636050701141357,-1.00916701981882,-0.434216375765357,0.624722458559645,0
3.03999710083008,-2.11527824401855,2.24931645393372,2.40362930297852,-2.10708851762775,2.05919505654068,2.44724525713902,2431.587,1470.917,1716.948,3147.766,-0.03943822,-0.03892583,0.0682312,-1.01599717140198,-0.412586152553558,0.632400572299957,-1.00202447609459,-0.431143138740389,0.620300883747801,0
3.05999755859375,-2.1354718208313,2.24112701416016,2.41620135307312,-2.12705600675913,2.05060360379452,2.45960608409476,2431.463,1464.562,1717.382,3142.538,-0.03832715,-0.0386968,0.06653356,-1.00968253612518,-0.409472674131393,0.628603339195251,-0.994638524886308,-0.427965170275055,0.615728628108227,0
3.07999801635742,-2.15553426742554,2.23300218582153,2.42869400978088,-2.14687337079936,2.04207674568107,2.47187397646763,2432.092,1458.358,1716.642,3137.513,-0.03720649,-0.03846084,0.0648172,-1.00312519073486,-0.406255960464478,0.624635994434357,-0.987012816387451,-0.424684040945629,0.611007951284564,0
3.09999847412109,-2.17546057701111,2.22494339942932,2.44110465049744,-2.16653584520328,2.033616532251,2.4840459847772,2432.136,1452.052,1717.18,3131.966,-0.03608264,-0.03822062,0.06308795,-0.996329247951508,-0.402937889099121,0.620533645153046,-0.979150439632689,-0.421301079877433,0.606140765536421,0
3.11999893188477,-2.19524645805359,2.21695327758789,2.45343017578125,-2.18603872829175,2.02522498650551,2.49611919846012,2432.462,1444.941,1717.48,3127.073,-0.0349476,-0.03797561,0.06134241,-0.989296197891235,-0.399520754814148,0.61627584695816,-0.971054592046769,-0.41781766283301,0.601129050222034,0
3.1399974822998,-2.21488738059998,2.20903301239014,2.46566772460938,-2.20537554715972,2.0169048935548,2.50808961047982,2432.599,1438.635,1717.696,3121.661,-0.0338067,-0.03772634,0.05958376,-0.982028901576996,-0.396005988121033,0.611876308917999,-0.962729384322967,-0.414235558528836,0.59597535005636,0
3.15999794006348,-2.23437762260437,2.20118498802185,2.47781443595886,-2.22454542119638,2.00865663230111,2.51995667569625,2432.687,1431.592,1718.319,3116.572,-0.03265355,-0.03747227,0.05781183,-0.974529922008514,-0.392395466566086,0.607332408428192,-0.954176642367246,-0.410555552601238,0.590680795362169,0
3.17999839782715,-2.25371360778809,2.19341111183167,2.4898669719696,-2.24354199818069,2.00048293592768,2.53171646178199,2433.363,1425.562,1717.626,3111.187,-0.03149667,-0.03721288,0.05602613,-0.9668008685112,-0.388689607381821,0.602631628513336,-0.945400671854024,-0.406779497661632,0.585248051557035,0
3.19999885559082,-2.27289080619812,2.18571329116821,2.50182294845581,-2.26236084956923,1.99238570991304,2.54336622725771,2433.471,1418.818,1718.432,3105.659,-0.03033767,-0.0369487,0.05423129,-0.958846271038055,-0.38489106297493,0.597804427146912,-0.936405103758047,-0.402908956017012,0.579679366387291,0
3.21999740600586,-2.29190421104431,2.17809295654297,2.51367950439453,-2.28099585204123,1.98436758895103,2.55490218149615,2433.923,1411.491,1718.825,3100.707,-0.02916907,-0.03668025,0.05242349,-0.950668334960938,-0.381002157926559,0.592829823493958,-0.927194566064376,-0.398945918960059,0.573977604796153,0
3.23999786376953,-2.31074953079224,2.1705527305603,2.5254340171814,-2.29944628156995,1.97642888457015,2.56632387629027,2434,1405.132,1719.284,3095.13,-0.02799515,-0.03640807,0.05060769,-0.942270517349243,-0.377024441957474,0.587727248668671,-0.917771149318993,-0.394891285994308,0.568144060931169,0
3.2599983215332,-2.32942247390747,2.16309356689453,2.53708338737488,-2.31770615117141,1.96857217280235,2.57762760541179,2434.863,1398.289,1718.956,3090.008,-0.02681697,-0.03613057,0.04877961,-0.933655023574829,-0.37295937538147,0.582471072673798,-0.908139677873146,-0.390747132903322,0.562181721295578,0
3.27999877929688,-2.34791898727417,2.15571713447571,2.54862546920776,-2.33577134012187,1.96079922667992,2.58881081793642,2434.937,1392.011,1719.676,3084.178,-0.02564145,-0.03584881,0.04694724,-0.924826681613922,-0.368809282779694,0.577102422714233,-0.898304216251578,-0.386515208538549,0.556093102023818,0
3.29999732971191,-2.36623501777649,2.14842557907104,2.5600574016571,-2.35363611583443,1.95311251277486,2.59986996511977,2435.475,1384.358,1720.256,3079.317,-0.02445847,-0.03556332,0.0451055,-0.915788233280182,-0.364577233791351,0.571591794490814,-0.888269903777668,-0.382197724207263,0.549881384601876,0
3.31999778747559,-2.38436555862427,2.1412205696106,2.57137656211853,-2.37129993249841,1.94551226593426,2.61080470907906,2435.61,1377.919,1720.824,3073.725,-0.02327123,-0.0352741,0.04325924,-0.906543731689453,-0.360264718532562,0.565962672233582,-0.87803910737898,-0.377795698332271,0.54354803427067,0
3.33999824523926,-2.40230751037598,2.1341028213501,2.58258032798767,-2.38875720963391,1.93800088728271,2.62161159523137,2436.58,1371.164,1720.487,3068.511,-0.0220824,-0.03497956,0.04140497,-0.897095859050751,-0.355873376131058,0.560187816619873,-0.8676171642955,-0.373311427378832,0.537096355035999,0
3.35999870300293,-2.42005658149719,2.12707471847534,2.59366655349731,-2.40600416902084,1.93058000248278,2.63228828467848,2436.646,1364.767,1721.438,3062.697,-0.02089782,-0.03468182,0.03955091,-0.88744992017746,-0.351405709981918,0.554312467575073,-0.857008572601967,-0.368746846742847,0.530529131420399,0
3.37999725341797,-2.43760895729065,2.1201376914978,2.60463261604309,-2.42303550945299,1.9232518924954,2.64283149572124,2437.459,1356.954,1721.917,3057.947,-0.01970579,-0.03438034,0.03768972,-0.877609133720398,-0.346864759922028,0.548297882080078,-0.846218976345105,-0.364104384899943,0.523849857357654,0
3.39999771118164,-2.45496034622192,2.1132926940918,2.61547613143921,-2.43985088596004,1.91601670575165,2.65324101480657,2437.633,1350.824,1722.509,3052.167,-0.01851536,-0.03407514,0.03582886,-0.867578089237213,-0.342251926660538,0.542180776596069,-0.835251031898626,-0.359385184813519,0.517060177269636,0
3.41999816894531,-2.47210788726807,2.10654139518738,2.62619471549988,-2.45644516534361,1.90887665092339,2.66351366424015,2438.653,1343.764,1722.468,3047.086,-0.0173244,-0.03376568,0.03396375,-0.857360243797302,-0.33756947517395,0.535927474498749,-0.824110582941664,-0.354591760855451,0.510163708672097,0
3.43999862670898,-2.48904705047607,2.09988498687744,2.63678622245789,-2.47281494657125,1.90183319137989,2.67364733862088,2438.872,1337.416,1723.344,3041.342,-0.01613929,-0.03345303,0.03210182,-0.846960783004761,-0.332819879055023,0.529581487178802,-0.812802561098952,-0.34972623496609,0.503163504475677,0
3.45999717712402,-2.50577449798584,2.09332489967346,2.64724850654602,-2.48895539990862,1.89488840522088,2.68363904811313,2439.702,1329.918,1723.859,3036.457,-0.01495258,-0.03313718,0.03023793,-0.836383759975433,-0.32800629734993,0.523110210895538,-0.801333107864087,-0.344791249658555,0.496063366557468,0
3.4799976348877,-2.52228736877441,2.08686208724976,2.65757942199707,-2.50486640494811,1.88804234425441,2.69348871817885,2439.947,1323.699,1724.58,3030.807,-0.01377014,-0.03281813,0.02837877,-0.825634121894836,-0.323130667209625,0.51654577255249,-0.78970518344449,-0.339788078627405,0.488865127426884,0
3.49999809265137,-2.53858137130737,2.08049821853638,2.66777658462524,-2.52054331600794,1.88129700738756,2.70319347291972,2440.905,1316.543,1724.865,3025.823,-0.0125877,-0.03249536,0.02652011,-0.814716219902039,-0.318195670843124,0.509859204292297,-0.777925130847354,-0.334719451091428,0.481572713707531,0
3.51999855041504,-2.55465412139893,2.07423448562622,2.67783832550049,-2.53598314392723,1.87465368077274,2.71275146190277,2441.376,1310.476,1725.42,3020.136,-0.01141484,-0.03216992,0.02466855,-0.80363517999649,-0.313203454017639,0.50308358669281,-0.765998315247401,-0.329587675535422,0.474189446698144,0
3.53999710083008,-2.57050228118896,2.06807112693787,2.68776226043701,-2.55118156992615,1.86811422266028,2.72216001159753,2442.164,1302.948,1726.282,3015.304,-0.01024252,-0.03184129,0.02282004,-0.792396187782288,-0.308157414197922,0.496201545000076,-0.753931367647136,-0.324395605094516,0.466719431305148,0
3.55999755859375,-2.58612203598022,2.06201028823853,2.69754695892334,-2.56613872308604,1.86167857751006,2.73141920191151,2442.472,1296.742,1727.056,3009.841,-0.009075521,-0.03151052,0.02098016,-0.781004190444946,-0.303059637546539,0.489235430955887,-0.741727567798258,-0.319144650954242,0.459164697851087,0
3.57999801635742,-2.60151147842407,2.0560519695282,2.70719003677368,-2.58085048488145,1.85534851740854,2.74052648328127,2443.748,1289.891,1727.045,3004.876,-0.007912784,-0.03117656,0.01914426,-0.769464015960693,-0.297912508249283,0.482153326272964,-0.72939375026341,-0.313837753835969,0.451529477255809,0
3.59999847412109,-2.61666703224182,2.05019736289978,2.71669030189514,-2.59531431270705,1.84912513636775,2.74948028171299,2443.952,1283.979,1728.1,2999.204,-0.006763896,-0.03083994,0.01732194,-0.757781386375427,-0.292718708515167,0.475008845329285,-0.716935713767317,-0.308477408768949,0.443817359206151,0
3.61999702453613,-2.6315860748291,2.04444789886475,2.72604537010193,-2.60952643755859,1.84301005608494,2.75827826401348,2445.01,1276.341,1728.809,2994.713,-0.005616607,-0.03050118,0.0155055,-0.745961844921112,-0.287481963634491,0.46775695681572,-0.70436057022192,-0.303066675810204,0.43603274631439,0
3.6399974822998,-2.6462664604187,2.03880381584167,2.73525404930115,-2.62348726424244,1.83700310238323,2.76692068077719,2445.36,1270.752,1729.481,2989.132,-0.004481035,-0.0301603,0.01370351,-0.734010636806488,-0.282204061746597,0.460439831018448,-0.691671935956746,-0.297607110965304,0.428177877260776,0
3.65999794006348,-2.66070508956909,2.0332658290863,2.74431443214417,-2.6371932403809,1.83110580375149,2.77540533291308,2446.49,1263.636,1730,2984.481,-0.003350789,-0.02981728,0.01191066,-0.721933662891388,-0.276888340711594,0.453024238348007,-0.67887712865581,-0.292101862829246,0.420257282040303,0
3.67999839782715,-2.67489957809448,2.02783536911011,2.75322532653809,-2.65064230460817,1.82531904713786,2.78373094433754,2446.931,1258.093,1730.702,2978.985,-0.002237055,-0.02947161,0.01013525,-0.709736406803131,-0.271536976099014,0.445550143718719,-0.665982380593835,-0.286553612975735,0.412274818727906,0
3.69999694824219,-2.68884801864624,2.02251219749451,2.76198506355286,-2.66383127580226,1.81964420129024,2.79189554578451,2448.018,1250.801,1731.498,2974.531,-0.00112918,-0.02912486,0.008371267,-0.697425425052643,-0.266153872013092,0.437987744808197,-0.65299527533123,-0.280965624398954,0.404235181908735,0
3.71999740600586,-2.70254826545715,2.01729702949524,2.77059268951416,-2.67676086214623,1.81408096149726,2.79989957565303,2448.296,1245.274,1732.397,2969.223,-3.687746E-05,-0.02877705,0.006626929,-0.685006141662598,-0.260741174221039,0.430376261472702,-0.639919784131907,-0.275339605822821,0.396140829984331,0
3.73999786376953,-2.71599793434143,2.01219129562378,2.77904629707336,-2.68942811570037,1.808630596175,2.80774120902801,2449.527,1238.4,1732.855,2964.787,0.00104813,-0.02842711,0.004896267,-0.672485172748566,-0.255302369594574,0.422675997018814,-0.626763698705669,-0.269678909802388,0.38799658639423,0
3.7599983215332,-2.72919511795044,2.00719451904297,2.78734493255615,-2.70183149102237,1.80329377028414,2.81541948920704,2450.091,1233.158,1733.487,2959.473,0.002113031,-0.02807558,0.003187372,-0.659868061542511,-0.249839574098587,0.414931297302246,-0.613533684877225,-0.263986404455806,0.379806577601466,0
3.77999687194824,-2.74213838577271,2.00230741500854,2.79548740386963,-2.71396843221189,1.79807158355717,2.82293283396604,2451.045,1226.296,1734.436,2955.133,0.003166352,-0.02772351,0.001496242,-0.647161841392517,-0.2443568110466,0.407119244337082,-0.600237787932998,-0.258265551445064,0.371575784021584,0
3.79999732971191,-2.75482606887817,1.9975301027298,2.80347275733948,-2.72583998000171,1.79296358819586,2.83028188756818,2451.516,1220.771,1735.28,2950.24,0.004202919,-0.0273709,-0.0001720402,-0.634372591972351,-0.238856598734856,0.399265021085739,-0.586880353750828,-0.252518220679987,0.363306895959991,0
3.81999778747559,-2.76725602149963,1.99286365509033,2.81129956245422,-2.73744382842632,1.78797077639275,2.83746522251097,2452.609,1214.584,1735.782,2945.828,0.005225672,-0.0270167,-0.001819472,-0.621507167816162,-0.233342364430428,0.39134556055069,-0.573469638309223,-0.246747964477482,0.355005024260668,0
3.83999824523926,-2.77942752838135,1.98830723762512,2.81896734237671,-2.74877898265085,1.78309357619748,2.84448222294423,2453.295,1209.389,1736.421,2940.935,0.006225606,-0.0266625,-0.003441337,-0.608571708202362,-0.227816715836525,0.383390724658966,-0.560012740982885,-0.240957837500146,0.346674563774748,0
3.85999870300293,-2.79133892059326,1.98386168479919,2.82647514343262,-2.75984459091511,1.77833235409867,2.85133236158783,2454.055,1203.117,1737.483,2936.736,0.007208921,-0.02630777,-0.005038701,-0.595573544502258,-0.222283691167831,0.375392079353333,-0.546516869536602,-0.235150941047811,0.338319976451988,0
3.87999725341797,-2.80298948287964,1.97952651977539,2.83382225036621,-2.77063893010371,1.77368785150474,2.85801457175126,2454.819,1197.802,1738.065,2932.235,0.00817187,-0.02595304,-0.006608901,-0.582519352436066,-0.216746136546135,0.367355585098267,-0.532990631455729,-0.229330978680956,0.329946590735853,0
3.89999771118164,-2.814377784729,1.97530257701874,2.84100794792175,-2.78116350015273,1.7691594230351,2.8645297819664,2455.421,1192.211,1739.02,2927.97,0.009115667,-0.02559884,-0.008150871,-0.569416284561157,-0.211207553744316,0.359289258718491,-0.519438870577852,-0.223500034567577,0.321557405192552,0
