t,x_s1,x_s2,x_s3,x_s_d1,x_s_d2,x_s_d3,propellers_rpms1,propellers_rpms2,propellers_rpms3,propellers_rpms4,rollRad,pitchRad,yawRad,v_s1,v_s2,v_s3,v_s_d1,v_s_d2,v_s_d3,insideCount
0,-0.0599999986588955,2.94000005722046,1.17999994754791,-0.0599999986588955,2.94000005722046,1.17999994754791,0,0,0,0,0,0,0,0,0,0,-1.06581410364015E-15,4.44089209850063E-16,4.44089209850063E-16,0
0.019989013671875,-0.0599999986588955,2.94000005722046,1.1771354675293,-0.0600018659130177,2.93999925379318,1.18000110346716,0,0,0,0,0.0163538,-0.002474609,-2.024222E-05,3.71994488546079E-08,3.50004931704007E-08,-0.143225952982903,-0.000279680311988734,-0.000120338624884473,0.000173135436141649,5
0.0399932861328125,-0.0599999986588955,2.94000005722046,1.17048275470734,-0.060014863945674,2.93999366110285,1.18000914986856,0,0,0,0,0.03270752,-0.004950816,-5.430172E-05,3.62924410524101E-08,3.44428769949445E-08,-0.332637369632721,-0.00111059898697896,-0.000477859717552347,0.000687513678106196,6
0.05999755859375,-0.0600004345178604,2.94013261795044,1.16416561603546,-0.0600498857373401,2.93997859220429,1.18003083002592,3185.54,2835.848,1500.947,2767.605,0.03127853,-0.00494336,-0.01646952,-2.17787910514744E-05,0.00662235822528601,-0.315857589244843,-0.00247936261166862,-0.00106680046642749,0.00153484356504269,6
0.079986572265625,-0.0599162243306637,2.94038772583008,1.15857720375061,-0.0601174907153006,2.93994950367094,1.18007268072775,3065.763,3067.285,2154.983,2024.031,0.01897039,-0.004311125,-0.04351445,0.00421055313199759,0.0127496924251318,-0.27942031621933,-0.00437104534358026,-0.00188073869847162,0.00270588528944111,6
0.0999908447265625,-0.059637576341629,2.94068765640259,1.15374839305878,-0.0602281370710988,2.93990189563514,1.18014117609281,2639.851,3831.719,2620.662,1134.892,-0.005857889,-0.002887932,-0.07014287,0.013932392001152,0.0149963032454252,-0.24144321680069,-0.00677536694902951,-0.00291525111632684,0.0041942748969354,6
0.1199951171875,-0.0590849369764328,2.94089889526367,1.14957022666931,-0.0603918861403606,2.93983143898525,1.18024254456713,2092.381,4101.879,3169.374,755.8835,-0.04012159,-0.0004506069,-0.08993282,0.0276319514960051,0.0105586806312203,-0.208910942077637,-0.00967801353495435,-0.00416417885169243,0.00599115140585487,5
0.139999389648438,-0.0582315437495708,2.94085621833801,1.14596676826477,-0.0606185767455666,2.93973390035084,1.18038287685052,1510.425,4074.802,3735.72,701.9396,-0.07649398,0.002388648,-0.09949517,0.0426697432994843,-0.00213344674557447,-0.180171266198158,-0.0130660253322238,-0.00562194567796536,0.00808849210174802,4
0.159988403320313,-0.0570995435118675,2.94039487838745,1.14297819137573,-0.0609175312885481,2.93960526856281,1.18056794395381,1135.234,3846.962,4069.753,879.986,-0.1062798,0.004335484,-0.09869835,0.0565999485552311,-0.0230715088546276,-0.149431273341179,-0.0169234294955564,-0.00728167892605071,0.0104764090324936,4
0.17999267578125,-0.0557378716766834,2.93938803672791,1.14071130752563,-0.0612985250199726,2.93944133760391,1.18080379722281,1100.515,3565.29,4010.151,1149.175,-0.1236266,0.004492527,-0.08999833,0.0680835768580437,-0.0503425039350986,-0.113347128033638,-0.0212433804254414,-0.00914043312572283,0.0131506644458931,3
0.199996948242188,-0.0541966669261456,2.9377772808075,1.13924872875214,-0.0617704296168641,2.93923829023936,1.18109592864822,1373.805,3339.555,3594.616,1386.17,-0.1278711,0.00302282,-0.07724925,0.0770601779222488,-0.0805390030145645,-0.0731275901198387,-0.0260104776919234,-0.0111915819022102,0.0161017247421801,3
0.219985961914063,-0.0525144562125206,2.93557620048523,1.13858413696289,-0.0623415882203848,2.93899253664859,1.18144950303185,1790.972,3213.086,3016.795,1526.866,-0.1229741,0.0008613604,-0.06426101,0.0841104835271835,-0.110052801668644,-0.0332285612821579,-0.031208065114187,-0.0134279585662277,0.0193192789519858,3
0.239990234375,-0.0507198311388493,2.93284726142883,1.13860702514648,-0.0630214373585105,2.93870001655724,1.18187036203406,2158.695,3168.449,2517.634,1558.751,-0.1149633,-0.0009869675,-0.05362222,0.0897312685847282,-0.136452913284302,0.00114207714796066,-0.0368316683029241,-0.015847637913056,0.022800557215184,3
0.259994506835938,-0.0488375425338745,2.92966508865356,1.13913786411285,-0.0638179029240226,2.93835731967507,1.18236341216003,2352.372,3158.936,2273.666,1495.772,-0.1090479,-0.00190416,-0.04623993,0.0941143855452538,-0.159108430147171,0.0265446081757545,-0.0428651747123285,-0.0184436871643672,0.0265355850983733,3
0.279998779296875,-0.0468920283019543,2.92608785629272,1.13999617099762,-0.0647390625194898,2.93796097043536,1.18293365383054,2352.699,3152.598,2324.16,1363.259,-0.1078165,-0.001744371,-0.04152454,0.0972756966948509,-0.178861573338509,0.0429129302501678,-0.0492963837173861,-0.0212108567320638,0.030516809833474,3
0.29998779296875,-0.0449090152978897,2.92214393615723,1.14106214046478,-0.0657918945890516,2.93750796620855,1.18358540703494,2229.212,3143.908,2572.759,1194.608,-0.1110927,-0.0007366303,-0.03798839,0.0991506800055504,-0.197190999984741,0.0532956421375275,-0.0561078595514081,-0.0241416444928383,0.0347334378503248,3
0.319992065429688,-0.0429171919822693,2.91783571243286,1.14229381084442,-0.0669855955880233,2.93699435001684,1.18432436481717,2073.222,3132.587,2873.852,1032.728,-0.1169335,0.0006869361,-0.0339798,0.099591001868248,-0.215405598282814,0.0615818426012993,-0.0632980253096114,-0.0272353719486164,0.0391844929697465,3
0.339996337890625,-0.0409492254257202,2.91315126419067,1.14370727539063,-0.068326768706371,2.93641728069206,1.18515461486636,1955.832,3107.036,3108.938,921.7488,-0.1228388,0.002069813,-0.02837705,0.0983986109495163,-0.234226554632187,0.0706755146384239,-0.0708499516420146,-0.0304847548730522,0.0438594951176439,3
0.3599853515625,-0.0390404537320137,2.90807747840881,1.14534330368042,-0.0698213312158394,2.93577421219747,1.18607982025561,1904.904,3066.249,3222.12,880.1091,-0.1267084,0.003092478,-0.02087066,0.0954385101795197,-0.253693968057632,0.081804096698761,-0.0787457139191101,-0.0338820807988248,0.0487473480944833,3
0.379989624023438,-0.0372259765863419,2.90261054039001,1.14724314212799,-0.0714784451857985,2.93506120235061,1.1871056527423,1923.058,3020.868,3207.581,896.6848,-0.1274163,0.003642412,-0.01188303,0.0907240211963654,-0.273341953754425,0.0949915200471878,-0.0869857157641562,-0.0374275233937465,0.0538483017622888,3
0.399993896484375,-0.0355375520884991,2.89676141738892,1.14943146705627,-0.0733036822025899,2.9342758538535,1.18823556140379,1991.875,2988.943,3098.228,939.4029,-0.1250301,0.003790387,-0.002211489,0.0844210013747215,-0.292452484369278,0.109414018690586,-0.0955525119207663,-0.0411135764513579,0.0591515566763244,3
0.419998168945313,-0.0340022332966328,2.89055490493774,1.15190577507019,-0.0753034649285836,2.93341540321397,1.18947352217404,2072.586,2975.167,2953.244,985.8282,-0.1205022,0.003706972,0.00733758,0.0767662227153778,-0.310323774814606,0.123717121779919,-0.104434660908044,-0.0449353170220673,0.0646500300148815,3
0.439987182617188,-0.0326427593827248,2.88402485847473,1.15464162826538,-0.0774822545706558,2.93247793089932,1.19082229675263,2136.34,2972.516,2825.116,1023.676,-0.1150794,0.003563551,0.01614767,0.0679735839366913,-0.326506614685059,0.136792793869972,-0.113613709720558,-0.0488848052931553,0.0703322984885602,4
0.459991455078125,-0.0314785540103912,2.87720799446106,1.15760099887848,-0.0798493430620752,2.93145943885026,1.19228763728888,2167.36,2977.669,2749.892,1039.067,-0.1098703,0.003475334,0.0239453,0.0582106411457062,-0.340847015380859,0.147966533899307,-0.123092454730403,-0.0529632444654124,0.0762000931848968,4
0.479995727539063,-0.0305269118398428,2.8701388835907,1.16074752807617,-0.0824088828700873,2.93035814037613,1.19387211435783,2168.922,2983.608,2731.808,1033.479,-0.1055331,0.003481931,0.03074167,0.0475818477571011,-0.353459656238556,0.157327368855476,-0.132852887402757,-0.0571628859694044,0.0822422659629699,4
0.5,-0.0298037119209766,2.86284732818604,1.16405177116394,-0.085166398670376,2.92917165836334,1.1955791479969,2147.12,2990.687,2763.07,1007.371,-0.1022734,0.003567931,0.03679781,0.0361601077020168,-0.364579886198044,0.165209636092186,-0.142884000065179,-0.0614789935111996,0.0884520025491718,4
0.519989013671875,-0.0293243955820799,2.85535740852356,1.16749894618988,-0.0881248588203387,2.92789871561062,1.19741057576073,2116.429,2991.719,2816.651,979.4141,-0.09984191,0.003685533,0.04240827,0.0239656660705805,-0.374494671821594,0.172358095645905,-0.153166947611899,-0.0659034585682559,0.0948176369253132,4
0.539993286132813,-0.0291040167212486,2.84768891334534,1.17108476161957,-0.091293865515634,2.92653518056143,1.19937234186584,2088.218,2992.151,2872.371,950.2313,-0.09783122,0.00377703,0.0478626,0.0110188089311123,-0.383420884609222,0.179291054606438,-0.163706645289342,-0.0704383960337938,0.101342211863077,4
0.55999755859375,-0.0291575342416763,2.83985877037048,1.17481577396393,-0.094676112580471,2.92507989413848,1.20146611391775,2071.471,2988.26,2907.46,935.9658,-0.09577473,0.003795477,0.05328929,-0.00267600454390049,-0.391506344079971,0.186552658677101,-0.17448465888317,-0.0750758741803766,0.108014315705644,5
0.579986572265625,-0.0294988714158535,2.83188319206238,1.17869782447815,-0.0982734311149,2.92353206847056,1.2036930254546,2064.514,2987.263,2922.403,928.4974,-0.09339706,0.003715561,0.05874304,-0.0170662850141525,-0.398779720067978,0.194104224443436,-0.185481935470438,-0.0798076950675377,0.114822153786096,5
0.599990844726563,-0.0301410332322121,2.82377862930298,1.18273842334747,-0.102095761416081,2.92188742652551,1.20605922999388,2065.135,2982.974,2913.007,940.8388,-0.09049528,0.00353832,0.06411321,-0.0321086049079895,-0.405231297016144,0.202029287815094,-0.19670480600515,-0.0846365827279185,0.121769645266545,5
0.6199951171875,-0.0310953371226788,2.81556248664856,1.18694138526917,-0.106144683970236,2.92014528826426,1.20856570593183,2075.733,2986.96,2886.065,951.6985,-0.08716313,0.003271753,0.06928719,-0.0477148778736591,-0.410806208848953,0.210150554776192,-0.208134604141382,-0.0895545055543457,0.128845234789665,5
0.639999389648438,-0.0323709733784199,2.80725336074829,1.19130420684814,-0.110424235525481,2.91830391678686,1.21121495220784,2083.219,2992.518,2855.386,967.3372,-0.08359929,0.00293922,0.07415007,-0.0637817680835724,-0.41545432806015,0.218139290809631,-0.219761081350814,-0.0945570538913933,0.136042578028218,5
0.659988403320313,-0.0339754708111286,2.79887008666992,1.19582200050354,-0.114934715429503,2.91636318329238,1.21400715413238,2087.484,2998.516,2826.211,984.7717,-0.08000562,0.00256576,0.07859688,-0.0802246406674385,-0.41916835308075,0.225890904664993,-0.231565018351745,-0.0996359582190702,0.143349777331291,5
0.67999267578125,-0.0359143801033497,2.79043078422546,1.20048582553864,-0.119686638739014,2.91431856344567,1.21694882102647,2086.938,3007.348,2808.615,993.0071,-0.07661222,0.00216834,0.08261361,-0.096945695579052,-0.421965688467026,0.233188405632973,-0.243554411173546,-0.104794659005432,0.150771782621969,6
0.699996948242188,-0.0381922833621502,2.78195238113403,1.20529043674469,-0.124680083855354,2.91217002351282,1.22004000142426,2083.853,3014.226,2795.585,1002.507,-0.07352881,0.001759945,0.08618449,-0.113895356655121,-0.42392098903656,0.240229532122612,-0.255710395848158,-0.11002503961202,0.158296916205407,6
0.719985961914063,-0.040811937302351,2.77345037460327,1.21022546291351,-0.129914195341611,2.90991793156443,1.22328016576956,2076.126,3023.691,2798.934,997.795,-0.07089495,0.001342502,0.08941007,-0.130982503294945,-0.425103902816772,0.246749132871628,-0.2680137084949,-0.11531881132915,0.165913252821798,6
0.739990234375,-0.043775986880064,2.76493787765503,1.21528792381287,-0.135400001298574,2.90755754251682,1.2266761409821,2063.709,3024.059,2804.081,1006.62,-0.0685748,0.00092899,0.09229621,-0.14820271730423,-0.42562735080719,0.253122210502625,-0.280473432677602,-0.12067988256057,0.173626415629864,6
0.759994506835938,-0.04708606377244,2.7564263343811,1.22047460079193,-0.14113644597991,2.90508931062815,1.2302272735046,2059.006,3031.49,2811.861,998.0363,-0.06659234,0.00050728,0.09494227,-0.16550400853157,-0.425573706626892,0.259331107139587,-0.293070637251543,-0.126100107763583,0.181424685349205,6
0.779998779296875,-0.0507433526217937,2.74792575836182,1.22578382492065,-0.147126184485884,2.90251209348295,1.23393520697061,2050.263,3032.879,2818.745,1000.719,-0.06483465,8.190355E-05,0.0973768,-0.182864844799042,-0.425028920173645,0.265463590621948,-0.305795832832518,-0.131575403921268,0.189302187598958,6
0.79998779296875,-0.0547485463321209,2.73944449424744,1.23121523857117,-0.153366821193532,2.89982692185086,1.2377984583754,2045.425,3035.084,2822.66,1001.695,-0.06323037,-0.0003472762,0.09962273,-0.200259506702423,-0.424059122800827,0.271568804979324,-0.318629798715703,-0.137097500901303,0.197247023847227,6
0.819992065429688,-0.0591016747057438,2.7309901714325,1.23676776885986,-0.159870162197751,2.89702871589906,1.2418243362541,2041.629,3036.896,2824.331,1004.103,-0.06172781,-0.0007781757,0.1016887,-0.217656552791595,-0.422714471817017,0.277626991271973,-0.33158286215529,-0.142670842232658,0.205265587156312,6
0.839996337890625,-0.0638025552034378,2.72256922721863,1.24244391918182,-0.166633637018892,2.89411858163313,1.24601124935738,2042.793,3040.135,2816.603,1009.698,-0.06030835,-0.00121014,0.1035485,-0.235044062137604,-0.421044528484344,0.283807575702667,-0.344636106234817,-0.148287288494656,0.213346167053785,6
0.8599853515625,-0.068849503993988,2.71418762207031,1.24823844432831,-0.173653699721778,2.89109804476993,1.25035700258242,2042.274,3045.78,2815.267,1007.305,-0.0590753,-0.001643703,0.1052409,-0.252346724271774,-0.419077008962631,0.289728969335556,-0.357770416714212,-0.153938615363784,0.221476930914505,6
0.879989624023438,-0.0742410272359848,2.70585036277771,1.25415217876434,-0.18094280014554,2.88796174849148,1.25486930297274,2037.961,3044.628,2808.6,1021.794,-0.05793174,-0.002059156,0.1066977,-0.269576221704483,-0.416864722967148,0.295686691999435,-0.370996904517929,-0.159629603560431,0.229664756929996,6
0.899993896484375,-0.0799744427204132,2.69756150245667,1.26018166542053,-0.18849723509595,2.8847112861788,1.25954585807468,2041.919,3052.524,2805.193,1015.254,-0.05703106,-0.002467685,0.1079704,-0.286672055721283,-0.414438843727112,0.301476329565048,-0.384296738353309,-0.165352150505452,0.237897987633041,7
0.919998168945313,-0.0860468447208405,2.68932437896729,1.26632463932037,-0.196318384305134,2.8813460641717,1.26438752200817,2037.903,3053.902,2803.578,1021.891,-0.05634983,-0.002855441,0.1090464,-0.303619652986526,-0.411853075027466,0.307146281003952,-0.397661187980262,-0.171102499820431,0.246171218589148,7
0.939987182617188,-0.09245465695858,2.68114137649536,1.27257764339447,-0.204401181418416,2.87786826238106,1.26939115845832,2036.268,3056.983,2806.298,1020.352,-0.05591786,-0.00322136,0.1099551,-0.320390373468399,-0.409153282642365,0.312647819519043,-0.411071375662203,-0.176872528942697,0.254472763580097,7
0.959991455078125,-0.0991941392421722,2.67301368713379,1.27893841266632,-0.212759000778906,2.87427212620069,1.27456504678061,2032.71,3057.611,2811.479,1021.208,-0.05569309,-0.003559049,0.1107106,-0.336974769830704,-0.406389027833939,0.318038642406464,-0.424539267042903,-0.182667386354485,0.262810029909387,7
0.979995727539063,-0.106261685490608,2.66494154930115,1.28540825843811,-0.22138664033507,2.87055989392801,1.27990596665734,2034.38,3060.5,2812.208,1019.541,-0.05566912,-0.003872236,0.1113268,-0.35337695479393,-0.403610527515411,0.32349169254303,-0.438046240701377,-0.188479059778567,0.271171490030365,7
1,-0.113652661442757,2.65692448616028,1.29198229312897,-0.230284798736574,2.86673126495361,1.28541435058594,2033.129,3063.347,2821.397,1011.977,-0.05588857,-0.004164119,0.1118646,-0.369549334049225,-0.400853753089905,0.328702211380005,-0.451584000205995,-0.194303979492187,0.279552008056641,7
1.01998901367188,-0.121363446116447,2.64896106719971,1.298663854599,-0.239446912293295,2.86278906344998,1.29108613532954,2030.508,3060.604,2822.568,1020.694,-0.05620335,-0.004420315,0.1122748,-0.38553985953331,-0.398170918226242,0.334080398082733,-0.46513400752272,-0.200134169097193,0.287940108062054,7
1.03999328613281,-0.129389047622681,2.64104962348938,1.30544698238373,-0.248887339851819,2.85872711120656,1.2969302096982,2032.58,3064.507,2835.429,1005.531,-0.05671681,-0.004655738,0.1126496,-0.401278972625732,-0.395574241876602,0.339154779911041,-0.478708875293167,-0.205975055460915,0.29634359787259,7
1.05999755859375,-0.137726292014122,2.63318729400635,1.31234109401703,-0.258599401509697,2.85454828239877,1.30294243851408,2033.539,3061.373,2827.965,1020.772,-0.05723293,-0.004853345,0.1128848,-0.416863650083542,-0.393118500709534,0.344705760478973,-0.492290296490434,-0.211818761581115,0.30475114456651,7
1.07998657226563,-0.146369233727455,2.62537145614624,1.31933403015137,-0.268575430648764,2.85025587575821,1.30911807577533,2039.562,3070.271,2845.112,992.0558,-0.05804413,-0.005044559,0.1131527,-0.43214613199234,-0.390790045261383,0.349648296833038,-0.50586005237609,-0.217657448443621,0.313151469876847,7
1.09999084472656,-0.155315116047859,2.61759829521179,1.32643818855286,-0.278830554044452,2.84584338265603,1.31546648567654,2032.092,3059.053,2836.95,1025.591,-0.05873282,-0.005178783,0.1132508,-0.44729408621788,-0.388655453920364,0.355207532644272,-0.519431110871131,-0.223496695782555,0.321552601564445,7
1.1199951171875,-0.164557740092278,2.60986471176147,1.33364140987396,-0.289357002179081,2.84131414609862,1.32198285851614,2046.975,3073.274,2853.868,983.4603,-0.05974429,-0.005315137,0.1134081,-0.462130963802338,-0.386679708957672,0.360160768032074,-0.532985466132485,-0.229328756186667,0.329943393154705,8
1.13999938964844,-0.17409448325634,2.60216593742371,1.34095728397369,-0.300154365346813,2.83666834237095,1.3286669406667,2038.895,3061.912,2843.385,1020.734,-0.06063805,-0.005395032,0.1134042,-0.476838886737823,-0.384937167167664,0.365793108940125,-0.546515580872639,-0.235150386571708,0.338319178707607,8
1.15998840332031,-0.183918625116348,2.5944983959198,1.34836888313293,-0.31121353909136,2.83190988886621,1.33551309603608,2051.138,3075.211,2868.479,974.2134,-0.06188281,-0.005476525,0.1135012,-0.491207510232925,-0.383377552032471,0.37058287858963,-0.560003743914979,-0.240953966313175,0.346668994161124,8
1.17999267578125,-0.194028437137604,2.58685660362244,1.35589551925659,-0.322550701230474,2.8270318247214,1.34253133946411,2040.967,3059.489,2855.425,1021.898,-0.06288256,-0.00548984,0.1134105,-0.505490481853485,-0.382088035345078,0.376330316066742,-0.573463232144024,-0.246745208083563,0.355001058539242,8
1.19999694824219,-0.204416811466217,2.57923674583435,1.36351788043976,-0.334156660511822,2.8220381046756,1.34971598112778,2061.279,3078.95,2883.029,958.7836,-0.06429137,-0.005521265,0.1134764,-0.519418001174927,-0.380991816520691,0.381120502948761,-0.58687652428584,-0.252516572968185,0.36330452533874,8
1.21998596191406,-0.215082734823227,2.57163286209106,1.37125957012177,-0.34602126278068,2.81693309777792,1.35706073512159,2048.332,3060.38,2863.878,1019.098,-0.06539498,-0.005480785,0.1133407,-0.5332972407341,-0.38019797205925,0.387083619832993,-0.600226348268632,-0.258260629277074,0.371568702324394,8
1.239990234375,-0.226018130779266,2.56404113769531,1.37909162044525,-0.358161486344149,2.81170949873715,1.36457611182642,2066.623,3080.607,2905.9,942.3582,-0.06696199,-0.005465872,0.1134367,-0.546769142150879,-0.379588484764099,0.391605228185654,-0.613526094901141,-0.263983138701136,0.379801879044709,8
1.25999450683594,-0.237224385142326,2.5564546585083,1.38705384731293,-0.3705671011502,2.80637170925886,1.37225577835275,2053.918,3056.054,2868.068,1029.349,-0.06798997,-0.005360411,0.1132287,-0.560312926769257,-0.379322856664658,0.398108810186386,-0.626758665639206,-0.269676744214496,0.387993470686331,8
1.27999877929688,-0.248690992593765,2.54887080192566,1.395099401474,-0.383236695417198,2.80092033679326,1.3800988607405,2083.184,3090.411,2928.298,907.4595,-0.06977376,-0.005321528,0.1134144,-0.573332250118256,-0.379198521375656,0.402277886867523,-0.639917282339435,-0.275338529371412,0.396139281255613,8
1.29998779296875,-0.260422438383102,2.5412814617157,1.40328633785248,-0.396158759015336,2.79536033382764,1.388098233671,2053.496,3047.83,2871.115,1051.454,-0.07067017,-0.005150021,0.1131387,-0.586572468280792,-0.379471123218536,0.409347623586655,-0.652985332144132,-0.280961346123326,0.404229026602261,8
1.31999206542969,-0.272405177354813,2.53368520736694,1.41154503822327,-0.409351342777246,2.78968393359302,1.39626507146953,2097.743,3098.837,2959.489,867.4859,-0.07263186,-0.005088768,0.11345,-0.599138081073761,-0.379810065031052,0.412937492132187,-0.665976209205206,-0.286550957599616,0.412270998344359,8
1.33999633789063,-0.284648478031158,2.52607274055481,1.41996574401855,-0.422802873722428,2.78389611561957,1.40459220990988,2055.44,3037.563,2864.195,1084.714,-0.07323053,-0.004846421,0.1130594,-0.612162232398987,-0.380621671676636,0.421032518148422,-0.678873453515705,-0.29210028151913,0.420255006953505,8
1.3599853515625,-0.297133386135101,2.51844525337219,1.42844033241272,-0.436500861174643,2.77800225429635,1.41307191666844,2122.196,3117.09,2993.397,804.3969,-0.07551447,-0.004793157,0.1135762,-0.624246418476105,-0.381377875804901,0.423729479312897,-0.69166099897751,-0.297602405088682,0.428171106749628,9
1.37998962402344,-0.309875577688217,2.51079082489014,1.43710005283356,-0.450464156928423,2.77199423822282,1.42171586190405,2045.297,3018.701,2854.39,1142.183,-0.07569556,-0.004467187,0.113034,-0.637108147144318,-0.382718354463577,0.432984858751297,-0.704352136620515,-0.303063047067127,0.436027525513373,9
1.39999389648438,-0.322849541902542,2.50311422348022,1.44579064846039,-0.464680216184654,2.76587746507559,1.43051627978847,2150.552,3138.333,3035.173,726.2054,-0.07832304,-0.004432565,0.1137985,-0.648699820041656,-0.383835256099701,0.434529393911362,-0.716930938559026,-0.308475354130225,0.443814403124744,9
1.41999816894531,-0.336079597473145,2.49540019035339,1.45470106601715,-0.47914673136562,2.75965292774086,1.43947174182117,2037.371,2998.424,2828.115,1216.505,-0.07796031,-0.004019243,0.1130358,-0.661501884460449,-0.385699987411499,0.445523947477341,-0.729391385793766,-0.313836736470737,0.451528013536465,9
1.43998718261719,-0.349529653787613,2.48765850067139,1.46360242366791,-0.49384995777978,2.75332654017544,1.44857373938334,2181.922,3168.048,3095.192,616.2377,-0.08116782,-0.004033624,0.1141815,-0.672504365444183,-0.387089103460312,0.445066899061203,-0.741718206886022,-0.319140623215221,0.459158903000492,9
1.45999145507813,-0.363237679004669,2.4798686504364,1.47277426719666,-0.508809800712713,2.74688973769103,1.45783459479497,2012.591,2961.613,2787.089,1340.879,-0.07990282,-0.003493002,0.1130562,-0.685399413108826,-0.389490246772766,0.458595007658005,-0.753924423002454,-0.324392617007921,0.466715132239272,9
1.47999572753906,-0.377151906490326,2.47204780578613,1.48188090324402,-0.524012471663969,2.74034845309416,1.46724577231745,2230.928,3214.494,3173.203,451.5739,-0.08393059,-0.003599528,0.1147389,-0.69571191072464,-0.391038239002228,0.45532950758934,-0.765994882555672,-0.329586198544069,0.474187321698441,9
1.5,-0.391329944133759,2.46416759490967,1.49133360385895,-0.539455198877605,2.73370387899399,1.4768055561018,1977.215,2912.609,2711.647,1524.525,-0.08141869,-0.002896987,0.1130711,-0.708904206752777,-0.394009470939636,0.472633212804794,-0.777924000354858,-0.334718964672088,0.481572013878822,9
1.51998901367188,-0.405695915222168,2.45625638961792,1.50063014030457,-0.555123050061237,2.72696244033876,1.48650470234772,2292.286,3281.892,3287.451,212.7047,-0.08677218,-0.003153715,0.1155633,-0.718298494815826,-0.395557224750519,0.464828222990036,-0.789697369743256,-0.339784716610053,0.488860290373601,9
1.53999328613281,-0.420338094234467,2.4482729434967,1.51038527488708,-0.571036956668503,2.72011513090874,1.49635616862212,1909.526,2832.955,2595.215,1815.999,-0.08231138,-0.002196043,0.1130367,-0.732107758522034,-0.399177938699722,0.487759381532669,-0.801327600455846,-0.344788879974649,0.496059957209413,9
1.55999755859375,-0.435149997472763,2.44025802612305,1.5199054479599,-0.587181951496087,2.71316839067337,1.50635068951315,2270.101,3474.068,3331.382,0,-0.08867474,-0.002204565,0.1169298,-0.740597367286682,-0.400741964578629,0.476007163524628,-0.812800388649436,-0.349725300221754,0.503162159625937,9
1.57998657226563,-0.450248032808304,2.43216133117676,1.52996718883514,-0.603542258451077,2.7061290076447,1.51647849886779,1888.155,2700.3,2465.67,2121.066,-0.08239554,-0.0006945524,0.1135553,-0.754900634288788,-0.404829561710358,0.503085553646088,-0.82410201904291,-0.354588076049064,0.510158407210813,9
1.59999084472656,-0.465505987405777,2.42403125762939,1.53977525234222,-0.620139554045575,2.69898765502515,1.52675301547962,2132.814,3714.197,3233.646,0,-0.08847394,0.0003570448,0.1185048,-0.762898564338684,-0.40649801492691,0.490405082702637,-0.835244706287931,-0.359382463079953,0.517056261415284,9
1.6199951171875,-0.48104327917099,2.41582369804382,1.550088763237,-0.636958033083316,2.69175113334911,1.53716445517924,1995.734,2545.221,2439.845,2201.402,-0.08199713,0.002726936,0.1144145,-0.776863157749176,-0.41038104891777,0.515677928924561,-0.846214826007804,-0.364102599125749,0.523847288101157,9
1.63999938964844,-0.49673455953598,2.40758752822876,1.56014204025269,-0.653994195024907,2.68442094880091,1.54771065096602,2193.214,3676.623,3224.421,0,-0.08820922,0.004498244,0.1181497,-0.784565806388855,-0.411810994148254,0.502664685249329,-0.857007552155828,-0.368746407673381,0.530528499715628,9
1.65998840332031,-0.512690365314484,2.39928221702576,1.57065260410309,-0.67123120513297,2.67700434489773,1.55838118133557,2086.084,2519.216,2535.341,2050.562,-0.08311193,0.007210725,0.1130949,-0.797792911529541,-0.41526335477829,0.525525629520416,-0.867610144209785,-0.373308406832068,0.537092009268528,9
1.67999267578125,-0.528794527053833,2.39094877243042,1.58093702793121,-0.688691692550512,2.66949158495151,1.56919005480539,2200.16,3657.221,3251.959,0,-0.08989713,0.009286437,0.115735,-0.8052077293396,-0.416667312383652,0.51422119140625,-0.878034183119987,-0.377793579561193,0.543544985919778,9
1.69999694824219,-0.545141100883484,2.38254833221436,1.59161257743835,-0.706358800111611,2.66188992212981,1.58012683598675,2136.232,2542.369,2699.931,1813.529,-0.08683876,0.01192439,0.1107659,-0.817330241203308,-0.42001748085022,0.53377640247345,-0.888267004546665,-0.382196476749158,0.549879589839776,9
1.71998596191406,-0.561630725860596,2.3741135597229,1.6020975112915,-0.724214951560321,2.65420691900456,1.59118064433996,2244.776,3533.495,3343.748,0,-0.09396378,0.01373186,0.1126518,-0.82447761297226,-0.421742588281631,0.524246335029602,-0.898296635743475,-0.386511946857687,0.556088409328192,9
1.739990234375,-0.578346431255341,2.36560344696045,1.61294221878052,-0.74228345468553,2.64643254688532,1.60236590849663,2128.039,2603.706,2853.44,1608.771,-0.091919,0.01589817,0.1084225,-0.835784375667572,-0.425501823425293,0.542232692241669,-0.908134108040217,-0.390744736359816,0.562178273303667,9
1.75999450683594,-0.595201790332794,2.35704660415649,1.62363421916962,-0.760546715064628,2.63857437616062,1.61367173667103,2269.781,3447.234,3413.746,0,-0.09853536,0.01712091,0.1105037,-0.842771649360657,-0.427847504615784,0.534599602222443,-0.917767514700581,-0.394889722119545,0.568141810929231,9
1.77999877929688,-0.612275540828705,2.34840083122253,1.63468825817108,-0.779000609654483,2.63063418086074,1.62509557650306,2109.24,2661.767,2908.96,1515.741,-0.09613905,0.01867184,0.1073832,-0.853689134120941,-0.432283997535706,0.552704453468323,-0.927192788821983,-0.398945154262308,0.57397650459845,9
1.79998779296875,-0.629485368728638,2.33969783782959,1.64559805393219,-0.797626646773287,2.62261991743975,1.63662598076079,2297.014,3394.522,3442.27,0,-0.1018324,0.01921182,0.1101843,-0.860492765903473,-0.435153216123581,0.545491218566895,-0.936399026186941,-0.402906341007953,0.579675604081262,9
1.81999206542969,-0.646914124488831,2.33089470863342,1.6568990945816,-0.816448984455027,2.61452119137054,1.64827790441807,2075.003,2691.989,2865.928,1567.542,-0.0979729,0.02024745,0.1078267,-0.87143486738205,-0.440157979726791,0.565051317214966,-0.945396434568188,-0.406777674475912,0.585245428475252,9
1.83999633789063,-0.664474606513977,2.32203030586243,1.66804802417755,-0.835449117627072,2.60634596486888,1.66003989195343,2305.115,3424.99,3404.102,0,-0.1027362,0.02032663,0.1115107,-0.878026247024536,-0.443225681781769,0.557444930076599,-0.954174163352093,-0.410554485950274,0.590679260733698,9
1.8599853515625,-0.682256460189819,2.31306266784668,1.67961263656616,-0.854607925216182,2.59810246519841,1.67190010651166,2059.142,2691.146,2766.165,1689.191,-0.09748714,0.02111277,0.1094343,-0.889092206954956,-0.448384284973145,0.578233480453491,-0.962722140342816,-0.41423244164655,0.595970865687568,9
1.87998962402344,-0.700163900852203,2.30403828620911,1.69099283218384,-0.873950157556149,2.58978004298193,1.6838738697284,2300.556,3470.969,3362.705,0,-0.1018505,0.02102243,0.1136525,-0.895371377468109,-0.451214998960495,0.569008529186249,-0.971049893464309,-0.417815641164241,0.601126141575667,9
1.89999389648438,-0.718295991420746,2.29491567611694,1.70281088352203,-0.893456683142228,2.58138692997148,1.69594933829086,2049.162,2666.308,2672.622,1825.486,-0.09559683,0.02182851,0.1112725,-0.906603276729584,-0.456126272678375,0.590900182723999,-0.979147395688901,-0.421299770153459,0.606138881190213,9
1.91999816894531,-0.736547946929932,2.28574562072754,1.71442139148712,-0.913122862707269,2.57292512231409,1.70812364027167,2271.351,3554.703,3310.156,0,-0.09996708,0.02189458,0.1157517,-0.912600576877594,-0.458508640527725,0.580528557300568,-0.987011339258123,-0.424683405378145,0.611007036871143,9
1.93998718261719,-0.755022704601288,2.27648878097534,1.72645926475525,-0.932928814964021,2.56440317437226,1.72038446820694,2058.546,2624.454,2637.331,1898.042,-0.09356856,0.02291019,0.1129635,-0.923739433288574,-0.462847143411636,0.601894438266754,-0.994632798067981,-0.427962706185118,0.615725082934877,9
1.95999145507813,-0.773612797260284,2.26719570159912,1.73827195167542,-0.952900013794853,2.55581012544606,1.73274759164336,2266.29,3565.839,3308.276,0,-0.09810233,0.02318653,0.1171093,-0.929505169391632,-0.464658081531525,0.590637385845184,-1.00202031904361,-0.431141350077486,0.620298310335216,9
1.97999572753906,-0.79242217540741,2.2578284740448,1.75050449371338,-0.973016570682103,2.54715453300902,1.74520069864106,2077.108,2606.386,2647.547,1891.623,-0.09192859,0.02435338,0.1138339,-0.940466940402985,-0.468364715576172,0.611629366874695,-1.00916501115878,-0.434215511495054,0.624721215103391,9
1.99998474121094,-0.811342835426331,2.24843430519104,1.76251518726349,-0.99325809521779,2.53844517048404,1.75773116656619,2249.914,3587.204,3306.021,0,-0.0966344,0.02480429,0.1176781,-0.946036636829376,-0.469707429409027,0.600534558296204,-1.01605883242245,-0.437181730193742,0.628988818863851,9
2.01998901367188,-0.830474257469177,2.23897767066956,1.77491807937622,-1.01365055070775,2.52967086658596,1.77035506794184,2091.726,2594.435,2695.457,1838.443,-0.09095974,0.02603539,0.1142586,-0.956570863723755,-0.472827434539795,0.620143890380859,-1.02270954399163,-0.440043345582587,0.633105926142498,9
2.03999328613281,-0.849713265895844,2.22950220108032,1.78710496425629,-1.03417354141348,2.52084039703127,1.78305977683431,2271.444,3537.965,3334.02,0,-0.09565116,0.02643865,0.117599,-0.961949586868286,-0.473771423101425,0.609347105026245,-1.02910913225408,-0.442796909628122,0.637067576131623,9
2.05999755859375,-0.869155168533325,2.21997284889221,1.79967510700226,-1.05482201812353,2.5119559343546,1.79584216754118,2098.656,2616.447,2732.057,1768.415,-0.09028383,0.02752796,0.1141393,-0.972095608711243,-0.47647026181221,0.628505408763885,-1.03525504859546,-0.445441325732794,0.640872191117535,9
2.07998657226563,-0.888699114322662,2.21043014526367,1.8120334148407,-1.07557499515204,2.50302650811029,1.80868924892322,2264.709,3523.791,3349.642,0,-0.0948879,0.02776839,0.1174005,-0.977190673351288,-0.477133333683014,0.617913722991943,-1.04114045847258,-0.4479736531836,0.644515540192423,9
2.09999084472656,-0.908438086509705,2.20083951950073,1.82476830482483,-1.09645901288412,2.49404069871208,1.82161745074311,2086.8,2626.733,2746.784,1746.579,-0.08942202,0.02868533,0.1140931,-0.986952066421509,-0.479529291391373,0.636744976043701,-1.04677201701582,-0.450396755497224,0.648001743199023,9
2.1199951171875,-0.928272664546967,2.19124102592468,1.83728969097137,-1.11745308225396,2.48500753716864,1.83461377976925,2271.467,3505.235,3352.359,0,-0.09375392,0.02870887,0.1173776,-0.991728246212006,-0.479923874139786,0.626071333885193,-1.0521429102862,-0.45270770082608,0.651326581984514,9
2.13999938964844,-0.948296129703522,2.18160033226013,1.85019135475159,-1.138551967509,2.47592927627801,1.8476749948214,2076.047,2638.847,2725.395,1756.593,-0.08794983,0.02944227,0.1141521,-1.0011785030365,-0.482033729553223,0.645085036754608,-1.05725102347782,-0.454905579228273,0.654488747383304,8
2.15998840332031,-0.968406975269318,2.17195820808411,1.86286592483521,-1.15973418543027,2.46681515966915,1.86078779676364,2261.959,3512.563,3341.895,0,-0.09209957,0.02929318,0.1175999,-1.00553953647614,-0.482106685638428,0.633731245994568,-1.06209075728,-0.456987981476842,0.657484773155346,8
2.17999267578125,-0.988701105117798,2.16228079795837,1.87592506408691,-1.18102676265167,2.45765355853653,1.8739689163698,2056.878,2633.017,2689.09,1806.841,-0.08579054,0.0299363,0.1143241,-1.01470017433167,-0.483868032693863,0.652957320213318,-1.06666760390386,-0.458957270716794,0.660318059240953,8
2.19999694824219,-1.00907361507416,2.15260982513428,1.88874328136444,-1.20240821395574,2.44845371736898,1.88720505326679,2251.886,3534.023,3316.683,0,-0.08978208,0.02971892,0.1178758,-1.01863265037537,-0.483549267053604,0.640910387039185,-1.07097597819164,-0.460811043810786,0.662985148161421,7
2.21998596191406,-1.02962267398834,2.14291262626648,1.90194606781006,-1.22385674836213,2.4392250122166,1.90048271779974,2051.073,2622.954,2646.594,1852.717,-0.0831833,0.03034201,0.1144258,-1.02745151519775,-0.484861522912979,0.660142242908478,-1.07501122224684,-0.462547296596067,0.665483156456917,7
2.239990234375,-1.05024027824402,2.1332311630249,1.91488575935364,-1.24539969505118,2.42995568409656,1.91381882803312,2234.426,3549.696,3303.317,0,-0.08720947,0.03012964,0.1179636,-1.03088331222534,-0.484077155590057,0.64698189496994,-1.07877792518082,-0.464168003639063,0.667814925005999,5
2.25999450683594,-1.07102727890015,2.12353324890137,1.92821300029755,-1.26701526177039,2.4206551096063,1.92719989352455,2044.062,2606.072,2611.005,1899.63,-0.0803742,0.03079542,0.1141886,-1.03934562206268,-0.484897762537003,0.666361153125763,-1.08227143928024,-0.465671165158559,0.669977576652695,5
2.27999877929688,-1.09187293052673,2.1138596534729,1.94126451015472,-1.28869796983554,2.41132564607061,1.9406225227075,2210.374,3585.217,3276.135,0,-0.08450689,0.03067763,0.1176958,-1.0422865152359,-0.483670383691788,0.652575552463531,-1.08549040888332,-0.467056197851165,0.67197027217779,2
2.29998779296875,-1.11287701129913,2.10418057441711,1.95468723773956,-1.31042570636616,2.40197680804417,1.95407302665558,2043.294,2583.211,2601.228,1916.914,-0.07777709,0.03142083,0.1136818,-1.05020582675934,-0.483962833881378,0.671137928962708,-1.08843144721369,-0.468321644481621,0.673790915005368,1
2.31999206542969,-1.13393008708954,2.09453439712524,1.96782076358795,-1.33222611841886,2.3925966997709,1.96756852021384,2208.252,3569.485,3278.34,0,-0.08200459,0.03133988,0.1168745,-1.05264568328857,-0.482291549444199,0.656676769256592,-1.09109790637238,-0.469468947365361,0.675441580245663,0
2.33999633789063,-1.15513050556183,2.08489227294922,1.98132014274597,-1.35407709248145,2.38319483607731,1.98109531406483,2043.04,2579.439,2598.835,1907.484,-0.07538877,0.0320753,0.1125815,-1.06002199649811,-0.482116103172302,0.674968957901001,-1.09348640563071,-0.470496651869278,0.67692017506657,0
2.3599853515625,-1.17636954784393,2.07529020309448,1.99452710151672,-1.37595634130987,2.37378080654189,1.99463961134278,2191.044,3582.784,3264.839,0,-0.07973558,0.03200317,0.1156446,-1.06194984912872,-0.480103969573975,0.660346269607544,-1.09559452046326,-0.471403714787811,0.678225198571351,0
2.37998962402344,-1.19774198532104,2.06569957733154,2.00807905197144,-1.39789168475144,2.36434264106153,2.00821863385843,2034.787,2570.661,2610.917,1892.46,-0.07334026,0.03270623,0.1113033,-1.06863605976105,-0.47952875494957,0.677599012851715,-1.09742465646102,-0.47219117117957,0.679358139935436,0
2.39999389648438,-1.21914315223694,2.05615520477295,2.02133321762085,-1.41986083522252,2.35488992936084,2.02181858453579,2203.021,3546.709,3270.97,0,-0.07769506,0.03252003,0.1140708,-1.07005143165588,-0.477216631174088,0.662706017494202,-1.09897439291323,-0.472857979480329,0.680317500623536,0
2.41999816894531,-1.24066555500031,2.04662847518921,2.03492784500122,-1.44185817738692,2.34542508756209,2.03543598721428,2024.724,2583.928,2609.016,1872.112,-0.07139295,0.03307997,0.1096673,-1.07611906528473,-0.476341485977173,0.679736495018005,-1.10024313330221,-0.473403883025206,0.681102911362803,0
2.43998718261719,-1.26220488548279,2.03715229034424,2.04821681976318,-1.46386128162322,2.33595776650478,2.04905695688976,2186.044,3547.34,3266.907,0,-0.07577492,0.03276049,0.112458,-1.07696509361267,-0.473806381225586,0.664445459842682,-1.10122974390336,-0.473828394004169,0.681713670323692,0
2.45999145507813,-1.28385353088379,2.02769804000854,2.06184148788452,-1.48589810917879,2.32647593524532,2.06269880290633,2002.802,2581.463,2596.829,1888.214,-0.06931729,0.03321216,0.1080898,-1.08242750167847,-0.47269880771637,0.681232929229736,-1.10193535162022,-0.474131997292339,0.68215047511319,0
2.47999572753906,-1.30550789833069,2.0182991027832,2.07515096664429,-1.50794623031618,2.31698924467309,2.07634764018804,2182.321,3541.511,3255.376,0,-0.07359593,0.03276679,0.1109018,-1.08271896839142,-0.469949722290039,0.665475964546204,-1.10235882472314,-0.474314205938057,0.682412625136718,0
2.49998474121094,-1.32726013660431,2.0089271068573,2.08879685401917,-1.5299831765145,2.30750736236496,2.08998955965012,1988.839,2581.28,2566.14,1912.84,-0.06692097,0.03311832,0.1064919,-1.08762085437775,-0.468606293201447,0.682293891906738,-1.10250000042077,-0.474374949896755,0.682500019618683,0
2.51998901367188,-1.34900629520416,1.99961471557617,2.10210967063904,-1.5520369476803,2.29801824074336,2.10364189456856,2165.218,3548.389,3243.263,0,-0.07117351,0.03259318,0.109379,-1.08730864524841,-0.465616881847382,0.665644288063049,-1.10235904000526,-0.474314298567936,0.682412758406603,0
2.53999328613281,-1.37084019184113,1.99033439159393,2.11576437950134,-1.57408507527774,2.28853154739156,2.11729073584934,1972.871,2570.075,2525.742,1960.796,-0.06416727,0.03291108,0.1048075,-1.09168946743011,-0.46401658654213,0.682733476161957,-1.10193578218388,-0.474132182551855,0.682150741652607,0
2.55999755859375,-1.39265584945679,1.98111891746521,2.12907242774963,-1.59612191359838,2.27904971150017,2.13093258853001,2145.438,3576.129,3212.844,0,-0.06845496,0.03239787,0.1077694,-1.09078693389893,-0.460776716470718,0.6654012799263,-1.10123038958312,-0.473828671822132,0.681714070030222,0
2.57998657226563,-1.41454684734344,1.97194147109985,2.14271235466003,-1.61812503288753,2.26958238396605,2.14455356752391,1961.946,2550.288,2499.184,1996.762,-0.06136722,0.03274449,0.103033,-1.09454274177551,-0.45886442065239,0.68200159072876,-1.1002439936861,-0.473404253224357,0.681103443981416,0
2.59999084472656,-1.43640768527985,1.96283459663391,2.15598940849304,-1.64012239440973,2.26011753383818,2.15817098218581,2139.952,3569.005,3203.97,0,-0.06572308,0.03224224,0.1058162,-1.09304904937744,-0.455342471599579,0.663856148719788,-1.09897546783438,-0.47285844198887,0.680318166050934,0
2.6199951171875,-1.45833134651184,1.95377230644226,2.16959667205811,-1.66209156852628,2.2506648119635,2.17177094750084,1954.974,2542.734,2479.478,2011.02,-0.05862576,0.03258416,0.1008247,-1.09618532657623,-0.453122735023499,0.680365681648254,-1.09742594550583,-0.472191725819537,0.679358937915576,0
2.63999938964844,-1.48021340370178,1.94478476047516,2.18283414840698,-1.68402693989188,2.24122663446822,2.18534998730279,2121.496,3587.169,3182.522,0,-0.06313396,0.03210669,0.1035346,-1.09410583972931,-0.449372678995132,0.661868631839752,-1.09559602313537,-0.471404361345641,0.67822612879697,0
2.65998840332031,-1.5021436214447,1.93584704399109,2.19638538360596,-1.70590622088595,2.23181259109281,2.19889430449282,1944.496,2530.789,2477.001,2013.367,-0.05622998,0.03244622,0.0984545,-1.09650921821594,-0.446885585784912,0.677558481693268,-1.09348812118877,-0.470497390025984,0.676921237078733,0
2.67999267578125,-1.52402067184448,1.9269882440567,2.20955610275269,-1.72775723139253,2.2224107117184,2.21242112090437,2121.921,3560.515,3187.465,0,-0.06082181,0.03191813,0.1009345,-1.09384500980377,-0.442937880754471,0.658530592918396,-1.09109983431736,-0.469469776906228,0.675442773735451,0
2.69999694824219,-1.54593229293823,1.9181832075119,2.22303938865662,-1.74955768413056,2.21303058593937,2.22591663964878,1932.301,2534.139,2470.409,2008.072,-0.05395085,0.03217824,0.09573915,-1.09558260440826,-0.440257489681244,0.674167573451996,-1.08843358680109,-0.468322565086308,0.673792239511893,0
2.71998596191406,-1.56777906417847,1.90945947170258,2.23613905906677,-1.77128546553625,2.20368172860443,2.23936717137667,2105.336,3570.953,3171.376,0,-0.05860499,0.03159178,0.09823921,-1.09234356880188,-0.436187028884888,0.654988646507263,-1.08549275912543,-0.467057209094684,0.671971727089609,0
2.739990234375,-1.58964622020721,1.90079236030579,2.2495379447937,-1.79296822271738,2.1943522439355,2.25278983096475,1913.402,2527.744,2467.548,2012.937,-0.05176546,0.03178625,0.09310738,-1.09335958957672,-0.4333555996418,0.669949352741241,-1.08227399942825,-0.465672266718727,0.669979161506271,0
2.75999450683594,-1.6114376783371,1.89220893383026,2.2625458240509,-1.81458384274179,2.18505164650952,2.26617092945464,2115.934,3540.301,3169.532,0,-0.05637699,0.03106887,0.0954584,-1.08956956863403,-0.429163455963135,0.650397956371307,-1.07878069424208,-0.464169195088763,0.667816639186824,0
2.77999877929688,-1.63323664665222,1.88368487358093,2.27585458755493,-1.83612684690458,2.17578229366013,2.27950707526701,1896.89,2537.775,2448.648,2017.109,-0.0494597,0.03113091,0.09029716,-1.08995115756989,-0.426206350326538,0.665443181991577,-1.07501419914593,-0.462548577472581,0.665484999299265,0
2.79998779296875,-1.65494823455811,1.87524664402008,2.28876233100891,-1.85757544288233,2.1665535620153,2.29278477791556,2098.218,3548.108,3156.23,0,-0.05409679,0.03030691,0.09274678,-1.08558571338654,-0.421913802623749,0.645391345024109,-1.07097916161324,-0.460812413548163,0.662987118851036,0
2.81999206542969,-1.67665529251099,1.86686980724335,2.30196952819824,-1.87895695992541,2.1573536925621,2.30602095550813,1872.495,2531.071,2424.635,2050.272,-0.04696804,0.0302977,0.0876003,-1.08534955978394,-0.418838709592819,0.660363435745239,-1.06667099276523,-0.458958728849171,0.660320157107579,0
2.83999633789063,-1.69826412200928,1.85858130455017,2.31476521492004,-1.90024960698239,2.14819206138118,2.31920211834584,2093.635,3546.478,3139.524,0,-0.0515588,0.02939817,0.09007723,-1.08044362068176,-0.414424061775208,0.639787197113037,-1.06209435025759,-0.456989527434725,0.657486997379635,0
2.8599853515625,-1.71985650062561,1.85035741329193,2.32786154747009,-1.92143189875059,2.13907791299805,2.33231496600284,1857.93,2527.051,2392.51,2079.659,-0.04426174,0.02933137,0.08485873,-1.0796183347702,-0.41119572520256,0.654819488525391,-1.05725481901126,-0.454907212340279,0.654491096999312,0
2.87998962402344,-1.74133968353271,1.8422247171402,2.34053063392639,-1.94253086194772,2.12999961857111,2.34537622930486,2077.593,3552.346,3126.383,0,-0.04889084,0.02839812,0.08737262,-1.07415747642517,-0.406633824110031,0.633450567722321,-1.05214690704168,-0.452709420518306,0.651329056166547,0
2.89999389648438,-1.76279485225677,1.83416032791138,2.3535041809082,-1.96352501326936,2.1209664217661,2.35837260906308,1842.562,2515.655,2359.371,2118.847,-0.04138659,0.02831842,0.08200561,-1.07276439666748,-0.403232872486115,0.648675680160522,-1.04677621342161,-0.450398561093403,0.648004340974112,0
2.91999816894531,-1.78413033485413,1.82618975639343,2.36604022979736,-1.98440911693069,2.11198057539494,2.37130086407726,2061.522,3571.176,3100.624,0,-0.04609293,0.02740963,0.08454684,-1.06677532196045,-0.398519396781921,0.62679922580719,-1.04114485287423,-0.447975543971863,0.644518260536375,0
2.93998718261719,-1.80542540550232,1.81829142570496,2.37887144088745,-2.00516218376194,2.10305111051103,2.38414800105147,1829.837,2500.483,2341.035,2142.908,-0.03859506,0.02735239,0.07907162,-1.06474757194519,-0.394922256469727,0.641561508178711,-1.03525963910674,-0.445443300901551,0.640875032862689,0
2.95999145507813,-1.82659029960632,1.81049025058746,2.39125323295593,-2.02581075424974,2.0941666074844,2.39693044981124,2058.75,3557.243,3095.281,0,-0.04337224,0.0264434,0.08144472,-1.05824208259583,-0.390051782131195,0.619086980819702,-1.02911391720548,-0.442798968459032,0.637070538244476,0
2.97999572753906,-1.84770202636719,1.80276465415955,2.40392971038818,-2.04633384260397,2.08533609591429,2.40963521915279,1819.257,2498.013,2326.193,2150.023,-0.03588822,0.02636025,0.07581339,-1.05559527873993,-0.386278361082077,0.633828163146973,-1.02271452148052,-0.440045487257004,0.633109007445237,0
2.99998474121094,-1.86867356300354,1.79513883590698,2.4161524772644,-2.0667108956286,2.07656841926675,2.42224958566868,2044.37,3567.349,3077.226,0,-0.04078471,0.02544637,0.07815459,-1.04858040809631,-0.381293326616287,0.611133992671967,-1.01606916835995,-0.437186177458897,0.628995217301535,0
3.01998901367188,-1.8895788192749,1.78759133815765,2.4286572933197,-2.0869680292999,2.06785234056679,2.43478971639231,1801.475,2491.015,2323.156,2154.893,-0.03340829,0.02534221,0.07252976,-1.04525983333588,-0.377381384372711,0.625244557857513,-1.00917036754089,-0.434217816196637,0.624724530959079,0
3.03999328613281,-1.91033399105072,1.78014516830444,2.44070243835449,-2.10708469520508,2.05919670122237,2.4472428908773,2051.968,3539.7,3075.535,0,-0.03834153,0.02435245,0.07469527,-1.037761926651,-0.372304856777191,0.602251946926117,-1.00202586176059,-0.431143734953757,0.620301741541063,0
3.05999755859375,-1.93101024627686,1.7727792263031,2.45302963256836,-2.12705600675913,2.05060360379452,2.45960608409476,1785.581,2500.19,2311.651,2151.796,-0.03100612,0.02415029,0.06905067,-1.03381931781769,-0.368295967578888,0.616355001926422,-0.994638524886308,-0.427965170275055,0.615728628108227,0
3.07998657226563,-1.95152711868286,1.76551580429077,2.46488976478577,-2.14686207530873,2.04208160581513,2.47186698402085,2037.63,3539.54,3067.23,0,-0.03600274,0.02307648,0.07126912,-1.02583038806915,-0.363164573907852,0.593001663684845,-0.987017247723776,-0.424685947625853,0.611010694492843,0
3.09999084472656,-1.97195291519165,1.75833415985107,2.47703075408936,-2.16652837486666,2.03361974652815,2.48404136028297,1761.052,2497.34,2295.115,2173.792,-0.02853737,0.02280473,0.06568035,-1.02129781246185,-0.35908967256546,0.607048988342285,-0.979153483542501,-0.421302389586788,0.606142649861596,0
3.1199951171875,-1.99221014976501,1.751256108284,2.48869729042053,-2.18603502400946,2.02522658035469,2.49611690533293,2034.912,3532.292,3054.439,0,-0.03349085,0.02165238,0.06793086,-1.01285839080811,-0.353897482156754,0.583327233791351,-0.971056158224178,-0.417818336715394,0.601130019760458,0
3.13999938964844,-2.0123655796051,1.74426174163818,2.50064706802368,-2.20537738341953,2.01690410346351,2.50809074721212,1744.768,2496.754,2267.152,2197.176,-0.02587368,0.02131028,0.06233884,-1.00777840614319,-0.349731951951981,0.597493708133698,-0.962728579444533,-0.414235212212131,0.595974851798267,0
3.15998840332031,-2.03234338760376,1.73737263679504,2.51211023330688,-2.22453632143911,2.00866054767245,2.51995104251302,2025.275,3532.639,3040.471,0,-0.03085538,0.02010269,0.06463695,-0.998895049095154,-0.3444564640522,0.573158383369446,-0.954180774018563,-0.410557330335374,0.590683353051152,0
3.17999267578125,-2.05220937728882,1.73056888580322,2.52385854721069,-2.24353658854737,2.00048526354177,2.53171311296128,1723.567,2489.268,2239.948,2231.969,-0.02304167,0.01972857,0.0589859,-0.99328887462616,-0.340175539255142,0.587413787841797,-0.945403214201559,-0.406780591562751,0.585249625391267,0
3.19999694824219,-2.07188892364502,1.72387313842773,2.53511142730713,-2.2623590635174,1.99238647840124,2.54336512160655,2017.372,3538.08,3020.213,0,-0.02803616,0.0185058,0.06129311,-0.983990132808685,-0.334795624017715,0.562647044658661,-0.936405971974636,-0.402909329586355,0.579679903854719,0
3.21998596191406,-2.09144616127014,1.71726560592651,2.5466480255127,-2.280985241111,1.98437215453788,2.55489561282487,1711.67,2483.22,2213.338,2255.061,-0.02018357,0.01811501,0.05556744,-0.977849006652832,-0.330370157957077,0.576829314231873,-0.927199897745278,-0.398948213033402,0.573980905360615,0
3.239990234375,-2.11080861091614,1.71076798439026,2.55767560005188,-2.2994392795179,1.97643189735754,2.5663195416865,2007.734,3533.561,3011.614,0,-0.02528139,0.01688555,0.05782588,-0.968134522438049,-0.324881196022034,0.551382780075073,-0.917774783907129,-0.394892849856044,0.568146310914365,0
3.25999450683594,-2.13003826141357,1.7043616771698,2.56898975372314,-2.31770268688992,1.96857366338589,2.57762546085652,1696.331,2476.884,2190.52,2279.132,-0.01736221,0.01648369,0.05197982,-0.961472570896149,-0.320323526859283,0.565708696842194,-0.90814153446928,-0.390747931744771,0.562182870617026,0
3.27999877929688,-2.14906525611877,1.69806683063507,2.57978868484497,-2.33577134012187,1.96079922667992,2.58881081793642,1993.608,3545.018,2991.968,0,-0.02256976,0.01527599,0.05425058,-0.95136159658432,-0.314743846654892,0.539942145347595,-0.898304216251578,-0.386515208538549,0.556093102023818,0
3.29998779296875,-2.1679482460022,1.69186556339264,2.59086632728577,-2.35362764460945,1.95311615770631,2.59986472102797,1681.311,2467.975,2178.154,2293.586,-0.01471769,0.01488421,0.04838259,-0.944151818752289,-0.310068935155869,0.55388480424881,-0.888274735793772,-0.382199803288803,0.549884375850026,0
3.31999206542969,-2.18662166595459,1.68577718734741,2.60141944885254,-2.37129490830989,1.94551442770222,2.61080159886703,1993.706,3525.145,2990.152,0,-0.01999235,0.01366088,0.05052848,-0.933665871620178,-0.304417043924332,0.527654707431793,-0.878042061913513,-0.37779696958594,0.54354986326829,0
3.33999633789063,-2.20514059066772,1.67978405952454,2.61225366592407,-2.38875555478454,1.93800159931817,2.62161057080077,1666.88,2469.852,2164.059,2300.097,-0.0121307,0.01322848,0.0445977,-0.925935626029968,-0.299652308225632,0.541716635227203,-0.867618167158097,-0.373311858882592,0.53709697585572,0
3.3599853515625,-2.22344207763672,1.67390513420105,2.6225597858429,-2.40599272667425,1.93058492580486,2.63228120132087,1982.503,3530.516,2974.185,0,-0.01748685,0.01198478,0.04676839,-0.915083885192871,-0.293952465057373,0.515308618545532,-0.857015715678588,-0.368749920209162,0.530533553325099,0
3.37998962402344,-2.24157857894897,1.6681227684021,2.63314080238342,-2.42302905329872,1.92325467039821,2.6428274990542,1647.146,2466.287,2153.34,2312.388,-0.009649698,0.01152687,0.04089309,-0.906829237937927,-0.289119958877563,0.529046535491943,-0.846223126656603,-0.364106170663035,0.523852426598178,0
3.39999389648438,-2.25949144363403,1.6624550819397,2.64318680763245,-2.43984769972619,1.91601807669906,2.65323904237604,1988.621,3508.11,2969.101,0,-0.01503674,0.01022293,0.04297254,-0.895643889904022,-0.283382415771484,0.502302944660187,-0.835253140422974,-0.35938609205264,0.51706148254665,0
3.41999816894531,-2.27722954750061,1.65688538551331,2.65351057052612,-2.45644516534361,1.90887665092339,2.66351366424015,1630.079,2472.829,2135.046,2321.126,-0.007178284,0.009693922,0.03709484,-0.886902987957001,-0.27849292755127,0.516188323497772,-0.824110582941664,-0.354591760855451,0.510163708672097,0
3.43998718261719,-2.29473733901978,1.65143060684204,2.66329193115234,-2.47280564474684,1.90183719369507,2.67364158034846,1977.427,3508.566,2958.004,0,-0.01263936,0.008340211,0.03923477,-0.875390827655792,-0.272728860378265,0.489063203334808,-0.812809078412023,-0.349729039183832,0.50316753900293,0
3.45999145507813,-2.31206130981445,1.6460747718811,2.67335176467896,-2.48895081463434,1.8948903781363,2.68363620960993,1608.115,2469.693,2115.09,2345.832,-0.004683968,0.007771235,0.03339646,-0.866192162036896,-0.267792344093323,0.502989232540131,-0.80133641229185,-0.344792671461508,0.496065412155666,0
3.47999572753906,-2.32914900779724,1.64083504676819,2.68286156654358,-2.50486489870395,1.88804299234919,2.69348778574196,1975.159,3502.048,2945.413,0,-0.01016582,0.00638077,0.03555572,-0.854390978813171,-0.261994987726212,0.47549170255661,-0.789706299681989,-0.339788558913217,0.488865818431069,0
3.49998474121094,-2.34604406356812,1.63569533824921,2.69265246391296,-2.52053292953407,1.8813014763971,2.70318704319762,1593.045,2468.566,2090.652,2366.746,-0.002141182,0.005774749,0.02971062,-0.844763457775116,-0.256993740797043,0.48954364657402,-0.777933044257461,-0.334722856010721,0.481577612485354,0
3.51998901367188,-2.36269807815552,1.63067185878754,2.7018826007843,-2.53597583877076,1.87465682397749,2.71274693966292,1966.651,3499.09,2935.534,0,-0.007691742,0.004366937,0.03189437,-0.832690179347992,-0.251156568527222,0.461510002613068,-0.766004036374581,-0.329590137176618,0.474192988348404,0
3.53999328613281,-2.37915110588074,1.62575030326843,2.71139812469482,-2.55117869390181,1.86811546013321,2.72215823120146,1577.327,2463.743,2066.223,2392.73,0.0004259285,0.003743366,0.02600517,-0.822656273841858,-0.246086612343788,0.47577092051506,-0.753933682518821,-0.324396601119134,0.466720864320997,0
3.55999755859375,-2.39535784721375,1.62094616889954,2.72034597396851,-2.56613872308604,1.86167857751006,2.73141920191151,1958.603,3503.838,2918.105,0,-0.005213404,0.002346942,0.02821427,-0.81033331155777,-0.240206077694893,0.447392344474792,-0.741727567798258,-0.319144650954242,0.459164697851087,0
3.57998657226563,-2.41135573387146,1.61624479293823,2.72957611083984,-2.58084213759183,1.85535210901407,2.74052131591136,1562.176,2457.909,2048.976,2411.5,0.002882151,0.001730936,0.02231243,-0.799895405769348,-0.235067114233971,0.461510419845581,-0.72940084364523,-0.31384080592,0.451533868397061,0
3.59999084472656,-2.4271023273468,1.61166167259216,2.73823022842407,-2.59530884290342,1.84912748987145,2.74947689564398,1957.292,3490.853,2912.57,0,-0.002845854,0.0003378847,0.02445065,-0.787344694137573,-0.229157075285912,0.432705193758011,-0.716940488958392,-0.308479463400265,0.4438203152769,0
3.6199951171875,-2.44263291358948,1.60718214511871,2.74716925621033,-2.60952509409627,1.84301063413925,2.75827743234631,1548.573,2458.679,2033.356,2421.91,0.005230727,-0.000294013,0.01851154,-0.77651435136795,-0.223968461155891,0.446957170963287,-0.704361775018033,-0.303067194200314,0.436033492140578,0
3.63998413085938,-2.45790767669678,1.60282146930695,2.75552821159363,-2.623478029369,1.83700707589127,2.76691496395061,1949.621,3491.985,2899.687,0,-0.0006125271,-0.001683118,0.02066223,-0.763745307922363,-0.21804766356945,0.417944312095642,-0.691680442442073,-0.297610771068296,0.428183143180413,0
3.65998840332031,-2.4729585647583,1.59856462478638,2.76416873931885,-2.63718676607487,1.8311085894645,2.77540132500924,1530.581,2456.942,2022.782,2433.504,0.007405568,-0.002318548,0.01477331,-0.752533495426178,-0.212836876511574,0.432026505470276,-0.678883253871145,-0.292104498338286,0.420261073840379,0
3.67999267578125,-2.48775005340576,1.59442615509033,2.7722327709198,-2.65063849381582,1.82532068681534,2.78372858527554,1934.153,3488.821,2875.973,24.18807,0.001644057,-0.003658118,0.01691465,-0.739583611488342,-0.206924766302109,0.403205037117004,-0.665986083416798,-0.286555206197011,0.41227711095171,0
3.69999694824219,-2.50231027603149,1.59039270877838,2.78056812286377,-2.66383127580226,1.81964420129024,2.79189554578451,1527.171,2458.92,2015.885,2422.544,0.009494944,-0.004281298,0.01111657,-0.728008985519409,-0.201685681939125,0.416765123605728,-0.65299527533123,-0.280965624398954,0.404235181908735,0
3.71998596191406,-2.51660847663879,1.58647692203522,2.78833842277527,-2.67675353880252,1.81408411252746,2.79989504215442,1910.568,3479.926,2841.103,74.7689,0.00395318,-0.005523396,0.01316287,-0.714909911155701,-0.195785701274872,0.38851210474968,-0.639927289491732,-0.275342835169479,0.396145476159594,0
3.739990234375,-2.53066825866699,1.58266651630402,2.79635810852051,-2.68942333385363,1.80863265367006,2.80773824883709,1530.57,2465.638,2021.447,2386.761,0.0114919,-0.006105563,0.007490471,-0.702981293201447,-0.190509393811226,0.400982022285461,-0.62676873176137,-0.26968107538565,0.387999702095468,0
3.75999450683594,-2.54446315765381,1.57897424697876,2.8038341999054,-2.70182915057228,1.80329477731443,2.81541804035694,1890.475,3457.65,2798.951,144.5427,0.006278724,-0.00722995,0.009287111,-0.689750552177429,-0.184624776244164,0.373806357383728,-0.613536214864365,-0.263987493038594,0.379808143784027,0
3.77999877929688,-2.55801248550415,1.57538795471191,2.8115291595459,-2.7139695770734,1.79807109095524,2.82293354268985,1542.573,2486.101,2038.117,2316.901,0.01325184,-0.007775365,0.003792994,-0.677462220191956,-0.179315313696861,0.384744346141815,-0.60023651686137,-0.258265004538452,0.371574997167698,0
3.79998779296875,-2.57129454612732,1.57191824913025,2.81870865821838,-2.72583438304408,1.79296599641037,2.83027842278479,1864.227,3424.936,2755.594,233.6317,0.008394355,-0.008779909,0.005269557,-0.664099097251892,-0.173478230834007,0.358971476554871,-0.586886736182787,-0.252520966862155,0.36331084698941,0
3.81999206542969,-2.58432364463806,1.56855440139771,2.82606911659241,-2.73744054699573,1.78797218830065,2.83746319114912,1551.892,2516.003,2068.65,2226.18,0.01467069,-0.009292302,5.731938E-05,-0.651457011699677,-0.168183386325836,0.368023544549942,-0.573473482003301,-0.246749618311662,0.355007403690404,0
3.83999633789063,-2.59708261489868,1.56530594825745,2.83295059204102,-2.74877791451009,1.78309403578861,2.84448156171422,1838.087,3382.673,2709.993,336.1948,0.01026927,-0.01018979,0.001196865,-0.63796478509903,-0.162440687417984,0.344073385000229,-0.560014026276881,-0.240958390526246,0.346675359432959,0
3.8599853515625,-2.60958290100098,1.56216180324554,2.83997201919556,-2.75983729406747,1.77833549372837,2.85132784449154,1564.567,2555.573,2103.877,2117.737,0.01576622,-0.01068673,-0.00362403,-0.624997019767761,-0.157207459211349,0.351076990365982,-0.546525890176286,-0.235154822377061,0.338325560657667,0
3.87998962402344,-2.62181067466736,1.55912947654724,2.84655356407166,-2.7706348636882,1.77368960116974,2.85801205444635,1807.24,3332.821,2664.489,452.0091,0.01191359,-0.01148994,-0.002795787,-0.611391723155975,-0.151603877544403,0.32908222079277,-0.532995796775444,-0.22933320117373,0.329949788314816,0
3.89999389648438,-2.63377380371094,1.55620050430298,2.85323452949524,-2.78116151864576,1.76916027562219,2.86452855531919,1577.489,2598.284,2139.313,2006.337,0.01669141,-0.01197783,-0.007169229,-0.598151206970215,-0.146467283368111,0.334047943353653,-0.519441457145543,-0.223501147495394,0.321559006401168,0
3.91999816894531,-2.64546298980713,1.55338001251221,2.85951709747314,-2.79141684911929,1.7647476934202,2.87087709341145,1782.426,3281.082,2615.164,568.4546,0.01343108,-0.01270701,-0.006640858,-0.584456264972687,-0.141019374132156,0.314123094081879,-0.505870408491346,-0.2176619043907,0.313157880805522,0
