t,x_s1,x_s2,x_s3,x_s_d1,x_s_d2,x_s_d3,propellers_rpms1,propellers_rpms2,propellers_rpms3,propellers_rpms4,rollRad,pitchRad,yawRad,v_s1,v_s2,v_s3,v_s_d1,v_s_d2,v_s_d3,insideCount
0,-0.0599999986588955,2.94000005722046,1.17999994754791,-0.0599999986588955,2.94000005722046,1.17999994754791,0,0,0,0,0,0,0,0,0,0,-1.06581410364015E-15,4.44089209850063E-16,4.44089209850063E-16,0
0.0200042724609375,-0.0599999986588955,2.94000005722046,1.17811644077301,-0.0600018701838461,2.93999925195556,1.18000110611101,0,0,0,0,-0.01635288,0.0001297794,-0.01587137,-1.10653664009419E-09,-7.76775763711157E-08,-0.0941759571433067,-0.000280105751305916,-0.000120521679537258,0.00017339880334547,9
0.0400009155273438,-0.0599999986588955,2.94000005722046,1.17242503166199,-0.0600148724204753,2.93999365745638,1.18000915511487,0,0,0,0,-0.03270202,0.0005238493,-0.03175127,-1.08383135799528E-09,-7.60859677484405E-08,-0.284568399190903,-0.00111101934050116,-0.00047804058392963,0.00068777389696065,9
0.0600051879882813,-0.0599058829247952,2.93990302085876,1.16596508026123,-0.0600499046557519,2.93997858406422,1.18003084173732,1868.045,3252.776,3183.965,1722.467,-0.04942134,0.0003294761,-0.01369451,0.00470573361963034,-0.0048492681235075,-0.322995036840439,-0.00247998555168399,-0.00106706850011317,0.00153522919458695,9
0.0800018310546875,-0.059820368885994,2.93960738182068,1.16000306606293,-0.0601175574246769,2.93994947496775,1.18007272202403,1925.605,2314.388,3251.986,2829.434,-0.07543138,-0.002135855,0.02094779,0.00427578017115593,-0.0147782657295465,-0.29810032248497,-0.00437268608126799,-0.00188144466206175,0.00270690098422899,9
0.0999984741210938,-0.0599374435842037,2.93904495239258,1.15498650074005,-0.0602281887669101,2.93990187339187,1.18014120809498,980.1481,1498.819,3915.03,3896.608,-0.1031943,-0.008062987,0.06330775,-0.00585371907800436,-0.0281163863837719,-0.250825673341751,-0.00677637982016689,-0.00291568692648091,0.00419490191241918,8
0.120002746582031,-0.0604638382792473,2.93818354606628,1.15081310272217,-0.0603919599823235,2.93983140721312,1.18024259027882,346.3739,980.3593,4172.923,4613.364,-0.1214306,-0.01542077,0.1040015,-0.026319831609726,-0.043068066239357,-0.208668246865273,-0.00967921398219614,-0.00416469537060396,0.00599189453988277,8
0.139999389648438,-0.0615635924041271,2.93704128265381,1.14728271961212,-0.0606185767455666,2.93973390035084,1.18038287685052,353.0375,747.1806,3975.18,4854.924,-0.1254003,-0.02116627,0.1351049,-0.054987721145153,-0.0571129806339741,-0.17652028799057,-0.0130660253322238,-0.00562194567796536,0.00808849210174802,7
0.160003662109375,-0.0633408352732658,2.93568110466003,1.14427483081818,-0.0609177895434042,2.93960515744296,1.18056810382587,820.9052,814.8773,3462.884,4692.373,-0.1184585,-0.0235237,0.1522689,-0.0888620093464851,-0.0680141001939774,-0.150393143296242,-0.0169265510445065,-0.00728302204135792,0.0104783414199936,7
0.180000305175781,-0.065846860408783,2.93417239189148,1.1418251991272,-0.0612986871007165,2.9394412678651,1.18080389755851,1348.77,1083.461,3006.573,4255.235,-0.1079811,-0.02277961,0.1557769,-0.125301122665405,-0.0754297822713852,-0.122479841113091,-0.0212451141043368,-0.00914117907931815,0.0131517376757159,7
0.200004577636719,-0.069084919989109,2.93255400657654,1.14006149768829,-0.0617706280683152,2.93923820485124,1.18109605149912,1636.377,1381.113,2918.646,3666.282,-0.09982806,-0.02030074,0.1501555,-0.16190305352211,-0.0809148550033569,-0.0881851017475128,-0.026012379510746,-0.0111924002017188,0.0161029020586274,7
0.220001220703125,-0.073010228574276,2.93082618713379,1.13903558254242,-0.0623420644491781,2.93899233174064,1.18144979784016,1641.455,1580.743,3148.105,3113.109,-0.09584077,-0.01735475,0.1421885,-0.196265384554863,-0.0863859951496124,-0.0512953288853168,-0.03121219533433,-0.0134297356845702,0.019321835755004,7
0.240005493164063,-0.0775499418377876,2.92897367477417,1.1386331319809,-0.0630219993990999,2.93869977472688,1.18187070996396,1524.032,1624.149,3417.932,2777.449,-0.0947574,-0.01467775,0.1377342,-0.226985856890678,-0.0926250293850899,-0.0201197415590286,-0.0368361158647881,-0.0158495515746756,0.0228033104678445,7
0.260002136230469,-0.0826388150453568,2.92699241638184,1.1386353969574,-0.0638182299684225,2.938357178957,1.18236361461609,1439.071,1500.898,3533.059,2744.247,-0.09439148,-0.01258876,0.1393033,-0.254443556070328,-0.0990580171346664,0.00011594220995903,-0.0428675524613532,-0.0184447102433459,0.0265370570382875,7
0.279998779296875,-0.0882446765899658,2.92490077018738,1.1388521194458,-0.0647390625194898,2.93796097043536,1.18293365383054,1400.45,1275.883,3476.798,2977.691,-0.09321223,-0.01110591,0.1456856,-0.280293703079224,-0.104584746062756,0.010833939537406,-0.0492963837173861,-0.0212108567320638,0.030516809833474,7
0.300003051757813,-0.0943704545497894,2.92273259162903,1.13920700550079,-0.0657927507678135,2.93750759781875,1.18358593705038,1350.426,1061.459,3345.3,3324.93,-0.0905315,-0.009935722,0.1533125,-0.306288540363312,-0.108407489955425,0.0177446473389864,-0.0561132031658829,-0.0241439437008635,0.0347367458022363,7
0.319999694824219,-0.101035743951797,2.92052578926086,1.13972496986389,-0.0669860785243584,2.93699414222283,1.18432466377777,1281.207,941.3379,3237.061,3590.505,-0.08597696,-0.008523713,0.15836,-0.33326467871666,-0.110342152416706,0.0258988477289677,-0.0633008373176985,-0.0272365818771378,0.0391862337367069,7
0.340003967285156,-0.108251333236694,2.91831231117249,1.14046168327332,-0.0683273092598492,2.93641704810699,1.18515494949472,1253.109,944.1323,3171.192,3649.76,-0.07944582,-0.006291452,0.158476,-0.360779702663422,-0.110679283738136,0.0368330366909504,-0.0708528993697216,-0.0304860231979345,0.0438613199015142,7
0.360000610351563,-0.116002887487411,2.91611504554749,1.14145278930664,-0.0698225328270578,2.93577369517774,1.1860805641102,1319.702,1047.274,3120.589,3498.161,-0.07154955,-0.0029625,0.1534718,-0.387577384710312,-0.109857924282551,0.0495534092187881,-0.0787518717320621,-0.0338847303337087,0.0487511600740379,8
0.3800048828125,-0.124251261353493,2.91394996643066,1.14270794391632,-0.0714797725314022,2.93506063123087,1.18710647443246,1455.211,1181.588,3091.138,3231.174,-0.06361546,0.001258809,0.1450373,-0.412419080734253,-0.108257137238979,0.0627553462982178,-0.0869921272359981,-0.0374302820709642,0.0538522707687797,8
0.400001525878906,-0.132943034172058,2.91182661056519,1.1442174911499,-0.0733044112230977,2.93427554017634,1.18823601270221,1579.647,1273.717,3104.584,2981.765,-0.05701988,0.005826453,0.1357474,-0.434589296579361,-0.10616609454155,0.0754769444465637,-0.0955558400788823,-0.0411150084648172,0.0591536169647403,8
0.419998168945313,-0.142023414373398,2.90975046157837,1.14595806598663,-0.0753034649285836,2.93341540321397,1.18947352217404,1631.293,1288.549,3159.135,2844.688,-0.05244084,0.01017565,0.1278578,-0.454018801450729,-0.103803172707558,0.087030366063118,-0.104434660908044,-0.0449353170220673,0.0646500300148815,8
0.44000244140625,-0.151445835828781,2.90772461891174,1.14789593219757,-0.077483988232608,2.93247718495301,1.19082336997196,1606.607,1237.917,3219.611,2843.187,-0.04965623,0.01397438,0.1224649,-0.471121340990067,-0.101291798055172,0.0968940928578377,-0.113620829717891,-0.048887868829098,0.0703367061060819,8
0.459999084472656,-0.161176532506943,2.90575194358826,1.14999711513519,-0.0798502821969742,2.93145903476675,1.19228821865812,1541.872,1158.365,3252.203,2938.285,-0.0478847,0.01718603,0.1193422,-0.486534774303436,-0.0986394882202148,0.105057187378407,-0.123096124252221,-0.0529648233581361,0.0762023647937057,8
0.480003356933594,-0.171193391084671,2.90383648872375,1.15223932266235,-0.0824098964715798,2.93035770425173,1.19387274182544,1474.354,1086.159,3248.398,3066.875,-0.0462884,0.01998723,0.1173776,-0.50084263086319,-0.0957776084542274,0.112108238041401,-0.132856662250146,-0.057164510180779,0.0822446027733248,8
0.5,-0.181480824947357,2.90198373794556,1.15461599826813,-0.085166398670376,2.92917165836334,1.1955791479969,1431.645,1046.353,3216.328,3169.778,-0.0443363,0.02264374,0.1152222,-0.514372587203979,-0.0926389768719673,0.11883357167244,-0.142884000065179,-0.0614789935111996,0.0884520025491718,8
0.520004272460938,-0.192024052143097,2.90019917488098,1.15713512897491,-0.088127196023106,2.92789770997757,1.19741202260058,1423.352,1045.011,3177.846,3210.24,-0.04192135,0.02537874,0.1118851,-0.527161598205566,-0.0892279744148254,0.125958651304245,-0.153174893518032,-0.065906877469682,0.0948225558197254,9
0.540000915527344,-0.202804327011108,2.89848637580872,1.15981018543243,-0.0912951145137283,2.92653464315245,1.19937311505516,1445.845,1073.484,3148.522,3184.516,-0.03929441,0.02828942,0.1070484,-0.539014160633087,-0.0856401473283768,0.133755564689636,-0.163710711144578,-0.0704401454577151,0.101344728821151,9
0.560005187988281,-0.213797628879547,2.89684581756592,1.16265332698822,-0.0946774438086223,2.9250793213482,1.20146693801139,1484.284,1113.867,3138.847,3113.928,-0.03688744,0.03132812,0.1010583,-0.549665153026581,-0.0820331275463104,0.142154827713966,-0.174488813605259,-0.0750776618412222,0.108016887676534,9
0.580001831054688,-0.224975913763046,2.89527416229248,1.16566824913025,-0.0982762614093182,2.92353085067394,1.20369477754168,1521.109,1148.778,3145.557,3035.146,-0.03513082,0.03434521,0.09465662,-0.558914005756378,-0.0785778537392616,0.150749042630196,-0.185490414529404,-0.0798113433697334,0.11482740272751,9
0.599998474121094,-0.236310601234436,2.8937656879425,1.16885185241699,-0.102097262171133,2.92188678079254,1.20606015903275,1540.41,1166.96,3163.652,2979.094,-0.03429459,0.03716027,0.08861974,-0.566735208034515,-0.0754207372665405,0.159182190895081,-0.196709126405959,-0.0846384416756885,0.121772319800455,9
0.620002746582031,-0.247775971889496,2.8923122882843,1.17219495773315,-0.106146271928021,2.92014460501038,1.20856668895334,1534.192,1167.128,3182.41,2964.546,-0.03442029,0.03963064,0.08346301,-0.573267936706543,-0.0726676061749458,0.167156651616096,-0.208139001499973,-0.0895563976148993,0.128847956964108,9
0.639999389648438,-0.259351223707199,2.89090466499329,1.17568719387054,-0.110424235525481,2.91830391678686,1.21121495220784,1507.484,1156.536,3194.127,2986.711,-0.03534228,0.04169862,0.07929663,-0.578763782978058,-0.0703817829489708,0.174610570073128,-0.219761081350814,-0.0945570538913933,0.136042578028218,9
0.660003662109375,-0.271021038293839,2.88953280448914,1.17932081222534,-0.114938248900541,2.91636166293851,1.21400934151928,1467.021,1144.375,3197.815,3030.893,-0.03677932,0.04338558,0.07590421,-0.583491444587708,-0.0685966685414314,0.181679204106331,-0.231574097577923,-0.0996398647564507,0.143355397804799,9
0.680000305175781,-0.282774060964584,2.88818621635437,1.18308997154236,-0.119688496929273,2.91431776391831,1.21694997133476,1429.165,1139.688,3190.364,3075.474,-0.03844753,0.0447764,0.07288268,-0.587650537490845,-0.0673254802823067,0.188456118106842,-0.243559016194652,-0.104796640417365,0.150774633349401,9
0.700004577636719,-0.294601112604141,2.88685464859009,1.18699288368225,-0.124682034788652,2.91216918408072,1.22004120914491,1404.051,1146.23,3177.833,3101.885,-0.04017112,0.04596667,0.0698568,-0.591352522373199,-0.0665758848190308,0.19514724612236,-0.255715062526221,-0.110027047553219,0.158299805101433,9
0.720001220703125,-0.306493401527405,2.88552737236023,1.19102907180786,-0.129918284978346,2.90991617190799,1.22328269744952,1393.66,1162.914,3163.167,3106.937,-0.04193467,0.04702067,0.06662884,-0.594615638256073,-0.0663617104291916,0.201810866594315,-0.268023157655716,-0.11532287703907,0.16591910230247,9
0.740005493164063,-0.318441867828369,2.88419318199158,1.19519996643066,-0.13540428105644,2.90755570105657,1.22667879035609,1392.494,1185.095,3153.839,3093.598,-0.04383244,0.04795231,0.06321879,-0.597423911094666,-0.0667117238044739,0.208543851971626,-0.280482990349159,-0.120683994959631,0.173632332283853,9
0.760002136230469,-0.330437034368515,2.8828399181366,1.19950497150421,-0.14113868194985,2.90508834855275,1.23022865767651,1392.603,1207.598,3149.305,3074.805,-0.04600451,0.04873386,0.05981239,-0.599757552146912,-0.0676636919379234,0.215250283479691,-0.293075466693575,-0.12610218573757,0.181427675003881,9
0.779998779296875,-0.342469900846481,2.88145470619202,1.20394289493561,-0.147126184485884,2.90251209348295,1.23393520697061,1387.317,1226.499,3151.23,3058.905,-0.04854517,0.04931732,0.05665238,-0.601644277572632,-0.0692579075694084,0.221894592046738,-0.305795832832518,-0.131575403921268,0.189302187598958,9
0.800003051757813,-0.354532957077026,2.88002419471741,1.20850944519043,-0.153371683173492,2.89982482987671,1.2378014681726,1372.924,1240.47,3154.429,3055.279,-0.05147624,0.04965857,0.05394107,-0.603152990341187,-0.0715230479836464,0.228326752781868,-0.318639638509124,-0.13710173468952,0.197253115148089,9
0.819999694824219,-0.366620808839798,2.87853479385376,1.21319913864136,-0.159872691993147,2.89702762739878,1.24182590231796,1353.794,1250.922,3155.602,3061.51,-0.05474234,0.04973943,0.05175941,-0.604394495487213,-0.0744705125689507,0.234484016895294,-0.331587821991737,-0.142672976311719,0.205268657531342,9
0.840003967285156,-0.378730714321136,2.87697291374207,1.21800744533539,-0.166636266402775,2.89411745028271,1.24601287707125,1327.024,1259.65,3155.877,3077.695,-0.05825026,0.04956018,0.05010072,-0.605493664741516,-0.0780994668602943,0.24041685461998,-0.344641102544584,-0.148289438267168,0.213349260007538,8
0.860000610351563,-0.390861868858337,2.87532496452332,1.22292900085449,-0.173659158941841,2.89109569582005,1.2503603820997,1300.178,1269.147,3151.433,3097.704,-0.06187695,0.04915133,0.04886194,-0.606557726860046,-0.0823924764990807,0.246080815792084,-0.357780475378537,-0.153942943326036,0.221483157706883,8
0.8800048828125,-0.403015315532684,2.87357831001282,1.22796082496643,-0.180948461186242,2.88795931270381,1.25487280742661,1277.082,1280.933,3146.101,3113.165,-0.06551643,0.04855388,0.04791848,-0.607673585414886,-0.0873271152377129,0.2515909075737,-0.371007022483504,-0.159633957038354,0.229671020432672,8
0.900001525878906,-0.4151930809021,2.87172079086304,1.23309934139252,-0.188500167066783,2.88471002463366,1.2595476731043,1259.41,1295.207,3138.276,3124.028,-0.06911915,0.04780582,0.04717986,-0.608886957168579,-0.0928714126348495,0.256925731897354,-0.384301823631742,-0.165354338558695,0.237901135662636,8
0.919998168945313,-0.427397668361664,2.8697407245636,1.23834311962128,-0.196318384305134,2.8813460641717,1.26438752200817,1246.637,1310.874,3132.836,3127.488,-0.07266755,0.04693348,0.04661082,-0.610230505466461,-0.0989985316991806,0.262190282344818,-0.397661187980262,-0.171102499820431,0.246171218589148,8
0.94000244140625,-0.439632058143616,2.86762714385986,1.2436900138855,-0.204407453948074,2.87786556348678,1.26939504145298,1235.628,1326.498,3128.407,3129.168,-0.07617813,0.04594743,0.04623776,-0.611719310283661,-0.105677485466003,0.267347127199173,-0.411081631631503,-0.176876941799768,0.254479112513653,8
0.959999084472656,-0.451899588108063,2.86536955833435,1.24913787841797,-0.212762239776093,2.87427073255068,1.27456705187416,1228.528,1341.033,3125.049,3128.006,-0.07966687,0.04485382,0.04610096,-0.613377332687378,-0.11287747323513,0.272393703460693,-0.424544411524882,-0.18266959988136,0.262813214588797,8
0.980003356933594,-0.464204400777817,2.86295819282532,1.25468564033508,-0.221389982382338,2.87055845593844,1.2799080355438,1216.883,1353.441,3125.365,3130.617,-0.08314868,0.0436449,0.04627168,-0.615240097045898,-0.120571352541447,0.277387768030167,-0.438051398499298,-0.18848127903492,0.271174682952979,8
1,-0.476551324129105,2.86038374900818,1.2603303194046,-0.230284798736574,2.86673126495361,1.28541435058594,1204.432,1363.655,3124.604,3137.59,-0.08659747,0.04232577,0.04677541,-0.617346465587616,-0.128720417618752,0.282232373952866,-0.451584000205995,-0.194303979492187,0.279552008056641,8
1.02000427246094,-0.488946318626404,2.85763788223267,1.26607036590576,-0.239454009753966,2.86278600961093,1.2910905289958,1191.868,1372.286,3125.13,3145.617,-0.08996584,0.0409071,0.04760373,-0.61974960565567,-0.137287929654121,0.287000298500061,-0.465144357597929,-0.200138622445408,0.287946515251652,8
1.04000091552734,-0.501396059989929,2.85471343994141,1.2719030380249,-0.24889099213045,2.8587255397331,1.29693247063265,1180.135,1380.163,3123.16,3156.597,-0.09321543,0.0394076,0.04872305,-0.622487843036652,-0.146223515272141,0.291635900735855,-0.478714054341683,-0.205977283860805,0.296346803950333,8
1.06000518798828,-0.513908088207245,2.85160374641418,1.27782785892487,-0.258603157406353,2.85454666634136,1.30294476359303,1169.838,1387.514,3122.451,3166.319,-0.0963031,0.03784974,0.05008189,-0.625601887702942,-0.155483350157738,0.296242326498032,-0.492295476531527,-0.211820990408084,0.304754351258706,8
1.08000183105469,-0.526490330696106,2.84830355644226,1.28384351730347,-0.268583149539609,2.85025255453512,1.30912285413647,1162.154,1394.85,3120.162,3175.8,-0.09920541,0.03625803,0.05163018,-0.62910920381546,-0.16501422226429,0.300785958766937,-0.50587040849135,-0.217661904390701,0.313157880805523,8
1.09999847412109,-0.539150774478912,2.84480810165405,1.28995084762573,-0.278834517009062,2.84584167750307,1.31546893894041,1156.606,1401.759,3120.219,3182.265,-0.1019043,0.03465356,0.05333041,-0.633026838302612,-0.174772679805756,0.305365711450577,-0.519436284009554,-0.223498921639497,0.321555803983559,7
1.12000274658203,-0.551897823810577,2.84111404418945,1.29614973068237,-0.289361068555186,2.84131239645058,1.32198537579665,1152.837,1408.099,3120.127,3188.416,-0.1043933,0.03305304,0.05516471,-0.637353181838989,-0.184707641601563,0.3099445104599,-0.532990631455731,-0.229330978680957,0.329946590735853,7
1.13999938964844,-0.564739644527435,2.83721876144409,1.30244040489197,-0.300154365346813,2.83666834237095,1.3286669406667,1154.586,1413.757,3119.718,3191.08,-0.1066798,0.03147281,0.05711285,-0.642089188098907,-0.194770097732544,0.314533859491348,-0.546515580872639,-0.235150386571708,0.338319178707607,7
1.16000366210938,-0.577684342861176,2.83312034606934,1.30882489681244,-0.311222084148811,2.83190621216671,1.33551838583369,1153.336,1418.033,3122.724,3195.574,-0.1087848,0.02991354,0.05919336,-0.647239089012146,-0.204921722412109,0.319227486848831,-0.560014026276883,-0.240958390526247,0.34667535943296,7
1.18000030517578,-0.590740323066711,2.82881808280945,1.31530380249023,-0.322555076427271,2.82702994219644,1.34253404791935,1153.112,1420.933,3124.798,3201.69,-0.1107049,0.02838485,0.06139852,-0.652797758579254,-0.215114608407021,0.323944240808487,-0.573468357077025,-0.246747413199059,0.355004231116904,7
1.20000457763672,-0.603915810585022,2.82431197166443,1.32187902927399,-0.334161138043845,2.82203617811866,1.3497187529334,1153.567,1422.56,3128.839,3207.034,-0.1124275,0.02689625,0.0637126,-0.65877366065979,-0.225311517715454,0.328760832548141,-0.586881630238192,-0.252518769916838,0.363307686166476,7
1.22000122070313,-0.617219030857086,2.81960272789001,1.32855129241943,-0.346030421585499,2.81692915700008,1.35706640485806,1155.607,1423.596,3130.875,3213.775,-0.1139519,0.02545875,0.06611224,-0.665159404277802,-0.235464185476303,0.333615064620972,-0.600236516861372,-0.258265004538453,0.371574997167698,7
1.23999786376953,-0.630658209323883,2.81469202041626,1.33532333374023,-0.358166167196084,2.81170748469733,1.36457900949675,1157.899,1423.741,3135.012,3219.646,-0.1152733,0.02408229,0.06857065,-0.671958684921265,-0.245538309216499,0.338603496551514,-0.613531154887641,-0.263985315871967,0.379805011417393,7
1.26000213623047,-0.644241273403168,2.80958223342896,1.34219706058502,-0.370571882958536,2.80636965178032,1.3722587385199,1160.278,1423.421,3138.419,3226.838,-0.1163903,0.02277727,0.07106142,-0.679156482219696,-0.25549241900444,0.343684196472168,-0.626763698705669,-0.269678909802388,0.38799658639423,7
1.27999877929688,-0.657976090908051,2.80427646636963,1.34917438030243,-0.383236695417198,2.80092033679326,1.3800988607405,1167.717,1423.053,3140.827,3230.535,-0.1173069,0.02155869,0.07354274,-0.68673974275589,-0.265288800001144,0.348866283893585,-0.639917282339435,-0.275338529371412,0.396139281255613,8
1.30000305175781,-0.671870052814484,2.79877829551697,1.35625922679901,-0.396168722856641,2.79535604666509,1.38810440176341,1172.207,1421.943,3146.476,3235.088,-0.1180446,0.02042617,0.07601399,-0.694695830345154,-0.274903178215027,0.354243725538254,-0.652995275331231,-0.280965624398954,0.404235181908735,8
1.31999969482422,-0.685929894447327,2.79309225082397,1.36345374584198,-0.409356423791328,2.7896817473746,1.39626821685929,1178.478,1420.376,3150.679,3239.698,-0.1186065,0.01938745,0.07845747,-0.702994823455811,-0.284301280975342,0.359724372625351,-0.665981146317813,-0.286553081901244,0.412274054652251,8
1.34000396728516,-0.700162410736084,2.78722310066223,1.37076127529144,-0.422808053134535,2.78389388706324,1.40459541621271,1185.753,1418.07,3156.756,3242.398,-0.1189954,0.01844595,0.08086178,-0.711622536182404,-0.293461471796036,0.365377217531204,-0.678878353700697,-0.292102389931837,0.420258040401443,8
1.36000061035156,-0.714573323726654,2.78117609024048,1.37818396091461,-0.436511415158101,2.77799771321212,1.41307845008695,1194.297,1415.622,3160.788,3246.007,-0.1192324,0.01760336,0.08321859,-0.720548331737518,-0.302353054285049,0.3711316883564,-0.691670720740693,-0.297606588091785,0.42817712498415,8
1.3800048828125,-0.729168593883514,2.77495694160461,1.38572549819946,-0.450474904562636,2.77198961381608,1.4217225152016,1201.85,1412.298,3167.272,3249.119,-0.1193293,0.0168582,0.08552173,-0.729759454727173,-0.310961604118347,0.377074539661407,-0.704361775018035,-0.303067194200314,0.436033492140578,8
1.40000152587891,-0.743953049182892,2.76857161521912,1.39338803291321,-0.464685685951852,2.76587511158757,1.43051966583492,1209.733,1408.895,3171.993,3253.453,-0.1193006,0.01621153,0.08775874,-0.739224433898926,-0.319264262914658,0.383129268884659,-0.716935713767318,-0.308477408768949,0.443817359206152,8
1.41999816894531,-0.758931577205658,2.76202654838562,1.40117537975311,-0.47914673136562,2.75965292774086,1.43947174182117,1217.144,1404.864,3178.947,3256.524,-0.1191456,0.01566339,0.08991688,-0.748928189277649,-0.327252596616745,0.389368653297424,-0.729391385793766,-0.313836736470737,0.451528013536465,8
1.44000244140625,-0.774108231067657,2.75532841682434,1.40908980369568,-0.493861275572861,2.75332167044526,1.4485807456364,1224.385,1400.803,3184.57,3260.669,-0.1188697,0.01521487,0.09198544,-0.758836448192596,-0.334909677505493,0.395721852779388,-0.741727567798258,-0.319144650954242,0.459164697851088,8
1.45999908447266,-0.789486706256866,2.74848389625549,1.41713333129883,-0.508815552717244,2.74688726276417,1.45783815555978,1236.043,1397.222,3188.288,3261.748,-0.1184878,0.01487064,0.0939379,-0.768922626972198,-0.342221319675446,0.402178406715393,-0.753929052770513,-0.324394609067776,0.466717998286247,8
1.48000335693359,-0.805070102214813,2.74150013923645,1.42531001567841,-0.524018315758597,2.74034593854351,1.46724939009041,1243.428,1392.953,3195.463,3264.136,-0.118026,0.01461915,0.09578703,-0.779167711734772,-0.349189400672913,0.408833920955658,-0.765999459475408,-0.329588167864767,0.474190155029787,8
1.5,-0.820860683917999,2.73438405990601,1.43362152576447,-0.539455198877605,2.73370387899399,1.4768055561018,1251.214,1388.761,3200.677,3267.278,-0.1174891,0.01446027,0.09752449,-0.789531886577606,-0.355805546045303,0.415577203035355,-0.777924000354858,-0.334718964672088,0.481572013878822,8
1.52000427246094,-0.836860656738281,2.72714257240295,1.44207084178925,-0.555135099954955,2.72695725560613,1.48651216180595,1259.439,1384.202,3207.572,3268.287,-0.116875,0.01439183,0.09914362,-0.799996316432953,-0.362073183059692,0.422465890645981,-0.789706299681991,-0.339788558913217,0.48886581843107,8
1.54000091552734,-0.85307103395462,2.71978282928467,1.45065903663635,-0.571043070329722,2.72011250037111,1.49635995326965,1268.729,1380.153,3211.673,3269.97,-0.1162006,0.01441076,0.1006414,-0.810522675514221,-0.367985099554062,0.429410189390182,-0.801332006385301,-0.344790775723006,0.496062684689629,8
1.56000518798828,-0.869492948055267,2.71231174468994,1.45938885211945,-0.587188152687502,2.71316572247394,1.50635452834604,1276.739,1375.616,3217.925,3270.911,-0.1154773,0.01450961,0.1020191,-0.821095168590546,-0.37354901432991,0.436489701271057,-0.812804733542556,-0.349727169707881,0.503164849321754,8
1.58000183105469,-0.886126577854156,2.70473647117615,1.46826124191284,-0.60355483331529,2.70612359703193,1.51648628330776,1284.649,1371.51,3222.02,3272.973,-0.1147221,0.01468421,0.1032738,-0.831678092479706,-0.378764927387238,0.443619549274445,-0.824110582941666,-0.354591760855452,0.510163708672098,8
1.59999847412109,-0.902971684932709,2.69706344604492,1.47727859020233,-0.620145926473056,2.69898491314762,1.52675696031579,1291.244,1366.983,3228.406,3273.944,-0.1139348,0.01492873,0.1044043,-0.84225606918335,-0.383645981550217,0.450867414474487,-0.835248923368005,-0.359384277571697,0.517058871988737,8
1.62000274658203,-0.920027494430542,2.68929958343506,1.48644161224365,-0.636964489205914,2.69174835545992,1.53716845182668,1297.248,1362.743,3233.293,3275.863,-0.1131156,0.0152396,0.1054106,-0.852794289588928,-0.388196885585785,0.458151578903198,-0.846218976345106,-0.364104384899943,0.523849857357655,8
1.63999938964844,-0.937292873859406,2.68145108222961,1.49575054645538,-0.653994195024907,2.68442094880091,1.54771065096602,1307.25,1359.378,3235.673,3275.005,-0.1122783,0.0156172,0.1062762,-0.863267123699188,-0.392421960830688,0.465445399284363,-0.857007552155828,-0.368746407673381,0.530528499715628,8
1.66000366210938,-0.954766094684601,2.67352437973022,1.50520741939545,-0.671244443874359,2.67699864863716,1.55838937674714,1312.638,1355.386,3241.624,3275.346,-0.1114448,0.01604649,0.1070226,-0.873661816120148,-0.396340757608414,0.472846746444702,-0.867618167158098,-0.373311858882592,0.53709697585572,8
1.68000030517578,-0.972444951534271,2.66552519798279,1.51481211185455,-0.688698391434734,2.66948870260877,1.56919420173384,1317.807,1351.81,3245.179,3276.89,-0.1106155,0.01652433,0.1076505,-0.883942425251007,-0.399962335824966,0.480232924222946,-0.878038122530658,-0.377795274579551,0.543547424602645,8
1.70000457763672,-0.990326881408691,2.65745902061462,1.52456533908844,-0.706365577065784,2.66188700619576,1.58013103124422,1323.08,1348.018,3250.401,3276.282,-0.1097819,0.01704641,0.1081591,-0.894098043441772,-0.403304815292358,0.487661957740784,-0.888270870184447,-0.382198140025102,0.549881982853708,8
1.72000122070313,-1.00840878486633,2.64933156967163,1.5344660282135,-0.724228658537036,2.6542010212754,1.5911891296115,1329.228,1345.057,3252.364,3276.504,-0.1089558,0.01760855,0.1085504,-0.904096484184265,-0.406374901533127,0.495033651590347,-0.898304216251578,-0.386515208538549,0.556093102023817,8
1.73999786376953,-1.02668738365173,2.64114785194397,1.54451465606689,-0.742290383213093,2.64642956573347,1.60237019758524,1333.931,1341.769,3256.466,3275.89,-0.1081435,0.01820248,0.1088301,-0.913931488990784,-0.409191697835922,0.502431631088257,-0.908137821269591,-0.39074633405868,0.562180571969536,8
1.76000213623047,-1.04515898227692,2.63291239738464,1.55471038818359,-0.76055371708895,2.63857136338517,1.61367607125764,1336.827,1338.769,3259.358,3277.128,-0.1073483,0.01882239,0.109005,-0.923577189445496,-0.411768317222595,0.509784340858459,-0.917771149318994,-0.394891285994308,0.568144060931169,8
1.77999877929688,-1.06381916999817,2.62462997436523,1.56505179405212,-0.779000609654483,2.63063418086074,1.62509557650306,1343.214,1336.679,3260.168,3275.543,-0.106576,0.01946913,0.1090605,-0.933017194271088,-0.414117574691772,0.517069101333618,-0.927192788821983,-0.398945154262308,0.57397650459845,8
1.80000305175781,-1.08266425132751,2.61630463600159,1.57553923130035,-0.797640935141499,2.62261376955408,1.63663482594136,1345.037,1334.044,3264.438,3275.066,-0.1058372,0.02012951,0.1090203,-0.942245960235596,-0.416263580322266,0.524370908737183,-0.936405971974637,-0.402909329586356,0.579679903854719,7
1.81999969482422,-1.10168886184692,2.60794019699097,1.58617043495178,-0.816456197270346,2.61451808789761,1.64828236949435,1347.286,1332.01,3265.808,3275.507,-0.1051267,0.02080224,0.1088857,-0.951235294342041,-0.418218463659286,0.531559586524963,-0.945399824400851,-0.406779133026206,0.585247526943151,7
1.84000396728516,-1.12088847160339,2.59954023361206,1.59694445133209,-0.835456397410825,2.6063428325813,1.66004439848636,1349.895,1329.855,3268.693,3273.716,-0.1044348,0.0214836,0.1086589,-0.95998352766037,-0.420001626014709,0.538701295852661,-0.95417746870157,-0.410555908149813,0.59068130690248,7
1.86000061035156,-1.14025795459747,2.5911078453064,1.60785841941833,-0.854622615239374,2.59809614449182,1.6719092003358,1352.919,1328.533,3268.361,3273.269,-0.1037743,0.02216958,0.1083456,-0.968467831611633,-0.421621561050415,0.545701622962952,-0.962728579444532,-0.414235212212131,0.595974851798267,7
1.8800048828125,-1.15979182720184,2.58264589309692,1.61891150474548,-0.873964974649439,2.58977366760063,1.68388304221498,1354.182,1326.823,3270.672,3271.923,-0.1031474,0.0228528,0.1079539,-0.976692318916321,-0.423099249601364,0.55265599489212,-0.971056158224177,-0.417818336715394,0.601130019760457,7
1.90000152587891,-1.17948460578918,2.57415699958801,1.6301007270813,-0.893464153455626,2.58138371570432,1.69595396277071,1355.069,1325.805,3270.428,3272.057,-0.1025578,0.02353066,0.1074878,-0.984636664390564,-0.424445986747742,0.559463262557983,-0.979150439632688,-0.421301079877433,0.606140765536421,7
1.91999816894531,-1.19933068752289,2.56564331054688,1.64142465591431,-0.913122862707269,2.57292512231409,1.70812364027167,1355.064,1324.506,3272.516,3270.563,-0.1019953,0.02419984,0.1069512,-0.992305159568787,-0.425682097673416,0.566199004650116,-0.987011339258123,-0.424683405378145,0.611007036871143,7
1.94000244140625,-1.21932411193848,2.55710697174072,1.65288019180298,-0.932943991899774,2.5643966441608,1.72039386345315,1354.244,1323.633,3272.714,3270.601,-0.1014531,0.02485765,0.1063522,-0.99968034029007,-0.426817625761032,0.572774767875671,-0.994638524886308,-0.427965170275055,0.615728628108227,7
1.95999908447266,-1.23945927619934,2.54854989051819,1.66446363925934,-0.952907658613767,2.55580683609405,1.73275232415044,1357.822,1323.721,3270.299,3267.662,-0.1009391,0.02550731,0.1056775,-1.00675678253174,-0.427860021591187,0.579173266887665,-1.00202309041976,-0.431142542523221,0.620300025949072,7
1.98000335693359,-1.25973010063171,2.53997325897217,1.67617380619049,-0.973024270010337,2.54715122020317,1.74520546489201,1356.09,1323.159,3271.861,3266.414,-0.1004677,0.02613543,0.1049557,-1.01354217529297,-0.428829848766327,0.585507214069366,-1.00916768936771,-0.434216663853535,0.624722873042297,7
2,-1.28013050556183,2.53137850761414,1.68800675868988,-0.993273599084619,2.53843849960327,1.7577407641983,1354.066,1323.006,3270.971,3266.65,-0.1000305,0.02674226,0.1041898,-1.02001988887787,-0.429736822843552,0.591648817062378,-1.01606400046349,-0.437183953857422,0.628992018127441,6
2.02000427246094,-1.30065453052521,2.52276659011841,1.69995999336243,-1.01366615605493,2.52966415204104,1.77036472839513,1352.587,1322.655,3271.763,3264.485,-0.09960596,0.02732849,0.1033802,-1.02619862556458,-0.430595636367798,0.597663044929504,-1.02271452148052,-0.440045487257004,0.633109007445237,6
2.04000091552734,-1.32129573822021,2.51413822174072,1.71202898025513,-1.0341813929022,2.52083701875502,1.78306463727984,1352.307,1323.127,3268.995,3263.408,-0.09920008,0.02789373,0.1025299,-1.0320645570755,-0.431408166885376,0.603448152542114,-1.02911152474823,-0.442797939051516,0.637069057199471,6
2.05999755859375,-1.34204852581024,2.50549483299255,1.7242112159729,-1.05482201812353,2.5119559343546,1.79584216754118,1350.876,1323.228,3268.798,3261.139,-0.09881286,0.02843384,0.1016463,-1.03763103485107,-0.432187020778656,0.609111428260803,-1.03525504859546,-0.445441325732794,0.640872191117535,6
2.08000183105469,-1.36290633678436,2.49683618545532,1.7365026473999,-1.07559088172821,2.50301967256038,1.80869908347065,1347.145,1323.508,3267.226,3261.749,-0.09844322,0.02894643,0.1007388,-1.042888879776,-0.432937532663345,0.614574611186981,-1.04114485287423,-0.447975543971863,0.644518260536375,6
2.09999847412109,-1.3838632106781,2.48816299438477,1.74889922142029,-1.09646699912883,2.4940372624541,1.82162239460902,1348.03,1324.551,3263.824,3258.638,-0.09808689,0.02943868,0.09978855,-1.04784071445465,-0.433663815259933,0.619830548763275,-1.04677411523768,-0.450397658303471,0.648003042098304,5
2.12000274658203,-1.40491306781769,2.47947549819946,1.76139879226685,-1.11746110947495,2.48500408327971,1.83461874900143,1343.856,1325.006,3264.175,3257.199,-0.09775133,0.02990036,0.09882309,-1.05249643325806,-0.434379547834396,0.624976336956024,-1.05214490868305,-0.452708560680417,0.651327819087362,5
2.13999938964844,-1.42604994773865,2.47077369689941,1.77399635314941,-1.138551967509,2.47592927627801,1.8476749948214,1340.65,1325.836,3261.473,3256.811,-0.09742375,0.03033542,0.09784161,-1.05684375762939,-0.435085415840149,0.629875540733337,-1.05725102347782,-0.454905579228273,0.654488747383304,4
2.16000366210938,-1.44726777076721,2.4620578289032,1.78668868541718,-1.15975039167652,2.46680818657414,1.86079782920208,1338.354,1326.405,3260.615,3253.822,-0.0970882,0.03074559,0.09684418,-1.06089663505554,-0.435788333415985,0.634615123271942,-1.0620943502576,-0.456989527434725,0.657486997379635,4
2.18000030517578,-1.46856069564819,2.45332813262939,1.79947066307068,-1.18103490068612,2.45765005696766,1.87397395420079,1336.551,1327.568,3256.535,3252.667,-0.0967553,0.03113027,0.09583648,-1.06464612483978,-0.436483412981033,0.639100074768066,-1.06666929835407,-0.458957999791384,0.660319108186354,3
2.20000457763672,-1.48992311954498,2.444584608078,1.81233942508698,-1.20241638486008,2.44845020165711,1.88721011144582,1333.47,1328.215,3255.283,3250.426,-0.09642188,0.03148786,0.09482279,-1.06810927391052,-0.437177509069443,0.643441081047058,-1.07097756992209,-0.460811728687929,0.662986133518392,1
2.22000122070313,-1.51134860515594,2.43582725524902,1.82529020309448,-1.22387315175433,2.43921795429519,1.90049287228091,1330.092,1329.293,3251.612,3250.04,-0.09608898,0.03181955,0.09380465,-1.0712788105011,-0.437867730855942,0.647541701793671,-1.07501419914593,-0.462548577472581,0.665484999299265,0
2.23999786376953,-1.53283202648163,2.42705583572388,1.83832001686096,-1.24540792547886,2.42995214277345,1.91382392305993,1326.382,1329.944,3250.574,3247.642,-0.0957417,0.03212732,0.09278151,-1.07416975498199,-0.438559949398041,0.651492357254028,-1.07877930973132,-0.464168599372462,0.667815782108711,0
2.26000213623047,-1.55436754226685,2.4182710647583,1.85142409801483,-1.26702351885107,2.42065155681516,1.92720500505083,1321.946,1330.776,3247.762,3247.125,-0.09537099,0.03241242,0.09175935,-1.07677471637726,-0.439249336719513,0.655206322669983,-1.08227271937422,-0.465671715947234,0.669978369091845,0
2.27999877929688,-1.5759494304657,2.40947246551514,1.86459755897522,-1.28869796983554,2.41132564607061,1.9406225227075,1322.849,1332.21,3242.45,3243.262,-0.09497951,0.0326832,0.09071928,-1.07909739017487,-0.439928263425827,0.658671498298645,-1.08549040888332,-0.467056197851165,0.67197027217779,0
2.30000305175781,-1.59757244586945,2.40066051483154,1.87783789634705,-1.31044231452835,2.40196966201596,1.95408330789913,1318.67,1332.996,3241.337,3240.982,-0.09458429,0.03292972,0.08968817,-1.08115243911743,-0.440602391958237,0.662019968032837,-1.08843358680109,-0.468322565086307,0.673792239511894,0
2.31999969482422,-1.61923098564148,2.39183521270752,1.89114022254944,-1.33223444283894,2.39259311800549,1.96757367342642,1314.038,1333.791,3237.826,3240.956,-0.0941763,0.03315543,0.08866695,-1.08293080329895,-0.441266238689423,0.665119111537933,-1.09109887036509,-0.469469362144493,0.675442177003072,0
2.34000396728516,-1.64091992378235,2.38299679756165,1.90450131893158,-1.35408543512393,2.38319124647132,1.98110047855794,1310.796,1334.193,3236.358,3237.818,-0.09373049,0.03336532,0.08764859,-1.08444774150848,-0.441920816898346,0.668052613735199,-1.09348726343002,-0.470497020956358,0.676920706085208,0
2.36000061035156,-1.66263389587402,2.37414574623108,1.91791570186615,-1.37597305876702,2.37377361348711,1.99464996024512,1308.728,1335.106,3231.517,3236.163,-0.09325272,0.03356192,0.08663419,-1.08569502830505,-0.442553877830505,0.67071944475174,-1.09559602313537,-0.471404361345641,0.678226128796969,0
2.3800048828125,-1.68436765670776,2.36528253555298,1.93138039112091,-1.39790843013262,2.36433543599182,2.00822900004707,1306.128,1335.513,3229.236,3233.105,-0.09274245,0.03374473,0.08562512,-1.08668863773346,-0.443164557218552,0.673232793807983,-1.09742594550583,-0.472191725819537,0.679358937915576,0
2.40000152587891,-1.70611608028412,2.3564076423645,1.94489049911499,-1.4198692197338,2.35488632173988,2.02182377494768,1303.278,1336.199,3224.618,3232.08,-0.09220716,0.03391578,0.08462215,-1.08742225170135,-0.443743199110031,0.675504684448242,-1.09897493039424,-0.472858210743393,0.680317833349887,0
2.41999816894531,-1.72787427902222,2.34752178192139,1.95844316482544,-1.44185817738692,2.34542508756209,2.03543598721428,1299.739,1336.337,3222.954,3229.31,-0.09163511,0.03407642,0.08362366,-1.08791041374207,-0.444290846586227,0.677635848522186,-1.10024313330221,-0.473403883025206,0.681102911362803,0
2.44000244140625,-1.7496372461319,2.33862590789795,1.97203385829926,-1.46387808506052,2.33595053645515,2.04906735901791,1295.365,1336.518,3219.659,3228.56,-0.09101779,0.03422922,0.08263267,-1.08814597129822,-0.444798320531845,0.679537415504456,-1.10123038958312,-0.473828671822132,0.681714070030222,0
2.45999908447266,-1.77139985561371,2.32972073554993,1.98565781116486,-1.48590651627916,2.32647231790489,2.06270400730194,1296.81,1337.112,3214.151,3223.944,-0.09035413,0.03438349,0.08162694,-1.08813178539276,-0.445254504680634,0.681200325489044,-1.10193556692257,-0.474132089930926,0.682150608395601,0
2.48000335693359,-1.79315757751465,2.32080745697021,1.99931275844574,-1.50795464064698,2.31698562594271,2.07635284658344,1293.344,1337.17,3212.435,3221.106,-0.08966437,0.03453008,0.08063222,-1.08787894248962,-0.445660144090652,0.682749152183533,-1.10235893238473,-0.47431425226183,0.68241269178437,0
2.5,-1.81490504741669,2.31188726425171,2.01299405097961,-1.52999999932945,2.30750012397766,2.08999997377396,1289.735,1337.074,3208.442,3220.345,-0.08894213,0.03467231,0.07964677,-1.08737885951996,-0.446006149053574,0.684059083461761,-1.10250000050292,-0.474374949932098,0.682500019669533,0
2.52000427246094,-1.8366379737854,2.3029613494873,2.02669835090637,-1.55205376834272,2.29801100328223,2.10365230735988,1287.386,1336.553,3206.545,3216.646,-0.08816661,0.03481498,0.07866248,-1.08664441108704,-0.446290701627731,0.685217261314392,-1.10235882472314,-0.474314205938057,0.682412625136718,0
2.54000091552734,-1.85835146903992,2.29403138160706,2.04042077064514,-1.57409348237975,2.28852793005043,2.11729594024597,1286.066,1336.416,3201.552,3214.456,-0.08734582,0.03496032,0.07767896,-1.08566689491272,-0.446500450372696,0.686126947402954,-1.10193556692257,-0.474132089930926,0.682150608395601,0
2.55999755859375,-1.88004040718079,2.28509879112244,2.05415868759155,-1.59612191359838,2.27904971150017,2.13093258853001,1284.318,1335.775,3199.076,3210.813,-0.0864787,0.03510828,0.0766954,-1.08445882797241,-0.446633040904999,0.6868976354599,-1.10123038958312,-0.473828671822132,0.681714070030222,0
2.58000183105469,-1.90170085430145,2.2761652469635,2.06790781021118,-1.61814182127198,2.26957516039323,2.14456396033363,1280.932,1335.085,3195.458,3209.671,-0.08556683,0.03525904,0.07571568,-1.08301436901093,-0.446679681539536,0.687462329864502,-1.10024313330221,-0.473403883025206,0.681102911362804,0
2.59999847412109,-1.92332744598389,2.2672324180603,2.08166408538818,-1.64013077892511,2.26011392621545,2.15817617260023,1282.282,1334.628,3190.324,3205.152,-0.08460863,0.03542076,0.07471759,-1.08133578300476,-0.446631699800491,0.68781578540802,-1.09897493039424,-0.472858210743393,0.680317833349887,0
2.62000274658203,-1.94491612911224,2.25830292701721,2.09542536735535,-1.66209994121933,2.25066120942759,2.17177613059669,1279.122,1333.761,3188.716,3202.057,-0.08361687,0.03558609,0.0737219,-1.07943058013916,-0.446490406990051,0.688065350055695,-1.09742530100382,-0.472191448508328,0.679358538938131,0
2.63999938964844,-1.96646189689636,2.24937772750854,2.10918688774109,-1.68402693989188,2.24122663446822,2.18534998730279,1276.669,1332.784,3184.458,3200.551,-0.08258463,0.03575971,0.07272328,-1.07728862762451,-0.446246355772018,0.688079297542572,-1.09559602313537,-0.471404361345641,0.67822612879697,0
2.66000366210938,-1.98796033859253,2.24045991897583,2.12294602394104,-1.70592290617745,2.23180541187802,2.19890463348308,1275.87,1331.463,3182.395,3195.622,-0.08149593,0.03594478,0.0717145,-1.07492053508759,-0.445898473262787,0.687957584857941,-1.09348640563071,-0.470496651869278,0.67692017506657,0
2.68000030517578,-2.00940680503845,2.23155093193054,2.13669800758362,-1.72776555581996,2.22240712994983,2.2124262741215,1275.29,1330.452,3177.197,3193.124,-0.08036621,0.03614103,0.0706992,-1.0723158121109,-0.44543468952179,0.687598347663879,-1.09109887036509,-0.469469362144494,0.675442177003072,0
2.70000457763672,-2.03079628944397,2.22265410423279,2.15044045448303,-1.74956598821573,2.2130270129235,2.22592178027309,1274.498,1328.92,3174.859,3188.624,-0.07919282,0.03634808,0.06967536,-1.06948602199554,-0.444855153560638,0.687120914459229,-1.08843251702753,-0.468322104792631,0.6737915772711,0
2.72000122070313,-2.05212497711182,2.21377086639404,2.16416907310486,-1.77130202882336,2.20367460188472,2.23937742484041,1273.084,1327.588,3170.065,3186.7,-0.07798801,0.03656635,0.06864391,-1.06642210483551,-0.444151371717453,0.686425447463989,-1.08549040888332,-0.467056197851165,0.671970272177789,0
2.73999786376953,-2.07338762283325,2.20490455627441,2.17788147926331,-1.79297647980783,2.19434869114016,2.25279494249708,1271.652,1325.788,3168.183,3182.356,-0.07673952,0.0367972,0.06759942,-1.0631343126297,-0.4433254301548,0.68561714887619,-1.08227271937422,-0.465671715947234,0.669978369091845,0
2.76000213623047,-2.09457969665527,2.19605708122253,2.19157361984253,-1.81459207318004,2.18504810518187,2.26617602448799,1269.086,1324.059,3164.469,3180.529,-0.07544576,0.03704105,0.0665454,-1.05961322784424,-0.442370235919952,0.684602379798889,-1.07877930973132,-0.464168599372462,0.667815782108711,0
2.77999877929688,-2.11569690704346,2.18723154067993,2.20524120330811,-1.83612684690458,2.17578229366013,2.27950707526701,1272.514,1322.56,3159.11,3174.286,-0.07410565,0.03730556,0.06545848,-1.05585992336273,-0.441279292106628,0.683384716510773,-1.07501419914593,-0.462548577472581,0.665484999299265,0
2.80000305175781,-2.13673448562622,2.17843055725098,2.21888256072998,-1.85759178470316,2.16654653058634,2.29279489428112,1270.537,1320.831,3156.989,3170.535,-0.07274637,0.03757979,0.06436556,-1.05187892913818,-0.440055102109909,0.682073831558228,-1.07097597819164,-0.460811043810786,0.662985148161422,0
2.81999969482422,-2.15768790245056,2.16965651512146,2.23249363899231,-1.87896509797278,2.15735019098767,2.30602599334712,1268.713,1318.82,3152.896,3168.398,-0.071361,0.03786666,0.06326199,-1.04766249656677,-0.438693910837173,0.680552899837494,-1.06666929835407,-0.458957999791384,0.660319108186353,0
2.84000396728516,-2.17855215072632,2.16091251373291,2.24607181549072,-1.90025771011236,2.14818857483073,2.3192071345693,1267.975,1316.549,3150.843,3163.38,-0.06993354,0.03816848,0.06214058,-1.04321873188019,-0.437198013067245,0.678907155990601,-1.06209255378819,-0.456988754464129,0.657485885279497,0
2.86000061035156,-2.19932270050049,2.15220165252686,2.25961256027222,-1.9214480311499,2.13907097167731,2.33232495272651,1268.131,1314.607,3145.769,3159.958,-0.06847253,0.03848574,0.06100146,-1.03853857517242,-0.435560166835785,0.677036345005035,-1.05725102347782,-0.454905579228273,0.654488747383304,0
2.87999725341797,-2.21999526023865,2.14352607727051,2.273113489151,-1.94253888918396,2.12999616467562,2.34538119854648,1268.201,1312.357,3142.917,3154.845,-0.0669801,0.03881716,0.05984318,-1.03362989425659,-0.433782279491425,0.675045967102051,-1.05214490868305,-0.452708560680416,0.651327819087361,0
2.90000152587891,-2.24056506156921,2.13488912582397,2.28657102584839,-1.96353299953007,2.12096298550123,2.3583775529389,1266.124,1310.099,3139.251,3152.389,-0.0654621,0.03916046,0.05867254,-1.02848720550537,-0.431862264871597,0.672878563404083,-1.04677411523767,-0.450397658303471,0.648003042098304,0
2.91999816894531,-2.26102733612061,2.12629318237305,2.29998135566711,-1.98440911693069,2.11198057539494,2.37130086407726,1268.438,1307.961,3134.152,3146.86,-0.06391693,0.03952142,0.05746906,-1.02311098575592,-0.429798185825348,0.67051899433136,-1.04114485287423,-0.447975543971863,0.644518260536375,0
2.94000244140625,-2.28137755393982,2.11774110794067,2.31334280967712,-2.00517798053537,2.10304431360073,2.38415778000673,1266.752,1305.766,3132.094,3142.382,-0.06235792,0.03989247,0.05625177,-1.01750540733337,-0.427595496177673,0.668069839477539,-1.03525504859546,-0.445441325732794,0.640872191117535,0
2.95999908447266,-2.30161094665527,2.10923600196838,2.32665109634399,-2.02581860575671,2.0941632292003,2.39693531026807,1265.351,1303.405,3127.803,3139.567,-0.06078079,0.04027538,0.05501854,-1.01166331768036,-0.425252646207809,0.665409505367279,-1.02911152474823,-0.442797939051516,0.637069057199471,0
2.98000335693359,-2.32172250747681,2.10078048706055,2.33990359306335,-2.04634164528706,2.08533273863774,2.40964004938531,1265.462,1300.873,3125.106,3133.876,-0.05917224,0.04067167,0.05376241,-1.00559163093567,-0.422773122787476,0.662619173526764,-1.02271203275434,-0.440044416427654,0.633107466805174,0
3,-2.34170818328857,2.09237742424011,2.35309600830078,-2.06672639957428,2.07656174835205,2.42225918334961,1266.017,1298.655,3119.93,3129.767,-0.05754718,0.04108032,0.05248646,-0.999283909797668,-0.420153737068176,0.65962016582489,-1.01606400046349,-0.437183953857422,0.628992018127441,0
3.02000427246094,-2.36156344413757,2.08402943611145,2.36622619628906,-2.0869834279768,2.06784571494631,2.43479924890685,1265.6,1296.161,3117.122,3124.621,-0.05590774,0.04149842,0.05119312,-0.992747247219086,-0.417399257421494,0.656510591506958,-1.00916501115878,-0.434215511495054,0.624721215103391,0
3.04000091552734,-2.38128304481506,2.07573914527893,2.37929034233093,-2.10709234004513,2.05919341186127,2.44724762339747,1264.793,1293.794,3112.396,3121.371,-0.05426084,0.04192536,0.04988282,-0.985977053642273,-0.414509683847427,0.65320485830307,-1.00202309041976,-0.43114254252322,0.620300025949072,0
3.05999755859375,-2.40086269378662,2.06750917434692,2.3922860622406,-2.12705600675913,2.05060360379452,2.45960608409476,1264.082,1291.255,3109.799,3116.072,-0.05259743,0.0423614,0.04855224,-0.978980183601379,-0.411490768194199,0.649785757064819,-0.994638524886308,-0.427965170275055,0.615728628108227,0
3.08000183105469,-2.42029762268066,2.05934238433838,2.4052095413208,-2.14687713595163,2.04207512564123,2.47187630727625,1262.325,1288.821,3105.751,3112.871,-0.05091751,0.04280556,0.04720624,-0.971752226352692,-0.408342868089676,0.646179139614105,-0.987011339258122,-0.424683405378145,0.611007036871143,0
3.09999847412109,-2.43958353996277,2.05124139785767,2.41805720329285,-2.16653584520328,2.033616532251,2.4840459847772,1265.519,1286.518,3100.261,3106.166,-0.04922214,0.04326235,0.04582665,-0.964294970035553,-0.405066251754761,0.642382085323334,-0.979150439632689,-0.421301079877433,0.606140765536421,0
3.12000274658203,-2.45871543884277,2.04320812225342,2.43082714080811,-2.18604243256806,2.0252233926589,2.49612149158362,1263.984,1284.339,3097.516,3101.428,-0.04753476,0.04372213,0.04443729,-0.956612348556519,-0.401667296886444,0.638497114181519,-0.971053025860989,-0.417816988947023,0.601128080678429,0
3.13999938964844,-2.47768974304199,2.03524518013,2.44351553916931,-2.20537738341953,2.01690410346351,2.50809074721212,1262.193,1281.869,3093.237,3098.342,-0.04585005,0.04418567,0.04303709,-0.948702275753021,-0.398149371147156,0.634419560432434,-0.962728579444533,-0.414235212212131,0.595974851798267,0
3.16000366210938,-2.49650120735168,2.02735447883606,2.45612001419067,-2.22455088103183,2.00865428308644,2.51996005559448,1261.391,1279.312,3090.512,3092.808,-0.04415148,0.04465467,0.04162039,-0.940572023391724,-0.394518375396729,0.630218029022217,-0.954174163352092,-0.410554485950274,0.590679260733698,0
3.18000030517578,-2.51514554023743,2.01953935623169,2.46863627433777,-2.24354380138856,2.00048216005771,2.53171757805356,1261.587,1277.035,3085.316,3088.336,-0.04244599,0.04512875,0.04018807,-0.932218611240387,-0.390774130821228,0.625810325145721,-0.94539982440085,-0.406779133026206,0.58524752694315,0
3.20000457763672,-2.53361821174622,2.01180124282837,2.4810619354248,-2.26236620771476,1.99238340445271,2.54336954420504,1261.548,1274.683,3081.716,3082.747,-0.04073678,0.04560565,0.03874132,-0.923648595809937,-0.38692107796669,0.62128210067749,-0.936402499096495,-0.402907835303912,0.579677753977713,0
3.22000122070313,-2.55191540718079,2.00414180755615,2.4933934211731,-2.28099938900442,1.98436606709459,2.55490437104486,1261.03,1272.477,3076.702,3078.754,-0.03903608,0.04608417,0.03728281,-0.91486120223999,-0.38296166062355,0.616574585437775,-0.927192788821982,-0.398945154262308,0.573976504598449,0
3.23999786376953,-2.57003283500671,1.99656367301941,2.50562882423401,-2.29944628156995,1.97642888457015,2.56632387629027,1259.462,1270.163,3073.959,3073.66,-0.03733752,0.04656223,0.03581471,-0.905863761901855,-0.37890300154686,0.611765742301941,-0.917771149318993,-0.394891285994308,0.568144060931169,0
3.26000213623047,-2.58796572685242,1.98906886577606,2.51776432991028,-2.31770961544581,1.96857068222185,2.57762974996267,1256.994,1267.862,3069.72,3070.649,-0.03563629,0.04704016,0.03433933,-0.896655797958374,-0.374747693538666,0.60677295923233,-0.90813782126959,-0.39074633405868,0.562180571969535,0
3.27999877929688,-2.60571050643921,1.98165893554688,2.52979636192322,-2.33577134012187,1.96079922667992,2.58881081793642,1260.002,1265.686,3064.191,3063.522,-0.03392708,0.04752346,0.03283717,-0.887241423130035,-0.370497733354568,0.601599335670471,-0.898304216251578,-0.386515208538549,0.556093102023818,0
3.30000305175781,-2.62326312065125,1.97433567047119,2.54172325134277,-2.35364119854729,1.95311032582551,2.59987311156116,1258.392,1263.87,3061.022,3058.48,-0.0322365,0.04800227,0.03133414,-0.877624213695526,-0.366158604621887,0.596341550350189,-0.888267004546666,-0.382196476749158,0.549879589839776,0
3.31999969482422,-2.6406192779541,1.96710097789764,2.55354118347168,-2.37130160722417,1.94551154534655,2.61080574581408,1256.16,1261.65,3056.43,3055.536,-0.03056031,0.04847696,0.02983054,-0.867806136608124,-0.361734837293625,0.590899765491486,-0.878038122530657,-0.377795274579551,0.543547424602645,0
3.34000396728516,-2.65777492523193,1.959956407547,2.56524801254272,-2.38876217417054,1.9379987511813,2.62161466851603,1255.411,1259.424,3053.296,3049.743,-0.02888305,0.04894966,0.02831872,-0.857795774936676,-0.357232391834259,0.585343897342682,-0.867614155697521,-0.373310132863173,0.537094492570531,0
3.36000061035156,-2.67472696304321,1.95290327072144,2.57683992385864,-2.406005803634,1.93057929915441,2.6322892965819,1254.888,1257.466,3048.057,3045.491,-0.02721165,0.04941944,0.02680254,-0.847593665122986,-0.352652817964554,0.579601526260376,-0.857007552155826,-0.36874640767338,0.530528499715627,0
3.37999725341797,-2.69147109985352,1.94594323635101,2.5883150100708,-2.42303550945299,1.9232518924954,2.64283149572124,1254.24,1255.457,3044.583,3039.835,-0.02554611,0.04988496,0.02528338,-0.837207078933716,-0.348000884056091,0.573755264282227,-0.846218976345105,-0.364104384899943,0.523849857357654,0
3.40000152587891,-2.70800352096558,1.9390777349472,2.59966993331909,-2.43985407218584,1.9160153348077,2.65324298723213,1251.917,1253.497,3040.067,3036.691,-0.02389069,0.05034425,0.02376779,-0.826638460159302,-0.343279421329498,0.567748248577118,-0.835248923368004,-0.359384277571698,0.517058871988738,0
3.41999816894531,-2.7243218421936,1.93230783939362,2.61090159416199,-2.45644516534361,1.90887665092339,2.66351366424015,1253.603,1251.515,3034.865,3030.401,-0.02224059,0.05080141,0.02223973,-0.815894067287445,-0.338491708040237,0.561585545539856,-0.824110582941664,-0.354591760855451,0.510163708672097,0
3.44000244140625,-2.74042129516602,1.92563486099243,2.62200856208801,-2.47281804716281,1.90183185728196,2.67364925803476,1251.152,1249.941,3031.7,3025.949,-0.0206134,0.05124971,0.02071968,-0.804978609085083,-0.333642989397049,0.555345356464386,-0.812800388649434,-0.349725300221754,0.503162159625937,0
3.45999908447266,-2.75629901885986,1.91906034946442,2.63298726081848,-2.48895692832918,1.89488774758421,2.68363999427827,1249.101,1247.996,3027.027,3022.712,-0.01899952,0.05169099,0.01920425,-0.793896794319153,-0.328737407922745,0.548931837081909,-0.801332006385299,-0.344790775723006,0.496062684689628,0
3.48000335693359,-2.7719521522522,1.91258478164673,2.64383554458618,-2.50487092366784,1.88804039997555,2.69349151548162,1248.625,1246.152,3023.517,3016.832,-0.01738884,0.05212677,0.01768772,-0.782656311988831,-0.323779284954071,0.542413771152496,-0.78970183472369,-0.339786637766397,0.488863054409187,0
3.5,-2.78737735748291,1.90620923042297,2.65455031394958,-2.5205447997813,1.88129636896134,2.70319439144611,1247.89,1244.51,3018.428,3012.607,-0.01579095,0.05255554,0.01617675,-0.771260023117065,-0.318770408630371,0.535735845565796,-0.777924000354857,-0.334718964672089,0.481572013878822,0
3.52000427246094,-2.80257177352905,1.89993500709534,2.66512966156006,-2.53598752699493,1.87465179486116,2.71275417523047,1246.902,1242.798,3014.879,3007.353,-0.01420583,0.05297602,0.0146734,-0.759715259075165,-0.313714772462845,0.528966307640076,-0.765994882555673,-0.32958619854407,0.474187321698442,0
3.54000091552734,-2.8175323009491,1.89376258850098,2.67557048797607,-2.55118444594166,1.86811298519115,2.72216179198813,1245.564,1241.109,3009.867,3003.838,-0.01263883,0.05338781,0.01317975,-0.748026788234711,-0.30861508846283,0.522043228149414,-0.753929052770513,-0.324394609067776,0.466717998286246,0
3.55999755859375,-2.83225631713867,1.88769316673279,2.68587136268616,-2.56613872308604,1.86167857751006,2.73141920191151,1244.487,1239.464,3006.521,2998.541,-0.01108514,0.05379099,0.01169388,-0.736202657222748,-0.303475648164749,0.51503998041153,-0.741727567798258,-0.319144650954242,0.459164697851087,0
3.58000183105469,-2.84674119949341,1.88172698020935,2.69602942466736,-2.58085326729328,1.85534732021446,2.74052820572674,1241.863,1237.898,3002.135,2995.661,-0.009546367,0.0541845,0.01022212,-0.724247694015503,-0.298299193382263,0.50789999961853,-0.729391385793765,-0.313836736470737,0.451528013536464,0
3.59999847412109,-2.86098432540894,1.87586545944214,2.70604205131531,-2.59531431270705,1.84912513636775,2.74948028171299,1243.3,1236.218,2997.336,2989.472,-0.008014517,0.0545725,0.008749936,-0.712169051170349,-0.293088376522064,0.500633060932159,-0.716935713767317,-0.308477408768949,0.443817359206151,0
3.62000274658203,-2.87498378753662,1.87010848522186,2.71590805053711,-2.60953046793176,1.84300832192796,2.75828075900647,1241.32,1235.011,2993.724,2985.258,-0.006508766,0.05494909,0.007296333,-0.699971139431,-0.287845999002457,0.493296295404434,-0.704356955827444,-0.303065120637236,0.436030508832034,0
3.63999938964844,-2.88873720169067,1.86445677280426,2.72562456130981,-2.6234885835008,1.83700253474321,2.76692149746096,1239.476,1233.395,2989.363,2981.969,-0.005024852,0.05531551,0.005859355,-0.687661588191986,-0.282575994729996,0.485830217599869,-0.691670720740692,-0.297606588091786,0.428177124984152,0
3.66000366210938,-2.9022421836853,1.85891127586365,2.73519039154053,-2.63719712493647,1.83110413233575,2.77540773763803,1238.311,1231.893,2986.073,2977.006,-0.00355319,0.05567295,0.004436386,-0.675248146057129,-0.277281880378723,0.478288322687149,-0.678873453515702,-0.29210028151913,0.420255006953505,0
3.68000030517578,-2.91549682617188,1.85347199440002,2.7446026802063,-2.65064357486757,1.82531850058072,2.78373173068862,1237.37,1230.445,2981.222,2973.373,-0.002098038,0.05602093,0.003029365,-0.662736654281616,-0.271965444087982,0.470613598823547,-0.665981146317811,-0.286553081901244,0.412274054652249,0
3.70000457763672,-2.92849922180176,1.84813964366913,2.75386023521423,-2.66383625774188,1.8196420577008,2.79189862984245,1236.869,1229.063,2977.772,2968.125,-0.0006593987,0.05635967,0.001638024,-0.650134146213531,-0.266629248857498,0.46287739276886,-0.652990303744022,-0.280963485263868,0.404232104259425,0
3.71999359130859,-2.94124865531921,1.8429137468338,2.76296067237854,-2.6767584210412,1.81408201183655,2.79989806449274,1235.366,1227.716,2973.142,2965.047,0.0007539963,0.05668735,0.0002681334,-0.637446701526642,-0.261275589466095,0.455026745796204,-0.639922285921447,-0.275340682272968,0.396142378711232,0
3.73999786376953,-2.95374178886414,1.83779573440552,2.77190327644348,-2.68942811570037,1.808630596175,2.80774120902801,1233.366,1226.358,2970.475,2960.708,0.002151162,0.05700473,-0.001080178,-0.624682366847992,-0.255907893180847,0.44713506102562,-0.626763698705669,-0.269678909802388,0.38799658639423,0
3.76000213623047,-2.9659788608551,1.83278512954712,2.78068518638611,-2.70183383146282,1.803292763258,2.81542093805117,1233.071,1224.886,2965.133,2957.448,0.003531123,0.05731364,-0.002412824,-0.611848115921021,-0.250527888536453,0.43909764289856,-0.613531154887639,-0.263985315871967,0.379805011417393,0
3.78000640869141,-2.97795796394348,1.82788252830505,2.78930568695068,-2.71397415649521,1.79806912055798,2.8229363775701,1234.545,1223.699,2961.606,2950.826,0.004888162,0.05761386,-0.003732154,-0.598949790000916,-0.245137766003609,0.431029260158539,-0.600231432569387,-0.258262816909651,0.371571849748762,0
3.79999542236328,-2.98967790603638,1.82308769226074,2.79776358604431,-2.72583886061506,1.79296406983666,2.83028119461452,1230.635,1222.733,2958.112,2949.297,0.006201858,0.05789952,-0.005013667,-0.585993349552155,-0.23974084854126,0.422898977994919,-0.586881630238189,-0.252518769916838,0.363307686166475,0
3.81999969482422,-3.00113773345947,1.81840085983276,2.8060576915741,-2.73744492223163,1.78797030575888,2.83746589962856,1227.735,1221.179,2955.636,2946.294,0.007501847,0.05817484,-0.006269081,-0.572990119457245,-0.234341576695442,0.414710640907288,-0.573468357077023,-0.246747413199059,0.355004231116903,0
3.84000396728516,-3.01233696937561,1.81382203102112,2.81418561935425,-2.74878218705843,1.78309219743042,2.84448420662517,1229.056,1219.711,2950.655,2941.683,0.008795901,0.05844407,-0.007511712,-0.55994725227356,-0.228941038250923,0.406398415565491,-0.560008885098766,-0.240956178420931,0.346672176798797,0
3.86000823974609,-3.02327442169189,1.80935120582581,2.82214689254761,-2.75984980287541,1.77833011153776,2.85133558803954,1230.826,1218.753,2946.829,2935.533,0.01006283,0.05870416,-0.008734636,-0.546867907047272,-0.223539382219315,0.398062735795975,-0.546510426213897,-0.235148168666057,0.338315987728298,0
3.87999725341797,-3.03394937515259,1.80498826503754,2.82994079589844,-2.77063893010371,1.77368785150474,2.85801457175126,1227.623,1217.819,2943.454,2933.911,0.0112802,0.05894924,-0.009916547,-0.533758878707886,-0.2181396484375,0.389689356088638,-0.532990631455729,-0.229330978680956,0.329946590735853,0
3.90000152587891,-3.04436230659485,1.8007333278656,2.83756637573242,-2.78116548164984,1.76915857045225,2.8645310086075,1224.537,1216.394,2941.134,2931.569,0.0124722,0.059183,-0.01106597,-0.520631670951843,-0.212746769189835,0.381281405687332,-0.519436284009554,-0.223498921639498,0.32155580398356,0
3.92000579833984,-3.05451226234436,1.79658627510071,2.84502196311951,-2.79142070858447,1.76474603280016,2.87087948260424,1225.11,1214.999,2936.813,2927.696,0.01365097,0.05940944,-0.01219834,-0.507495105266571,-0.207362994551659,0.372779875993729,-0.505865230434379,-0.217659676417445,0.313154675341593,0
