t,x_s1,x_s2,x_s3,x_s_d1,x_s_d2,x_s_d3,propellers_rpms1,propellers_rpms2,propellers_rpms3,propellers_rpms4,rollRad,pitchRad,yawRad,v_s1,v_s2,v_s3,v_s_d1,v_s_d2,v_s_d3,insideCount
0,-0.0599999986588955,2.94000005722046,1.17999994754791,-0.0599999986588955,2.94000005722046,1.17999994754791,0,0,0,0,0,45.0048027038574,0,0,0,0,-1.06581410364015E-15,4.44089209850063E-16,4.44089209850063E-16,0
0.0199966430664063,-0.0599999986588955,2.94000005722046,1.17705690860748,-0.0600018680476204,2.93999925287472,1.18000110478858,0,0,0,0,0.937003672122955,44.8630027770996,-0.00115976633969694,3.71994488546079E-08,3.50004931704007E-08,-0.147149950265884,-0.000279892991557604,-0.000120430134961378,0.000173267094926113,5
0.0399932861328125,-0.0599999986588955,2.94000005722046,1.17018985748291,-0.060014863945674,2.93999366110285,1.18000914986856,0,0,0,0,1.87400352954865,44.7211418151855,-0.00311126722954214,3.70364325874561E-08,3.5142885934647E-08,-0.343349903821945,-0.00111059898697896,-0.000477859717552347,0.000687513678106196,6
0.05999755859375,-0.0599062219262123,2.94009447097778,1.16346526145935,-0.0600498857373401,2.93997859220429,1.18003083002592,3197.466,2848.831,1517.328,2782.424,1.40359687805176,44.7413673400879,0.0288891084492207,0.00468882778659463,0.00471900030970573,-0.336231976747513,-0.00247936261166862,-0.00106680046642749,0.00153484356504269,6
0.0799942016601563,-0.0597377717494965,2.94026732444763,1.15723812580109,-0.0601175240668593,2.93994948932069,1.18007270137395,2865.824,2651.909,2344.723,2562.356,0.339560210704803,44.8158378601074,0.0998076647520065,0.0084224995225668,0.0086448984220624,-0.31135967373848,-0.00437186567523228,-0.00188109166426407,0.00270639311381153,6
0.0999984741210938,-0.0595562793314457,2.94046425819397,1.15152084827423,-0.0602281887669101,2.93990187339187,1.18014120809498,2239.953,2528.256,3138.364,2508.834,359.321533203125,44.9191398620605,0.178510054945946,0.00907461438328028,0.00984912551939487,-0.285864293575287,-0.00677637982016689,-0.00291568692648091,0.00419490191241918,5
0.1199951171875,-0.0594243705272675,2.94063210487366,1.14657151699066,-0.0603918861403606,2.93983143898525,1.18024254456713,2124.182,2455.073,3352.028,2464.626,358.749938964844,44.9999122619629,0.253314584493637,0.00659538246691227,0.00839806441217661,-0.24746797978878,-0.00967801353495435,-0.00416417885169243,0.00599115140585487,5
0.139999389648438,-0.0593829564750195,2.94074010848999,1.14257478713989,-0.0606185767455666,2.93973390035084,1.18038287685052,2312.384,2456.865,3069.611,2463.712,358.636169433594,45.0327033996582,0.326350927352905,0.00207061879336834,0.00539819430559874,-0.199834629893303,-0.0130660253322238,-0.00562194567796536,0.00808849210174802,5
0.159996032714844,-0.0594433285295963,2.9407856464386,1.13953101634979,-0.0609176604100223,2.93960521300545,1.18056802388615,2537.089,2487.118,2635.7,2492.201,358.757049560547,45.0250358581543,0.398182392120361,-0.00301853148266673,0.0022785235196352,-0.152190297842026,-0.0169249902365933,-0.00728235046931681,0.0104773752055438,5
0.180000305175781,-0.0596000589430332,2.94078159332275,1.1373188495636,-0.0612986871007165,2.9394412678651,1.18080389755851,2666.757,2506.368,2303.054,2513.683,358.864410400391,44.9986038208008,0.467275619506836,-0.0078364722430706,-0.00019860896281898,-0.110606238245964,-0.0212451141043368,-0.00914117907931815,0.0131517376757159,5
0.199996948242188,-0.0598476380109787,2.94073963165283,1.13577461242676,-0.0617704296168641,2.93923829023936,1.18109592864822,2654.135,2500.641,2183.596,2508.905,358.817230224609,44.9744415283203,0.532812654972076,-0.0123788667842746,-0.00209257914684713,-0.0772106871008873,-0.0260104776919234,-0.0111915819022102,0.0161017247421801,5
0.219993591308594,-0.0601895861327648,2.94066190719604,1.13476359844208,-0.0623418263269037,2.93899243419801,1.18144965043113,2540.643,2470.91,2246.33,2479.459,358.612731933594,44.9637489318848,0.59443598985672,-0.0170974545180798,-0.00388244679197669,-0.0505506247282028,-0.0312101301935526,-0.0134288471121871,0.0193205573344865,5
0.239997863769531,-0.0606388635933399,2.94054126739502,1.13421714305878,-0.0630217183703222,2.93869989564571,1.18187053599376,2412.25,2430.176,2374.752,2437.83,358.335083007813,44.9659805297852,0.652470171451569,-0.0224639475345612,-0.00603307411074638,-0.0273201912641525,-0.0368338920540454,-0.0158485947310391,0.02280193382306,5
0.259994506835938,-0.0612132549285889,2.9403657913208,1.1341210603714,-0.0638179029240226,2.93835731967507,1.18236341216003,2330.46,2392.643,2462.835,2398.996,358.076873779297,44.973934173584,0.707617878913879,-0.0287195462733507,-0.0087701054289937,-0.00480524264276028,-0.0428651747123285,-0.0184436871643672,0.0265355850983733,4
0.279998779296875,-0.0619298107922077,2.94012475013733,1.13447868824005,-0.0647390625194898,2.93796097043536,1.18293365383054,2306.114,2365.565,2470.802,2371.369,357.887634277344,44.9803886413574,0.760340809822083,-0.0358278714120388,-0.0120577029883862,0.0178842395544052,-0.0492963837173861,-0.0212108567320638,0.030516809833474,4
0.299995422363281,-0.0628013834357262,2.93981051445007,1.13528323173523,-0.0657923226682404,2.93750778201804,1.18358567203635,2318.285,2348.941,2416.17,2353.977,357.765625,44.9818496704102,0.81110405921936,-0.0435786843299866,-0.015707952901721,0.0402261391282082,-0.0561105313314725,-0.0241427940851591,0.0347350918094591,4
0.319999694824219,-0.0638362318277359,2.9394199848175,1.13650596141815,-0.0669860785243584,2.93699414222283,1.18432466377777,2335.202,2337.033,2343.574,2342.384,357.679290771484,44.978931427002,0.859757959842682,-0.0517425537109375,-0.0195254664868116,0.0611384883522987,-0.0633008373176985,-0.0272365818771378,0.0391862337367069,4
0.339996337890625,-0.0650399178266525,2.93895196914673,1.13810420036316,-0.068326768706371,2.93641728069206,1.18515461486636,2338.777,2325.531,2287.235,2330.581,357.595123291016,44.9742164611816,0.906331241130829,-0.0601843670010567,-0.0234058499336243,0.0799097567796707,-0.0708499516420146,-0.0304847548730522,0.0438594951176439,4
0.359992980957031,-0.0664174780249596,2.93840503692627,1.14003121852875,-0.0698219320097035,2.93577395369266,1.18608019217563,2322.696,2311.161,2262.646,2316.768,357.495330810547,44.9703712463379,0.950476408004761,-0.0688780695199966,-0.0273438505828381,0.0963496118783951,-0.0787487928009798,-0.0338834055556794,0.0487492540690281,4
0.379997253417969,-0.0679748132824898,2.9377772808075,1.14224803447723,-0.0714791088463715,2.935060916796,1.18710606357981,2296.138,2295.069,2261.832,2300.242,357.380737304688,44.9686393737793,0.992322683334351,-0.0778669491410255,-0.031391367316246,0.110843010246754,-0.0869889214763108,-0.0374289027221294,0.0538502862508218,4
0.399993896484375,-0.0697188228368759,2.9370653629303,1.14472651481628,-0.0733036822025899,2.9342758538535,1.18823556140379,2269.746,2278.742,2268.896,2283.467,357.262634277344,44.968807220459,1.0320657491684,-0.0872004628181458,-0.0356004759669304,0.123926997184753,-0.0955525119207663,-0.0411135764513579,0.0591515566763244,4
0.419998168945313,-0.0716567263007164,2.93626546859741,1.14744639396667,-0.0753034649285836,2.93341540321397,1.18947352217404,2249.514,2263.562,2271.985,2268.647,357.153076171875,44.9699745178223,1.06959092617035,-0.0968952775001526,-0.0399909988045692,0.135994911193848,-0.104434660908044,-0.0449353170220673,0.0646500300148815,4
0.439994812011719,-0.0737953707575798,2.93537449836731,1.15039229393005,-0.0774831213880516,2.93247755793201,1.19082283335389,2238.969,2251.501,2264.078,2255.714,357.058013916016,44.9710845947266,1.10532033443451,-0.1069320961833,-0.0445501059293747,0.147294223308563,-0.11361726969793,-0.0488863370519643,0.070334502284139,4
0.459999084472656,-0.0761406570672989,2.93438959121704,1.15354788303375,-0.0798502821969742,2.93145903476675,1.19228821865812,2232.719,2241.075,2249.873,2245.827,356.976776123047,44.9717636108398,1.139044880867,-0.117264181375504,-0.0492428317666054,0.157780647277832,-0.123096124252221,-0.0529648233581361,0.0762023647937057,4
0.479995727539063,-0.0786976218223572,2.93330883979797,1.1568968296051,-0.0824088828700873,2.93035814037613,1.19387211435783,2229.141,2232.916,2233.047,2236.819,356.904693603516,44.9719581604004,1.17112898826599,-0.12784817814827,-0.0540378466248512,0.167445331811905,-0.132852887402757,-0.0571628859694044,0.0822422659629699,4
0.5,-0.0814706236124039,2.93213057518005,1.16042101383209,-0.085166398670376,2.92917165836334,1.1955791479969,2222.957,2224.838,2220.667,2229.338,356.837036132813,44.9720802307129,1.20129561424255,-0.138650074601173,-0.0589132681488991,0.176206678152084,-0.142884000065179,-0.0614789935111996,0.0884520025491718,5
0.519996643066406,-0.0844637751579285,2.93085336685181,1.16410458087921,-0.0881260274065667,2.92789821280061,1.19741129917127,2216.385,2217.906,2212.012,2221.547,356.771270751953,44.9723663330078,1.22989976406097,-0.149657666683197,-0.0638646930456161,0.184177994728088,-0.153170920546857,-0.0659051680111775,0.0948200963613094,5
0.539993286132813,-0.0876810401678085,2.92947554588318,1.16793286800385,-0.091293865515634,2.92653518056143,1.19937234186584,2207.61,2210.639,2208.549,2214.915,356.707427978516,44.9730529785156,1.25665473937988,-0.160863399505615,-0.0688917487859726,0.191413521766663,-0.163706645289342,-0.0704383960337938,0.101342211863077,5
0.55999755859375,-0.091126374900341,2.9279956817627,1.17189490795135,-0.094676112580471,2.92507989413848,1.20146611391775,2200.584,2204.572,2205.909,2208.297,356.647064208984,44.9740447998047,1.28180193901062,-0.17226667702198,-0.0739983171224594,0.198101118206978,-0.17448465888317,-0.0750758741803766,0.108014315705644,5
0.579994201660156,-0.0948035717010498,2.9264121055603,1.17598187923431,-0.0982748462459366,2.92353145957921,1.20369390148813,2195.454,2199.47,2202.536,2202.615,356.59130859375,44.9751625061035,1.30559873580933,-0.183859661221504,-0.0791817605495453,0.204347670078278,-0.185486174984119,-0.0798095192118365,0.114824778247021,5
0.599998474121094,-0.0987161248922348,2.92472338676453,1.18018555641174,-0.102097262171133,2.92188678079254,1.20606015903275,2190.543,2194.539,2199.875,2198.45,356.540863037109,44.9763641357422,1.32772028446198,-0.195628136396408,-0.0844343602657318,0.210181027650833,-0.196709126405959,-0.0846384416756885,0.121772319800455,5
0.6199951171875,-0.102867349982262,2.92292833328247,1.18450009822845,-0.106144683970236,2.92014528826426,1.20856570593183,2188.567,2191.373,2195.213,2194.255,356.495361328125,44.9774856567383,1.34861731529236,-0.207561373710632,-0.0897499620914459,0.215726032853127,-0.208134604141382,-0.0895545055543457,0.128845234789665,5
0.639999389648438,-0.107260167598724,2.92102599143982,1.18891894817352,-0.110424235525481,2.91830391678686,1.21121495220784,2185.519,2187.969,2192.347,2191.664,356.454162597656,44.9786186218262,1.36793518066406,-0.219641119241714,-0.095118060708046,0.220944464206696,-0.219761081350814,-0.0945570538913933,0.136042578028218,5
0.659996032714844,-0.111897364258766,2.91901540756226,1.1934380531311,-0.114936482147704,2.9163624231229,1.21400824781511,2184.563,2186.067,2188.665,2188.736,356.416351318359,44.9796676635742,1.38611841201782,-0.231859385967255,-0.100534930825233,0.225953504443169,-0.231569557951997,-0.0996379114822372,0.143352587560098,5
0.680000305175781,-0.116781398653984,2.91689562797546,1.19805240631104,-0.119688496929273,2.91431776391831,1.21694997133476,2181.883,2183.671,2187.696,2187.184,356.381561279297,44.9808082580566,1.40279567241669,-0.244202151894569,-0.105993695557117,0.23071563243866,-0.243559016194652,-0.104796640417365,0.150774633349401,5
0.699996948242188,-0.121914729475975,2.91466569900513,1.20275974273682,-0.124680083855354,2.91217002351282,1.22004000142426,2181.375,2182.714,2185.853,2185.088,356.349548339844,44.9819145202637,1.41846024990082,-0.256666243076324,-0.11149425804615,0.235364556312561,-0.255710395848158,-0.11002503961202,0.158296916205407,5
0.719993591308594,-0.127299517393112,2.91232514381409,1.20755696296692,-0.129916240141956,2.90991705174396,1.22328143159838,2179.262,2181.122,2186.359,2184.391,356.320404052734,44.9831161499023,1.43272304534912,-0.269239664077759,-0.117031030356884,0.23986142873764,-0.268018433064612,-0.115320844179508,0.165916177555513,5
0.739997863769531,-0.132937893271446,2.90987300872803,1.2124434709549,-0.135402141159277,2.90755662179454,1.22667746565781,2179.134,2180.637,2185.885,2183.362,356.294464111328,44.9842910766602,1.44582378864288,-0.281919032335281,-0.122603580355644,0.244324401021004,-0.280478211503383,-0.120681938755799,0.173629373950669,5
0.759994506835938,-0.138831779360771,2.90730881690979,1.21741890907288,-0.14113644597991,2.90508931062815,1.2302272735046,2179.738,2180.777,2184.902,2182.732,356.271240234375,44.9853935241699,1.45809400081635,-0.294694662094116,-0.128207325935364,0.248772144317627,-0.293070637251543,-0.126100107763583,0.181424685349205,5
0.779998779296875,-0.144982889294624,2.90463209152222,1.22248232364655,-0.147126184485884,2.90251209348295,1.23393520697061,2178.861,2180.167,2186.049,2183.293,356.250671386719,44.9865341186523,1.46902573108673,-0.30755552649498,-0.133836641907692,0.253169596195221,-0.305795832832518,-0.131575403921268,0.189302187598958,5
0.799995422363281,-0.151392877101898,2.90184235572815,1.22763502597809,-0.153369252164744,2.89982587587186,1.23779996326238,2180.442,2181.074,2185.428,2182.994,356.232574462891,44.9875679016113,1.47914493083954,-0.320499449968338,-0.139491632580757,0.25763800740242,-0.318634718604462,-0.13709961779199,0.197250069492735,5
0.819999694824219,-0.158063143491745,2.89893913269043,1.2328770160675,-0.159872691993147,2.89702762739878,1.24182590231796,2179.978,2181.051,2187.095,2184.038,356.216857910156,44.988639831543,1.48798537254333,-0.333513230085373,-0.145166084170341,0.262099891901016,-0.331587821991737,-0.142672976311719,0.205268657531342,5
0.839996337890625,-0.164995059370995,2.8959219455719,1.2382105588913,-0.166633637018892,2.89411858163313,1.24601124935738,2182.025,2182.471,2186.854,2184.147,356.203399658203,44.9896049499512,1.49611687660217,-0.346595793962479,-0.150860533118248,0.26667782664299,-0.344636106234817,-0.148287288494656,0.213346167053785,5
0.859992980957031,-0.172189742326736,2.89279055595398,1.24363625049591,-0.173656429312624,2.89109687030325,1.25035869232919,2181.849,2182.797,2188.955,2185.625,356.192108154297,44.990608215332,1.50303828716278,-0.359734058380127,-0.156568810343742,0.271283775568008,-0.357775446040398,-0.153940779342338,0.221480044306994,5
0.879997253417969,-0.179648265242577,2.88954472541809,1.24915671348572,-0.180945630646592,2.88796053060595,1.25487105518773,2183.556,2184.174,2189.757,2186.315,356.183227539063,44.9915428161621,1.50904977321625,-0.372926384210587,-0.162291422486305,0.27602145075798,-0.371001963495383,-0.159631780297098,0.229667888678032,5
0.899993896484375,-0.187371551990509,2.88618421554565,1.2547744512558,-0.18849723509595,2.8847112861788,1.25954585807468,2185.738,2185.869,2189.868,2187.248,356.176116943359,44.9923515319824,1.51447927951813,-0.386164247989655,-0.168024569749832,0.280885457992554,-0.384296738353309,-0.165352150505452,0.237897987633041,5
0.919998168945313,-0.195360317826271,2.88270902633667,1.26049065589905,-0.196318384305134,2.8813460641717,1.26438752200817,2185.764,2186.448,2192.465,2189.201,356.170806884766,44.993221282959,1.51872956752777,-0.39943739771843,-0.173763424158096,0.285808712244034,-0.397661187980262,-0.171102499820431,0.246171218589148,5
0.939994812011719,-0.203615248203278,2.87911891937256,1.26630902290344,-0.204404317663683,2.87786691294234,1.26939309994354,2188.455,2188.52,2192.771,2189.913,356.167266845703,44.9939613342285,1.52239370346069,-0.412746578454971,-0.179509967565536,0.290915817022324,-0.4110765036434,-0.176874735369747,0.254475938044738,5
0.959999084472656,-0.212136819958687,2.87541365623474,1.27223098278046,-0.212762239776093,2.87427073255068,1.27456705187416,2188.561,2189.298,2195.51,2191.936,356.165588378906,44.9947547912598,1.52492690086365,-0.426078647375107,-0.185258090496063,0.29609552025795,-0.424544411524882,-0.18266959988136,0.262813214588797,5
0.979995727539063,-0.220925509929657,2.8715934753418,1.27826046943665,-0.22138664033507,2.87055989392801,1.27990596665734,2191.445,2191.532,2195.743,2192.695,356.165679931641,44.9954071044922,1.52697312831879,-0.439434409141541,-0.191009595990181,0.301472693681717,-0.438046240701377,-0.188479059778567,0.271171490030365,5
1,-0.229981511831284,2.86765837669373,1.28439903259277,-0.230284798736574,2.86673126495361,1.28541435058594,2191.65,2192.282,2198.391,2194.894,356.167602539063,44.9960899353027,1.5279016494751,-0.452800214290619,-0.196757823228836,0.306927531957626,-0.451584000205995,-0.194303979492187,0.279552008056641,5
1.01999664306641,-0.239305034279823,2.86360836029053,1.29065072536469,-0.239450461003889,2.86278753653895,1.29108833215045,2194.654,2194.567,2198.449,2195.686,356.171142578125,44.996639251709,1.52836108207703,-0.466176986694336,-0.202504545450211,0.312583327293396,-0.465139182559269,-0.200136395770846,0.2879433116562,5
1.03999328613281,-0.248896062374115,2.8594434261322,1.29701697826385,-0.248887339851819,2.85872711120656,1.2969302096982,2194.729,2195.324,2201.146,2197.858,356.176330566406,44.9972305297852,1.52773559093475,-0.479550749063492,-0.208243146538734,0.318310290575027,-0.478708875293167,-0.205975055460915,0.29634359787259,5
1.05999755859375,-0.258754462003708,2.85516381263733,1.30350124835968,-0.258599401509697,2.85454828239877,1.30294243851408,2196.82,2197.144,2202.147,2198.853,356.183441162109,44.9977264404297,1.52638566493988,-0.492921590805054,-0.213975086808205,0.324213236570358,-0.492290296490434,-0.211818761581115,0.30475114456651,5
1.07999420166016,-0.268880099058151,2.85076975822449,1.31010663509369,-0.268579290074434,2.85025421515517,1.30912046494367,2199.299,2199.117,2202.165,2199.975,356.191802978516,44.9981155395508,1.52467739582062,-0.50628137588501,-0.219696938991547,0.330269187688828,-0.50586523043438,-0.217659676417445,0.313154675341593,5
1.09999847412109,-0.279272496700287,2.84626173973083,1.31683433055878,-0.278834517009062,2.84584167750307,1.31546893894041,2199.049,2199.593,2204.993,2202.139,356.201538085938,44.9985733032227,1.52187645435333,-0.519619762897491,-0.225403651595116,0.336382508277893,-0.519436284009554,-0.223498921639497,0.321555803983559,5
1.1199951171875,-0.289931267499924,2.84163975715637,1.32368803024292,-0.289357002179081,2.84131414609862,1.32198285851614,2201.833,2201.691,2204.949,2202.678,356.212646484375,44.998893737793,1.51866245269775,-0.532939374446869,-0.231098249554634,0.342687964439392,-0.532985466132485,-0.229328756186667,0.329943393154705,5
1.13999938964844,-0.300855785608292,2.83690428733826,1.33066880702972,-0.300154365346813,2.83666834237095,1.3286669406667,2201.417,2202.155,2207.673,2204.608,356.225341796875,44.9992904663086,1.51439654827118,-0.54622608423233,-0.236774355173111,0.349040806293488,-0.546515580872639,-0.235150386571708,0.338319178707607,5
1.15999603271484,-0.312045454978943,2.83205556869507,1.33778035640717,-0.311217811600473,2.8319080505249,1.33551574092274,2204.215,2204.168,2207.284,2204.986,356.239532470703,44.9995498657227,1.50979042053223,-0.559482395648956,-0.242434471845627,0.355578899383545,-0.560008885098767,-0.240956178420931,0.346672176798798,6
1.17999267578125,-0.323499321937561,2.82709407806396,1.34502339363098,-0.322550701230474,2.8270318247214,1.34253133946411,2203.703,2204.427,2209.704,2206.861,356.255310058594,44.9998550415039,1.50414049625397,-0.572693467140198,-0.248071327805519,0.362149059772491,-0.573463232144024,-0.246745208083563,0.355001058539242,6
1.19999694824219,-0.335216522216797,2.8220202922821,1.35240066051483,-0.334156660511822,2.8220381046756,1.34971598112778,2205.48,2205.828,2210.056,2207.379,356.27294921875,45.0000801086426,1.49783384799957,-0.585860073566437,-0.253686726093292,0.368863940238953,-0.58687652428584,-0.252516572968185,0.36330452533874,6
1.21999359130859,-0.347195982933044,2.81683468818665,1.35991442203522,-0.346025842163694,2.81693112739735,1.35706356997782,2207.558,2207.362,2209.345,2207.981,356.291687011719,45.0001831054688,1.49126958847046,-0.598973512649536,-0.259276628494263,0.375688463449478,-0.600231432569387,-0.258262816909651,0.371571849748761,6
1.23999786376953,-0.359436452388763,2.81153798103333,1.36756467819214,-0.358166167196084,2.81170748469733,1.36457900949675,2206.569,2207.206,2211.738,2209.684,356.311676025391,45.0003814697266,1.48364174365997,-0.612023293972015,-0.264835923910141,0.382514357566833,-0.613531154887641,-0.263985315871967,0.379805011417393,6
1.25999450683594,-0.371936678886414,2.8061306476593,1.37535440921783,-0.3705671011502,2.80637170925886,1.37225577835275,2208.883,2208.805,2210.985,2209.543,356.332885742188,45.0004577636719,1.47570586204529,-0.625013053417206,-0.270368188619614,0.389487236738205,-0.626758665639206,-0.269676744214496,0.387993470686331,6
1.27999877929688,-0.38469523191452,2.80061340332031,1.38328337669373,-0.383236695417198,2.80092033679326,1.3800988607405,2207.647,2208.537,2213.258,2210.963,356.355590820313,45.000617980957,1.46672761440277,-0.637928426265717,-0.275866687297821,0.396446466445923,-0.639917282339435,-0.275338529371412,0.396139281255613,6
1.29999542236328,-0.397710680961609,2.79498672485352,1.39135420322418,-0.396163740917024,2.79535819025452,1.38810131770546,2209.95,2209.99,2212.089,2210.61,356.379730224609,45.0006484985352,1.45749342441559,-0.65077269077301,-0.281334400177002,0.403542131185532,-0.652990303744023,-0.280963485263868,0.404232104259424,6
1.31999969482422,-0.410981327295303,2.78925156593323,1.39956629276276,-0.409356423791328,2.7896817473746,1.39626821685929,2208.581,2209.514,2214.007,2211.896,356.405426025391,45.0007591247559,1.4472359418869,-0.663530647754669,-0.28676363825798,0.410604327917099,-0.665981146317813,-0.286553081901244,0.412274054652251,6
1.33999633789063,-0.424505442380905,2.78340840339661,1.40792202949524,-0.422802873722428,2.78389611561957,1.40459220990988,2210.817,2210.779,2212.445,2211.37,356.432525634766,45.0007171630859,1.43673586845398,-0.676205456256866,-0.292157173156738,0.417785674333572,-0.678873453515705,-0.29210028151913,0.420255006953505,6
1.35999298095703,-0.438281059265137,2.77745819091797,1.41642022132874,-0.436506138147829,2.77799998376221,1.41307518336622,2209.185,2210.11,2214.182,2212.467,356.461059570313,45.0007820129395,1.42522203922272,-0.688781917095184,-0.297507494688034,0.424910396337509,-0.691665859866827,-0.297604496593558,0.428174115871672,6
1.37999725341797,-0.452306300401688,2.77140188217163,1.42506241798401,-0.450469530727146,2.77199192602736,1.42171918854144,2210.128,2210.657,2213.661,2212.054,356.491394042969,45.0007705688477,1.41311693191528,-0.701261818408966,-0.302816927433014,0.432107180356979,-0.704356955827446,-0.303065120637236,0.436030508832034,6
1.39999389648438,-0.466579049825668,2.76524019241333,1.43384921550751,-0.464680216184654,2.76587746507559,1.43051627978847,2211.424,2211.348,2211.959,2211.734,356.522705078125,45.0006523132324,1.40085387229919,-0.713636815547943,-0.308081388473511,0.439337939023972,-0.716930938559026,-0.308475354130225,0.443814403124744,6
1.41999816894531,-0.481096982955933,2.75897431373596,1.44277882575989,-0.47914673136562,2.75965292774086,1.43947174182117,2209.279,2210.202,2213.725,2212.643,356.555206298828,45.0006484985352,1.3875412940979,-0.725896716117859,-0.313295751810074,0.44648265838623,-0.729391385793766,-0.313836736470737,0.451528013536465,6
1.43999481201172,-0.495857924222946,2.75260496139526,1.4518529176712,-0.493855616658466,2.75332410531803,1.44857724249882,2210.918,2211.001,2211.936,2211.504,356.588928222656,45.0005264282227,1.37402105331421,-0.738045871257782,-0.318463921546936,0.453706026077271,-0.7417228873516,-0.319142637088802,0.459161800431646,6
1.45999908447266,-0.510859310626984,2.74613332748413,1.46106946468353,-0.508815552717244,2.74688726276417,1.45783815555978,2208.571,2209.765,2213.527,2212.141,356.624114990234,45.0005264282227,1.35947847366333,-0.750069916248322,-0.323578685522079,0.46082878112793,-0.753929052770513,-0.324394609067776,0.466717998286247,6
1.47999572753906,-0.526098787784576,2.73956036567688,1.47042989730835,-0.524012471663969,2.74034845309416,1.46724577231745,2210.255,2210.432,2211.275,2210.816,356.660766601563,45.0003890991211,1.34478080272675,-0.761972665786743,-0.328643262386322,0.468020409345627,-0.765994882555672,-0.329586198544069,0.474187321698441,6
1.5,-0.541573524475098,2.73288726806641,1.47993171215057,-0.539455198877605,2.73370387899399,1.4768055561018,2207.832,2208.994,2212.474,2211.369,356.698944091797,45.0003547668457,1.32906246185303,-0.773739099502563,-0.333649665117264,0.475092977285385,-0.777924000354858,-0.334718964672088,0.481572013878822,6
1.51999664306641,-0.557281017303467,2.72611522674561,1.4895761013031,-0.555129074991064,2.72695984797977,1.48650843206629,2209.428,2209.534,2209.906,2209.855,356.738464355469,45.000171661377,1.31321573257446,-0.785372734069824,-0.338601022958755,0.482216656208038,-0.789701834723693,-0.339786637766398,0.488863054409188,6
1.53999328613281,-0.573218166828156,2.71924543380737,1.49936008453369,-0.571036956668503,2.72011513090874,1.49635616862212,2206.762,2207.888,2210.985,2210.285,356.779327392578,45.000114440918,1.29633867740631,-0.796859085559845,-0.343489527702332,0.489201307296753,-0.801327600455846,-0.344788879974649,0.496059957209413,6
1.55999755859375,-0.589382112026215,2.7122790813446,1.50928390026093,-0.587181951496087,2.71316839067337,1.50635068951315,2206.988,2207.687,2209.621,2208.963,356.821990966797,44.9999847412109,1.27892100811005,-0.808200240135193,-0.348317831754684,0.496190518140793,-0.812800388649436,-0.349725300221754,0.503162159625937,6
1.57999420166016,-0.60576993227005,2.7052173614502,1.51934683322906,-0.603548545866849,2.70612630234534,1.51648239107766,2207.6,2207.668,2207.028,2207.772,356.865539550781,44.9997482299805,1.26146483421326,-0.819388270378113,-0.353081941604614,0.503144443035126,-0.824106301004481,-0.354589918457504,0.510161057949003,6
1.59999847412109,-0.622378170490265,2.6980619430542,1.529545545578,-0.620145926473056,2.69898491314762,1.52675696031579,2204.463,2205.625,2208.235,2208.048,356.910217285156,44.9996757507324,1.24296534061432,-0.830413937568665,-0.357776880264282,0.509935796260834,-0.835248923368005,-0.359384277571697,0.517058871988737,5
1.6199951171875,-0.63920384645462,2.69081377983093,1.5398805141449,-0.636958033083316,2.69175113334911,1.53716445517924,2205.577,2205.764,2205.553,2206.041,356.9560546875,44.9994735717773,1.22435390949249,-0.841281890869141,-0.362406611442566,0.5167475938797,-0.846214826007804,-0.364102599125749,0.523847288101157,5
1.63999938964844,-0.656243324279785,2.68347454071045,1.55034828186035,-0.653994195024907,2.68442094880091,1.54771065096602,2202.291,2203.727,2206.604,2206.056,357.003326416016,44.9994087219238,1.20474076271057,-0.851978600025177,-0.366964131593704,0.523385763168335,-0.857007552155828,-0.368746407673381,0.530528499715628,5
1.65999603271484,-0.673493564128876,2.67604541778564,1.56094908714294,-0.671237824488362,2.67700149677403,1.55838527903188,2203.507,2203.779,2203.502,2203.912,357.051971435547,44.999210357666,1.18507850170135,-0.862508118152618,-0.371452540159225,0.530038177967072,-0.867614155697522,-0.373310132863173,0.537094492570531,5
1.67999267578125,-0.690950691699982,2.66852807998657,1.57167911529541,-0.688691692550512,2.66949158495151,1.56919005480539,2200.195,2201.572,2204.21,2203.914,357.10205078125,44.9991416931152,1.16440951824188,-0.872856438159943,-0.37586435675621,0.536502778530121,-0.878034183119987,-0.377793579561193,0.543544985919778,5
1.69999694824219,-0.708611130714417,2.66092395782471,1.5825377702713,-0.706358800111611,2.66188992212981,1.58012683598675,2200.105,2200.931,2202.226,2202.059,357.153961181641,44.9989929199219,1.14326274394989,-0.883025646209717,-0.380201697349548,0.542934715747833,-0.888267004546665,-0.382196476749158,0.549879589839776,5
1.71999359130859,-0.726471304893494,2.6532347202301,1.59352362155914,-0.72422180503422,2.6542039701462,1.59118488696678,2200.411,2200.485,2198.983,2200.397,357.206665039063,44.9987258911133,1.12215912342072,-0.893007814884186,-0.38446044921875,0.549290299415588,-0.898300426012065,-0.386513577704374,0.556090755685004,5
1.73999786376953,-0.744527280330658,2.64546203613281,1.60463237762451,-0.742290383213093,2.64642956573347,1.60237019758524,2196.73,2197.939,2199.793,2200.335,357.260375976563,44.9986267089844,1.10002458095551,-0.902794778347015,-0.388635843992233,0.55543714761734,-0.908137821269591,-0.39074633405868,0.562180571969536,5
1.75999450683594,-0.762775123119354,2.63760733604431,1.61586368083954,-0.760546715064628,2.63857437616062,1.61367173667103,2197.492,2197.708,2196.685,2197.807,357.315093994141,44.9984092712402,1.07785403728485,-0.912391066551208,-0.392731964588165,0.561567366123199,-0.917767514700581,-0.394889722119545,0.568141810929231,4
1.77999877929688,-0.781210839748383,2.62967252731323,1.62721335887909,-0.779000609654483,2.63063418086074,1.62509557650306,2193.683,2195.238,2197.448,2197.471,357.371124267578,44.9983558654785,1.05472218990326,-0.921784996986389,-0.396742552518845,0.567484498023987,-0.927192788821983,-0.398945154262308,0.57397650459845,4
1.79999542236328,-0.799830436706543,2.62165904045105,1.6386810541153,-0.797633790944145,2.62261684350262,1.63663040334288,2194.605,2194.908,2193.952,2194.893,357.428405761719,44.9981460571289,1.03160440921783,-0.930980145931244,-0.400670617818832,0.573384165763855,-0.936402499096495,-0.402907835303912,0.579677753977713,4
1.81999969482422,-0.818629682064056,2.6135687828064,1.65026223659515,-0.816456197270346,2.61451808789761,1.64828236949435,2190.835,2192.355,2194.368,2194.548,357.487060546875,44.9980888366699,1.00754404067993,-0.939964294433594,-0.404509156942368,0.579060614109039,-0.945399824400851,-0.406779133026206,0.585247526943151,3
1.83999633789063,-0.837604463100433,2.60540366172791,1.66195642948151,-0.835449117627072,2.60634596486888,1.66003989195343,2191.783,2191.983,2190.613,2191.876,357.546844482422,44.9978637695313,0.983536779880524,-0.948740661144257,-0.40826091170311,0.584709048271179,-0.954174163352093,-0.410554485950274,0.590679260733698,3
1.85999298095703,-0.85675048828125,2.59716534614563,1.67375886440277,-0.854615270215496,2.5980993048504,1.67190465341613,2187.904,2189.287,2190.934,2191.539,357.607818603516,44.9977874755859,0.958562552928925,-0.957297801971436,-0.411919176578522,0.590122580528259,-0.962725359910172,-0.414233826936439,0.595972858753131,0
1.87999725341797,-0.876063168048859,2.58885550498962,1.68566811084747,-0.873957566090845,2.58977685529642,1.6838784559643,2187.353,2188.225,2188.653,2189.207,357.670379638672,44.9976577758789,0.933171510696411,-0.965637624263763,-0.415486514568329,0.595463216304779,-0.971053025860989,-0.417816988947023,0.601128080678429,0
1.89999389648438,-0.895538330078125,2.5804762840271,1.6976820230484,-0.893456683142228,2.58138692997148,1.69594933829086,2187.311,2187.455,2185.047,2187.025,357.733551025391,44.9974060058594,0.907969176769257,-0.973753750324249,-0.418959349393845,0.600692987442017,-0.979147395688901,-0.421299770153459,0.606138881190213,0
1.91999816894531,-0.915171086788177,2.57202959060669,1.70979559421539,-0.913122862707269,2.57292512231409,1.70812364027167,2183.089,2184.425,2185.642,2186.725,357.797576904297,44.9973449707031,0.881777584552765,-0.981640160083771,-0.422333657741547,0.605676233768463,-0.987011339258123,-0.424683405378145,0.611007036871143,0
1.93999481201172,-0.934957027435303,2.56351733207703,1.72200787067413,-0.932936403420974,2.56439990927123,1.72038916582329,2183.69,2183.914,2182.086,2183.712,357.862426757813,44.9971542358398,0.855677485466003,-0.989300549030304,-0.425613224506378,0.610616087913513,-0.994635661494588,-0.427963938237592,0.615726855532351,0
1.95999908447266,-0.954891622066498,2.55494141578674,1.73431396484375,-0.952907658613767,2.55580683609405,1.73275232415044,2179.428,2181.041,2182.575,2183.184,357.928497314453,44.9971313476563,0.828656494617462,-0.996725559234619,-0.428792595863342,0.615307629108429,-1.00202309041976,-0.431142542523221,0.620300025949072,0
1.97999572753906,-0.974969863891602,2.54630398750305,1.74671304225922,-0.973016570682103,2.54715453300902,1.74520069864106,2180.165,2180.457,2178.727,2180.18,357.99560546875,44.996940612793,0.801759600639343,-1.00391781330109,-0.431874394416809,0.619954705238342,-1.00916501115878,-0.434215511495054,0.624721215103391,0
1.99999237060547,-0.995187222957611,2.53760695457458,1.75919997692108,-0.993265847141347,2.5384418350479,1.75773596537614,2176.064,2177.584,2178.84,2179.637,358.063873291016,44.9969024658203,0.773980796337128,-1.01086807250977,-0.434852749109268,0.624349892139435,-1.01606141646104,-0.437182842033357,0.628990418506833,0
2.01999664306641,-1.01553881168365,2.52885246276855,1.77177309989929,-1.01365835337184,2.52966750931758,1.77035989816261,2175.424,2176.305,2176.273,2177.125,358.133666992188,44.9967994689941,0.745854377746582,-1.01757705211639,-0.437729507684708,0.628655195236206,-1.02271203275434,-0.440044416427654,0.633107466805174,0
2.03999328613281,-1.03601956367493,2.52004241943359,1.78442978858948,-1.03417354141348,2.52084039703127,1.78305977683431,2175.346,2175.327,2172.336,2174.793,358.203857421875,44.9965705871582,0.71796053647995,-1.02403938770294,-0.440501302480698,0.632832765579224,-1.02910913225408,-0.442796909628122,0.637067576131623,0
2.05999755859375,-1.05662453174591,2.51117920875549,1.79716467857361,-1.05482201812353,2.5119559343546,1.79584216754118,2170.86,2172.235,2172.786,2174.284,358.274688720703,44.9965133666992,0.689186215400696,-1.03025054931641,-0.443164944648743,0.636742532253265,-1.03525504859546,-0.445441325732794,0.640872191117535,0
2.07999420166016,-1.07734882831573,2.50226473808289,1.80997657775879,-1.07558293843174,2.50302309033894,1.80869416619175,2171.378,2171.495,2169.074,2171.133,358.346160888672,44.9963417053223,0.660570323467255,-1.03621363639832,-0.445723861455917,0.640593886375427,-1.0411426556922,-0.447974598585819,0.644516900376035,0
2.09999847412109,-1.09818732738495,2.49330115318298,1.82286012172699,-1.09646699912883,2.4940372624541,1.82162239460902,2166.836,2168.494,2169.527,2170.488,358.418609619141,44.9963493347168,0.631098628044128,-1.04192185401917,-0.448173642158508,0.64417964220047,-1.04677411523768,-0.450397658303471,0.648003042098304,0
2.1199951171875,-1.1191349029541,2.48429083824158,1.83581435680389,-1.11745308225396,2.48500753716864,1.83461377976925,2167.556,2167.789,2165.526,2167.275,358.491912841797,44.9961853027344,0.601851105690002,-1.0473769903183,-0.450516730546951,0.64771044254303,-1.0521429102862,-0.45270770082608,0.651326581984514,0
2.13999938964844,-1.14018630981445,2.47523593902588,1.84883379936218,-1.138551967509,2.47592927627801,1.8476749948214,2163.226,2164.756,2165.584,2166.706,358.566253662109,44.9961814880371,0.57176685333252,-1.05257213115692,-0.452748239040375,0.650974452495575,-1.05725102347782,-0.454905579228273,0.654488747383304,0
2.15999603271484,-1.16133630275726,2.4661386013031,1.86191725730896,-1.15974228854654,2.4668116731246,1.86079281297862,2164.022,2164.063,2161.371,2163.478,358.641265869141,44.9959907531738,0.541937053203583,-1.05750858783722,-0.454870074987411,0.654175519943237,-1.06209255378819,-0.456988754464129,0.657485885279498,0
2.17999267578125,-1.18257999420166,2.45700097084045,1.87505924701691,-1.18102676265167,2.45765355853653,1.8739689163698,2159.571,2161.038,2161.464,2162.885,358.717071533203,44.9959869384766,0.511314570903778,-1.06218028068542,-0.456877917051315,0.657101035118103,-1.06666760390386,-0.458957270716794,0.660318059240953,0
2.19999694824219,-1.20391178131104,2.44782543182373,1.8882577419281,-1.20240821395574,2.44845371736898,1.88720505326679,2158.785,2159.608,2158.896,2160.193,358.794067382813,44.9959106445313,0.480443447828293,-1.06658804416656,-0.458773612976074,0.659922659397125,-1.07097597819164,-0.460811043810786,0.662985148161421,0
2.21999359130859,-1.22532618045807,2.43861436843872,1.90150988101959,-1.22386495005255,2.43922148325834,1.90048779503681,2158.613,2158.504,2154.916,2157.692,358.871185302734,44.9957122802734,0.449921041727066,-1.07072782516479,-0.46055480837822,0.662604928016663,-1.07501271071614,-0.462547937042828,0.665484077890325,0
2.23999786376953,-1.24681830406189,2.42936992645264,1.91481006145477,-1.24540792547886,2.42995214277345,1.91382392305993,2153.962,2155.301,2155.288,2157.153,358.94873046875,44.9957160949707,0.418603748083115,-1.07459783554077,-0.462219297885895,0.66500848531723,-1.07877930973132,-0.464168599372462,0.667815782108711,0
2.25999450683594,-1.26838231086731,2.42009449005127,1.92815685272217,-1.26701526177039,2.4206551096063,1.92719989352455,2154.404,2154.445,2151.566,2153.859,359.026641845703,44.9955825805664,0.387539654970169,-1.07819962501526,-0.463769882917404,0.66734117269516,-1.08227143928024,-0.465671165158559,0.669977576652695,0
2.27999877929688,-1.29001295566559,2.41079044342041,1.94154489040375,-1.28869796983554,2.41132564607061,1.9406225227075,2149.82,2151.424,2151.85,2153.154,359.105346679688,44.9956245422363,0.355733811855316,-1.08152973651886,-0.465203642845154,0.669402122497559,-1.08549040888332,-0.467056197851165,0.67197027217779,0
2.29999542236328,-1.31170463562012,2.40145993232727,1.95497286319733,-1.31043401044317,2.40197323503182,1.95407816727483,2150.574,2150.603,2147.739,2149.861,359.184600830078,44.995491027832,0.324248045682907,-1.08458840847015,-0.466522216796875,0.671397387981415,-1.08843251702753,-0.468322104792631,0.6737915772711,0
2.31999969482422,-1.33345222473145,2.39210557937622,1.9684351682663,-1.33223444283894,2.39259311800549,1.96757367342642,2146.081,2147.602,2147.772,2149.229,359.264587402344,44.9955177307129,0.292064934968948,-1.08737230300903,-0.467722177505493,0.673115432262421,-1.09109887036509,-0.469469362144493,0.675442177003072,0
2.33999633789063,-1.35524988174438,2.38272953033447,1.98193037509918,-1.35407709248145,2.38319483607731,1.98109531406483,2146.889,2146.718,2143.562,2146.005,359.344970703125,44.9953689575195,0.260187923908234,-1.08988118171692,-0.468805015087128,0.674762547016144,-1.09348640563071,-0.470496651869278,0.67692017506657,0
2.35999298095703,-1.37709200382233,2.37333416938782,1.99545300006866,-1.37596470003558,2.37377721001573,1.99464478579218,2142.352,2143.768,2143.615,2145.333,359.425872802734,44.9953956604004,0.227640360593796,-1.09211277961731,-0.469768017530441,0.676128566265106,-1.09559527181965,-0.471404038075479,0.678225663696753,0
2.37999725341797,-1.39897346496582,2.36392188072205,2.00900077819824,-1.39790005743958,2.36433903852774,2.00822381695123,2141.644,2142.328,2140.959,2142.561,359.507659912109,44.9953498840332,0.19499397277832,-1.09406661987305,-0.470612585544586,0.677385926246643,-1.09742530100382,-0.472191448508328,0.679358538938131,0
2.39999389648438,-1.42088830471039,2.35449504852295,2.02257061004639,-1.41986083522252,2.35488992936084,2.02181858453579,2141.382,2141.105,2137.075,2140.1,359.589233398438,44.9951782226563,0.162778124213219,-1.09574031829834,-0.47133681178093,0.678494215011597,-1.09897439291323,-0.472857979480329,0.680317500623536,0
2.41999816894531,-1.44283103942871,2.3450562953949,2.03615713119507,-1.44185817738692,2.34542508756209,2.03543598721428,2136.682,2137.958,2137.443,2139.548,359.671020507813,44.9952125549316,0.129880994558334,-1.09713494777679,-0.471939951181412,0.679322063922882,-1.10024313330221,-0.473403883025206,0.681102911362803,0
2.43999481201172,-1.46479606628418,2.33560752868652,2.04975867271423,-1.46386968334064,2.3359541514805,2.04906215795307,2137.262,2137.07,2133.665,2136.206,359.752868652344,44.9951133728027,0.097354382276535,-1.09825026988983,-0.472424060106277,0.680076420307159,-1.10123006676374,-0.473828532921971,0.681713870189648,0
2.45999908447266,-1.48677778244019,2.32615208625793,2.06336975097656,-1.48590651627916,2.32647231790489,2.06270400730194,2132.549,2134.125,2134.007,2135.527,359.835205078125,44.9951820373535,0.0642277151346207,-1.09908640384674,-0.472787767648697,0.680553317070007,-1.10193556692257,-0.474132089930926,0.682150608395601,0
2.47999572753906,-1.50877046585083,2.31669139862061,2.07698893547058,-1.50794623031618,2.31698924467309,2.07634764018804,2133.476,2133.17,2129.864,2132.301,359.917785644531,44.9950790405273,0.0314723998308182,-1.09964215755463,-0.473031878471375,0.680964171886444,-1.10235882472314,-0.474314205938057,0.682412625136718,0
2.49999237060547,-1.53076887130737,2.30722808837891,2.09061074256897,-1.52999158792198,2.30750374317131,2.08999476671204,2128.885,2130.348,2129.954,2131.626,0.000780984351877123,44.9951400756836,-0.00182958587538451,-1.09991765022278,-0.473154902458191,0.681093990802765,-1.10250000048238,-0.474374949923262,0.68250001965682,0
2.51999664306641,-1.55276703834534,2.29776525497437,2.10423302650452,-1.55204535801192,2.29801462201262,2.10364710096447,2128.266,2128.85,2127.303,2128.944,0.08453169465065,44.9951133728027,359.964813232422,-1.09991133213043,-0.473157465457916,0.681115448474884,-1.10235893238473,-0.47431425226183,0.68241269178437,0
2.53999328613281,-1.5747594833374,2.28830480575562,2.11785292625427,-1.57408507527774,2.28853154739156,2.11729073584934,2128.267,2127.655,2123.245,2126.508,0.167858511209488,44.9949493408203,359.931976318359,-1.09962165355682,-0.473038017749786,0.680992007255554,-1.10193578218388,-0.474132182551855,0.682150741652607,0
2.55999755859375,-1.59674048423767,2.27884864807129,2.13146448135376,-1.59612191359838,2.27904971150017,2.13093258853001,2123.518,2124.623,2123.624,2126.015,0.251066774129868,44.9949951171875,359.898529052734,-1.09905171394348,-0.47279679775238,0.680583715438843,-1.10123038958312,-0.473828671822132,0.681714070030222,0
2.57999420166016,-1.61870443820953,2.26939988136292,2.14506649971008,-1.61813342708139,2.26957877217893,2.14455876392979,2124.042,2123.849,2120.069,2122.575,0.334091752767563,44.9949150085449,359.865631103516,-1.09820020198822,-0.472435474395752,0.680097937583923,-1.10024356351463,-0.47340406813359,0.681103177684783,0
2.59999847412109,-1.64064598083496,2.25996065139771,2.15865325927734,-1.64013077892511,2.26011392621545,2.15817617260023,2119.498,2120.814,2120.336,2122.12,0.417369157075882,44.9950103759766,359.832153320313,-1.09707021713257,-0.471953690052032,0.679343402385712,-1.09897493039424,-0.472858210743393,0.680317833349887,0
2.6199951171875,-1.66255903244019,2.25053381919861,2.17222356796265,-1.66209156852628,2.2506648119635,2.17177094750084,2120.295,2119.99,2116.466,2118.827,0.500665843486786,44.9949340820313,359.799194335938,-1.09565925598145,-0.47135192155838,0.678516328334808,-1.09742594550583,-0.472191725819537,0.679358937915576,0
2.63999938964844,-1.68443846702576,2.24112129211426,2.18577194213867,-1.68402693989188,2.24122663446822,2.18534998730279,2116.004,2117.132,2116.383,2118.33,0.584167957305908,44.9949989318848,359.765716552734,-1.0939701795578,-0.470629721879959,0.677421271800995,-1.09559602313537,-0.471404361345641,0.67822612879697,0
2.65999603271484,-1.7062783241272,2.23172545433044,2.19929695129395,-1.70591456353497,2.23180900148401,2.19889946898997,2116.816,2116.351,2112.464,2115.069,0.66747909784317,44.9948959350586,359.732788085938,-1.09200024604797,-0.469787448644638,0.676246762275696,-1.09348726343002,-0.470497020956359,0.676920706085208,0
2.67999267578125,-1.72807347774506,2.22234869003296,2.21279287338257,-1.72775723139253,2.2224107117184,2.21242112090437,2112.414,2113.568,2112.522,2114.551,0.750813484191895,44.9949607849121,359.699432373047,-1.0897536277771,-0.468825221061707,0.674800932407379,-1.09109983431736,-0.469469776906228,0.675442773735451,0
2.69999694824219,-1.74981808662415,2.21299409866333,2.22625780105591,-1.74955768413056,2.21303058593937,2.22591663964878,2111.783,2112.124,2110.093,2111.953,0.834474921226501,44.9949645996094,359.666137695313,-1.08722794055939,-0.467743456363678,0.673244774341583,-1.08843358680109,-0.468322565086308,0.673792239511893,0
2.71999359130859,-1.77150642871857,2.20366334915161,2.23968863487244,-1.77129374718429,2.20367816524265,2.23937229811132,2111.779,2110.953,2106.326,2109.598,0.917393982410431,44.9948425292969,359.633453369141,-1.08442330360413,-0.46654149889946,0.671546697616577,-1.08549158402443,-0.467056703481556,0.671970999646117,0
2.73999786376953,-1.79313349723816,2.19435882568359,2.25308012962341,-1.79297647980783,2.19434869114016,2.25279494249708,2107.194,2108.171,2106.723,2109.104,0.999934554100037,44.9949226379395,359.600341796875,-1.08134543895721,-0.465220838785172,0.669575810432434,-1.08227271937422,-0.465671715947234,0.669978369091845,0
2.75999450683594,-1.81469333171844,2.18508338928223,2.26643061637878,-1.81458384274179,2.18505164650952,2.26617092945464,2107.778,2107.265,2103.369,2105.945,1.08201122283936,44.9948577880859,359.567779541016,-1.07799160480499,-0.463782131671906,0.667528390884399,-1.07878069424208,-0.464169195088763,0.667816639186824,0
2.77999877929688,-1.83618068695068,2.17583870887756,2.27973508834839,-1.83612684690458,2.17578229366013,2.27950707526701,2103.488,2104.522,2103.558,2105.484,1.16403794288635,44.9949645996094,359.534851074219,-1.07436776161194,-0.462226837873459,0.665225267410278,-1.07501419914593,-0.462548577472581,0.665484999299265,0
2.79999542236328,-1.85759007930756,2.16662740707397,2.29299211502075,-1.85758361379882,2.16655004629821,2.2927898361021,2104.289,2103.819,2099.942,2102.252,1.24574291706085,44.9949073791504,359.502563476563,-1.07047021389008,-0.46055468916893,0.662847936153412,-1.07097756992209,-0.460811728687929,0.662986133518392,0
2.81999206542969,-1.87891602516174,2.15745234489441,2.30619645118713,-1.87895695992541,2.1573536925621,2.30602095550813,2100.125,2101.103,2099.948,2101.904,1.32736992835999,44.9950065612793,359.469940185547,-1.06630539894104,-0.458766609430313,0.660214066505432,-1.06667099276523,-0.458958728849171,0.660320157107579,0
2.83999633789063,-1.90015339851379,2.14831519126892,2.31934595108032,-1.90024960698239,2.14819206138118,2.31920211834584,2099.8,2099.741,2097.405,2099.425,1.40906155109406,44.9950103759766,359.437438964844,-1.06186974048615,-0.456862449645996,0.657477259635925,-1.06209435025759,-0.456989527434725,0.657486997379635,0
2.85999298095703,-1.92129683494568,2.1392183303833,2.33243775367737,-1.92143996495749,2.13907444233456,2.33231995936916,2099.651,2098.783,2093.958,2097.083,1.48976421356201,44.9949035644531,359.405639648438,-1.05716490745544,-0.454842239618301,0.654594719409943,-1.0572529212638,-0.454906395792563,0.654489922203231,0
2.87999725341797,-1.9423406124115,2.13016414642334,2.34546685218811,-1.94253888918396,2.12999616467562,2.34538119854648,2095.318,2096.028,2094.34,2096.799,1.56987059116364,44.9949798583984,359.373565673828,-1.0521981716156,-0.452708095312119,0.651455044746399,-1.05214490868305,-0.452708560680416,0.651327819087361,0
2.89999389648438,-1.96328008174896,2.12115478515625,2.35843181610107,-1.96352501326936,2.1209664217661,2.35837260906308,2096.075,2095.277,2091.072,2093.667,1.64921236038208,44.9949417114258,359.342132568359,-1.04696571826935,-0.450460344552994,0.648243844509125,-1.04677621342161,-0.450398561093403,0.648004340974112,0
2.91999816894531,-1.98410952091217,2.11219310760498,2.37132740020752,-1.98440911693069,2.11198057539494,2.37130086407726,2091.778,2092.682,2091.441,2093.358,1.72824680805206,44.9950637817383,359.310424804688,-1.04147636890411,-0.448101460933685,0.644782841205597,-1.04114485287423,-0.447975543971863,0.644518260536375,0
2.93999481201172,-2.00482392311096,2.10328054428101,2.38415265083313,-2.00517008215741,2.10304771205211,2.38415289053452,2092.836,2091.903,2087.907,2090.359,1.80666768550873,44.9950141906738,359.279388427734,-1.03572523593903,-0.445630729198456,0.641258597373962,-1.03525734386973,-0.445442313325187,0.640873612001643,0
2.95999908447266,-2.02541851997375,2.09441924095154,2.39690232276917,-2.02581860575671,2.0941632292003,2.39693531026807,2088.744,2089.555,2088.024,2089.963,1.88472306728363,44.9951133728027,359.248168945313,-1.0297212600708,-0.443050533533096,0.637486159801483,-1.02911152474823,-0.442797939051516,0.637069057199471,0
2.97999572753906,-2.04588770866394,2.08561229705811,2.40957522392273,-2.04633384260397,2.08533609591429,2.40963521915279,2089.653,2088.771,2084.649,2087.079,1.96206176280975,44.9950637817383,359.217651367188,-1.02345979213715,-0.44036003947258,0.633643090724945,-1.02271452148052,-0.440045487257004,0.633109007445237,0
2.99999237060547,-2.06622648239136,2.07686114311218,2.42216658592224,-2.0667186476113,2.07656508380516,2.42225438451524,2085.905,2086.308,2084.567,2086.836,2.03885293006897,44.9951667785645,359.186920166016,-1.01694989204407,-0.437561750411987,0.629563570022583,-1.01606658442979,-0.437185065665935,0.628993617725676,0
3.01999664306641,-2.08643054962158,2.06816816329956,2.43467426300049,-2.08697572864857,2.06784902775215,2.4347944826559,2085.453,2085.256,2082.46,2084.395,2.11525344848633,44.9951858520508,359.156555175781,-1.01018846035004,-0.434655725955963,0.625380873680115,-1.00916768936771,-0.434216663853534,0.624722873042298,0
3.03999328613281,-2.10649418830872,2.05953478813171,2.4470956325531,-2.10708469520508,2.05919670122237,2.4472428908773,2085.339,2084.164,2079.456,2082.445,2.1903874874115,44.9951095581055,359.126922607422,-1.003178358078,-0.431642562150955,0.621066331863403,-1.00202586176059,-0.431143734953757,0.620301741541063,0
3.05999755859375,-2.12641263008118,2.05096459388733,2.4594259262085,-2.12705600675913,2.05060360379452,2.45960608409476,2081.379,2081.926,2079.842,2082.023,2.2646791934967,44.9952239990234,359.097259521484,-0.995928585529327,-0.428525298833847,0.616519212722778,-0.994638524886308,-0.427965170275055,0.615728628108227,0
3.07999420166016,-2.14618158340454,2.04245853424072,2.47166419029236,-2.14686960564145,2.04207836572333,2.47187164565552,2082.312,2080.973,2076.78,2079.428,2.33788299560547,44.9951934814453,359.068237304688,-0.988434910774231,-0.42530345916748,0.611909568309784,-0.987014293508169,-0.424684676509408,0.611008865692653,0
3.09999847412109,-2.16579556465149,2.03401899337769,2.48380565643311,-2.16653584520328,2.033616532251,2.4840459847772,2078.293,2078.852,2077.194,2079.089,2.41042518615723,44.9953346252441,359.039154052734,-0.980708479881287,-0.421981006860733,0.607068955898285,-0.979150439632689,-0.421301079877433,0.606140765536421,0
3.1199951171875,-2.18525075912476,2.02564787864685,2.49584913253784,-2.18603502400946,2.02522658035469,2.49611690533293,2079.347,2078.229,2074.073,2076.281,2.48201775550842,44.9953117370605,359.010864257813,-0.972743809223175,-0.418556928634644,0.60217148065567,-0.971056158224178,-0.417818336715394,0.601130019760458,0
3.13999938964844,-2.20454168319702,2.01734709739685,2.50779008865356,-2.20537738341953,2.01690410346351,2.50809074721212,2075.642,2075.988,2074.225,2076.186,2.55292415618896,44.9954261779785,358.982482910156,-0.964552342891693,-0.415034592151642,0.597051322460175,-0.962728579444533,-0.414235212212131,0.595974851798267,0
3.15999603271484,-2.22366428375244,2.0091187953949,2.51962757110596,-2.22454360124808,2.00865741537402,2.51995554906156,2076.715,2075.461,2071.105,2073.419,2.62273216247559,44.9953918457031,358.954986572266,-0.956128895282745,-0.411412984132767,0.591871500015259,-0.95417746870157,-0.410555908149813,0.590681306902481,0
3.17999267578125,-2.24261403083801,2.00096464157104,2.53135704994202,-2.24353658854737,2.00048526354177,2.53171311296128,2073.157,2073.29,2071.214,2073.342,2.69164228439331,44.9955024719238,358.927459716797,-0.947485327720642,-0.407695710659027,0.586474061012268,-0.945403214201559,-0.406780591562751,0.585249625391267,0
3.19999694824219,-2.26138639450073,1.99288725852966,2.54297685623169,-2.2623590635174,1.99238647840124,2.54336512160655,2072.879,2072.304,2069.397,2071.227,2.75981688499451,44.9955406188965,358.900390625,-0.938618183135986,-0.403882652521133,0.580989062786102,-0.936405971974636,-0.402909329586355,0.579679903854719,0
3.21999359130859,-2.27997708320618,1.98488759994507,2.55448460578918,-2.28099231507127,1.9843691108104,2.55489999194326,2073.02,2071.407,2066.625,2069.468,2.82639622688293,44.995491027832,358.874145507813,-0.929531633853912,-0.399974972009659,0.575391829013824,-0.927196343299057,-0.398946683654493,0.573978704989081,0
3.23999786376953,-2.29838180541992,1.97696816921234,2.56587624549866,-2.29944628156995,1.97642888457015,2.56632387629027,2069.391,2069.453,2067.084,2069.253,2.89176225662231,44.9956130981445,358.847991943359,-0.92023640871048,-0.395976662635803,0.569584906101227,-0.917771149318993,-0.394891285994308,0.568144060931169,0
3.25999450683594,-2.31659650802612,1.96913015842438,2.57715082168579,-2.31770268688992,1.96857366338589,2.57762546085652,2070.215,2068.746,2064.567,2066.855,2.95574927330017,44.9956169128418,358.822631835938,-0.91072815656662,-0.391887247562408,0.563723504543304,-0.90814153446928,-0.390747931744771,0.562182870617026,0
3.27999877929688,-2.33461666107178,1.96137619018555,2.58830404281616,-2.33577134012187,1.96079922667992,2.58881081793642,2066.794,2066.934,2064.917,2066.635,3.01876044273376,44.9957542419434,358.797424316406,-0.901019394397736,-0.387711256742477,0.557666182518005,-0.898304216251578,-0.386515208538549,0.556093102023818,0
3.29999542236328,-2.3524386882782,1.95370697975159,2.59933519363403,-2.35363442159312,1.95311324175956,2.5998689163037,2067.896,2066.307,2062.165,2064.315,3.08045792579651,44.9957542419434,358.773040771484,-0.89110541343689,-0.383447498083115,0.551561772823334,-0.888270870184445,-0.382198140025101,0.549881982853707,0
3.31999206542969,-2.37005853652954,1.94612514972687,2.61024045944214,-2.37129490830989,1.94551442770222,2.61080159886703,2064.614,2064.605,2062.387,2064.162,3.14108443260193,44.9958763122559,358.748870849609,-0.880999147891998,-0.379100531339645,0.545263350009918,-0.878042061913513,-0.37779696958594,0.54354986326829,0
3.33999633789063,-2.38747262954712,1.938631772995,2.621018409729,-2.38875555478454,1.93800159931817,2.62161057080077,2064.647,2063.614,2060.641,2062.432,3.20071578025818,44.9959259033203,358.725158691406,-0.870697140693665,-0.374669641256332,0.538895547389984,-0.867618167158097,-0.373311858882592,0.53709697585572,0
3.35999298095703,-2.40467667579651,1.93122863769531,2.63166689872742,-2.40599926516969,1.93058211247293,2.63228524896102,2064.677,2062.998,2058.315,2060.819,3.25856900215149,44.9958915710449,358.702423095703,-0.860204994678497,-0.370156794786453,0.532424330711365,-0.857011633930453,-0.36874816394697,0.530531026528563,0
3.37999725341797,-2.42166709899902,1.92391741275787,2.64218235015869,-2.42303550945299,1.9232518924954,2.64283149572124,2061.704,2061.255,2058.606,2060.732,3.31493878364563,44.9960021972656,358.679870605469,-0.849533319473267,-0.365565866231918,0.525776624679565,-0.846218976345105,-0.364104384899943,0.523849857357654,0
3.39999389648438,-2.43844079971313,1.91669940948486,2.65256404876709,-2.43984769972619,1.91601807669906,2.65323904237604,2062.448,2060.736,2056.463,2058.613,3.36961460113525,44.996021270752,358.658233642578,-0.838679134845734,-0.360896915197372,0.519079625606537,-0.835253140422974,-0.35938609205264,0.51706148254665,0
3.41999816894531,-2.454993724823,1.90957641601563,2.66280841827393,-2.45644516534361,1.90887665092339,2.66351366424015,2059.426,2059.116,2056.882,2058.578,3.4229907989502,44.9961585998535,358.636840820313,-0.827655613422394,-0.356154710054398,0.512213587760925,-0.824110582941664,-0.354591760855451,0.510163708672097,0
3.43999481201172,-2.47132325172424,1.90254950523376,2.67291450500488,-2.4728118459714,1.90183452548138,2.67364541920187,2060.426,2058.693,2054.609,2056.487,3.4748067855835,44.9961853027344,358.616394042969,-0.816458880901337,-0.351338624954224,0.505310297012329,-0.812804733542555,-0.349727169707881,0.503164849321754,0
3.45999908447266,-2.48742532730103,1.89562058448792,2.68287944793701,-2.48895692832918,1.89488774758421,2.68363999427827,2057.622,2057.171,2054.863,2056.531,3.52529716491699,44.9963073730469,358.596221923828,-0.805102348327637,-0.346453309059143,0.498244345188141,-0.801332006385299,-0.344790775723006,0.496062684689628,0
3.47999572753906,-2.50329685211182,1.88879036903381,2.692702293396,-2.50486489870395,1.88804299234919,2.69348778574196,2058.716,2056.791,2052.567,2054.552,3.57409024238586,44.9963150024414,358.576965332031,-0.793582201004028,-0.341498017311096,0.49114328622818,-0.789706299681989,-0.339788558913217,0.488865818431069,0
3.49999237060547,-2.51893520355225,1.88206100463867,2.70237994194031,-2.52053886467493,1.8812989226718,2.70319071733255,2056.09,2055.485,2052.773,2054.496,3.62133598327637,44.9964294433594,358.558166503906,-0.781912207603455,-0.336477756500244,0.483886182308197,-0.777928522316836,-0.334720910345999,0.481574813188698,0
3.51999664306641,-2.53433704376221,1.87543320655823,2.71191143989563,-2.53598168290031,1.87465430941181,2.7127505574575,2056.12,2054.642,2051.511,2053.229,3.66711068153381,44.9965019226074,358.539947509766,-0.770090878009796,-0.331392556428909,0.476574718952179,-0.765999459475408,-0.329588167864767,0.474190155029786,0
3.53999328613281,-2.54949927330017,1.86890816688538,2.72129511833191,-2.55117869390181,1.86811546013321,2.72215823120146,2056.256,2054.298,2049.72,2051.867,3.71079349517822,44.996509552002,358.522766113281,-0.758124530315399,-0.326244980096817,0.469186991453171,-0.753933682518821,-0.324396601119134,0.466720864320997,0
3.55999755859375,-2.56441974639893,1.86248755455017,2.73052835464478,-2.56613872308604,1.86167857751006,2.73141920191151,2053.831,2052.967,2050.115,2051.905,3.75267028808594,44.9966316223145,358.506072998047,-0.746024489402771,-0.321039259433746,0.461661905050278,-0.741727567798258,-0.319144650954242,0.459164697851087,0
3.57999420166016,-2.5790958404541,1.85617208480835,2.73961043357849,-2.58084770246059,1.8553497146065,2.74052476083022,2054.546,2052.489,2048.505,2050.385,3.79259443283081,44.9966735839844,358.490234375,-0.733789265155792,-0.315775781869888,0.454106003046036,-0.729396114728537,-0.313838771199258,0.451530940972359,0
3.59999847412109,-2.59352445602417,1.84996271133423,2.74853897094727,-2.59531431270705,1.84912513636775,2.74948028171299,2052.222,2051.394,2048.908,2050.368,3.83088707923889,44.9968223571777,358.474853515625,-0.721431851387024,-0.310459524393082,0.446424037218094,-0.716935713767317,-0.308477408768949,0.443817359206151,0
3.6199951171875,-2.60770320892334,1.84386110305786,2.75731348991394,-2.60952509409627,1.84301063413925,2.75827743234631,2053.164,2051.225,2047.177,2048.703,3.86730432510376,44.9968643188477,358.460540771484,-0.708950281143188,-0.305090516805649,0.438721209764481,-0.704361775018033,-0.303067194200314,0.436033492140578,0
3.63999176025391,-2.62163043022156,1.83786749839783,2.76593160629272,-2.62348330645344,1.83700480530926,2.76691823071727,2051.24,2050.054,2047.29,2048.909,3.90193772315979,44.9969787597656,358.446716308594,-0.696357786655426,-0.299673229455948,0.43090283870697,-0.691675581599108,-0.297608679583365,0.428180134087064,0
3.65999603271484,-2.63530397415161,1.83198356628418,2.7743923664093,-2.63719194552437,1.83110636089208,2.77540453133521,2051.214,2049.645,2046.424,2047.806,3.93484544754028,44.9970664978027,358.433685302734,-0.683654844760895,-0.294208586215973,0.423042684793472,-0.678878353700696,-0.292102389931838,0.420258040401444,0
3.67999267578125,-2.64872074127197,1.82620930671692,2.78269505500793,-2.65063849381582,1.82532068681534,2.78372858527554,2051.583,2049.236,2044.953,2046.963,3.96547985076904,44.9970855712891,358.421630859375,-0.670847833156586,-0.288699120283127,0.415133833885193,-0.665986083416798,-0.286555206197011,0.41227711095171,0
3.69999694824219,-2.66187953948975,1.8205463886261,2.79083752632141,-2.66383127580226,1.81964420129024,2.79189554578451,2049.693,2048.518,2045.35,2046.867,3.99403214454651,44.9972114562988,358.410278320313,-0.657948136329651,-0.28314945101738,0.407121002674103,-0.65299527533123,-0.280965624398954,0.404235181908735,0
