t,x_s1,x_s2,x_s3,x_s_d1,x_s_d2,x_s_d3,propellers_rpms1,propellers_rpms2,propellers_rpms3,propellers_rpms4,rollRad,pitchRad,yawRad,v_s1,v_s2,v_s3,v_s_d1,v_s_d2,v_s_d3,insideCount
0,-0.0599999986588955,2.94000005722046,1.17999994754791,-0.0599999986588955,2.94000005722046,1.17999994754791,0,0,0,0,0,0,0,0,0,0,-1.06581410364015E-15,4.44089209850063E-16,4.44089209850063E-16,0
0.0200042724609375,-0.0599999986588955,2.94000005722046,1.17811644077301,-0.0600018701838461,2.93999925195556,1.18000110611101,0,0,0,0,-0.01635288,0.0001297794,-0.01587137,-1.10653664009419E-09,-7.76775763711157E-08,-0.0941759571433067,-0.000280105751305916,-0.000120521679537258,0.00017339880334547,5
0.040008544921875,-0.0599999986588955,2.94000005722046,1.17242503166199,-0.060014880898484,2.93999365380853,1.18000916036316,0,0,0,0,-0.03270202,0.0005238493,-0.03175127,-1.08383135799528E-09,-7.60859677484405E-08,-0.284568399190903,-0.00111143977225461,-0.000478221483967637,0.00068803416424398,5
0.0600128173828125,-0.0599058866500854,2.93990302085876,1.16596508026123,-0.0600499235789167,2.93997857592211,1.18003085345166,1868.186,3252.807,3183.866,1722.401,-0.04942188,0.0003295492,-0.01369504,0.00470568425953388,-0.00484921643510461,-0.322996616363525,-0.00248060856799822,-0.00106733656662813,0.00153561487136384,5
0.0800018310546875,-0.0598203726112843,2.93960738182068,1.16000306606293,-0.0601175574246769,2.93994947496775,1.18007272202403,1925.521,2314.37,3252.09,2829.448,-0.07543297,-0.002136388,0.02094803,0.00427571590989828,-0.0147785749286413,-0.298098176717758,-0.00437268608126799,-0.00188144466206175,0.00270690098422899,5
0.100006103515625,-0.0599374510347843,2.93904495239258,1.15498661994934,-0.0602282404704493,2.93990185114529,1.18014124010193,979.9462,1498.767,3915.207,3896.673,-0.1031954,-0.008063519,0.06330917,-0.00585394445806742,-0.0281172171235085,-0.250822335481644,-0.00677739276378709,-0.00291612276782231,0.00419552897277328,4
0.120010375976563,-0.0604638457298279,2.93818354606628,1.15081322193146,-0.0603920338334453,2.93983137543704,1.18024263599618,346.5513,980.4565,4172.638,4613.365,-0.1214316,-0.01542077,0.1040025,-0.0263197757303715,-0.0430684797465801,-0.208672434091568,-0.00968041450003567,-0.00416521191989172,0.00599263771761404,4
0.139999389648438,-0.0615636184811592,2.93704128265381,1.14728283882141,-0.0606185767455666,2.93973390035084,1.18038287685052,353.0439,747.1285,3975.232,4854.946,-0.1254013,-0.0211668,0.1351056,-0.0549885854125023,-0.0571135133504868,-0.17652040719986,-0.0130660253322238,-0.00562194567796536,0.00808849210174802,4
0.160003662109375,-0.0633408948779106,2.93568086624146,1.14427506923676,-0.0609177895434042,2.93960515744296,1.18056810382587,820.7158,814.7341,3463.194,4692.39,-0.1184579,-0.02352423,0.15227,-0.0888637006282806,-0.0680152252316475,-0.150388970971107,-0.0169265510445065,-0.00728302204135792,0.0104783414199936,3
0.180007934570313,-0.0658469349145889,2.9341721534729,1.14182543754578,-0.0612988491946875,2.93944119812059,1.1808039979024,1348.825,1083.543,3006.427,4255.217,-0.1079784,-0.02277961,0.155778,-0.125302016735077,-0.075430691242218,-0.122481107711792,-0.0212468478482708,-0.00914192506089775,0.0131528109458008,3
0.20001220703125,-0.069084994494915,2.93255376815796,1.14006161689758,-0.0617708265342762,2.93923811945689,1.181096174359,1636.669,1381.315,2918.166,3666.287,-0.09982753,-0.02030074,0.150155,-0.161903142929077,-0.0809145197272301,-0.0881917774677277,-0.0260142813927851,-0.0111932185284278,0.0161040794142088,3
0.220001220703125,-0.0730103328824043,2.93082594871521,1.139035820961,-0.0623420644491781,2.93899233174064,1.18144979784016,1641.417,1580.689,3148.294,3113.058,-0.09584344,-0.01735475,0.1421872,-0.196267053484917,-0.0863857269287109,-0.0512920692563057,-0.03121219533433,-0.0134297356845702,0.019321835755004,3
0.240005493164063,-0.0775500982999802,2.92897343635559,1.13863360881805,-0.0630219993990999,2.93869977472688,1.18187070996396,1523.598,1623.929,3418.53,2777.481,-0.09475847,-0.01467881,0.1377347,-0.226988300681114,-0.0926262587308884,-0.0201100185513496,-0.0368361158647881,-0.0158495515746756,0.0228033104678445,3
0.260009765625,-0.0826389789581299,2.92699217796326,1.13863587379456,-0.0638185570309634,2.93835703823113,1.18236381708338,1439.117,1500.981,3532.858,2744.26,-0.09438882,-0.01258876,0.1393044,-0.25444421172142,-0.0990593954920769,0.000113677233457565,-0.0428699302682246,-0.0184457333472145,0.0265385290140116,3
0.279998779296875,-0.088244840502739,2.9249005317688,1.13885235786438,-0.0647390625194898,2.93796097043536,1.18293365383054,1401.001,1276.142,3476.101,2977.603,-0.0932117,-0.01110538,0.1456849,-0.280293226242065,-0.104584626853466,0.010823143646121,-0.0492963837173861,-0.0212108567320638,0.030516809833474,3
0.300003051757813,-0.0943706631660461,2.92273235321045,1.13920736312866,-0.0657927507678135,2.93750759781875,1.18358593705038,1350.138,1061.194,3345.864,3324.969,-0.09053309,-0.009935722,0.1533125,-0.306290715932846,-0.108407519757748,0.0177513379603624,-0.0561132031658829,-0.0241439437008635,0.0347367458022363,3
0.32000732421875,-0.101035982370377,2.92052555084229,1.13972544670105,-0.0669865614821475,2.93699393441958,1.18432496275165,1280.91,941.247,3237.254,3590.659,-0.08597643,-0.008524246,0.158361,-0.333266288042068,-0.110342897474766,0.025902109220624,-0.0633036493784043,-0.0272377918282996,0.0391879745362408,3
0.340011596679688,-0.108251571655273,2.91831207275391,1.14046192169189,-0.0683278498358171,2.93641681551226,1.18515528413699,1253.57,944.4673,3170.538,3649.614,-0.07944635,-0.006291452,0.1584748,-0.360779702663422,-0.110679440200329,0.0368257537484169,-0.0708558471483356,-0.0304872915447207,0.0438631447168985,4
0.360000610351563,-0.116003155708313,2.91611480712891,1.14145302772522,-0.0698225328270578,2.93577369517774,1.1860805641102,1319.772,1047.256,3120.746,3498.003,-0.07155381,-0.0029625,0.1534703,-0.387578904628754,-0.109858058393002,0.0495566204190254,-0.0787518717320621,-0.0338847303337087,0.0487511600740379,4
0.3800048828125,-0.124251589179039,2.91394972801208,1.14270842075348,-0.0714797725314022,2.93506063123087,1.18710647443246,1454.517,1181.211,3091.987,3231.372,-0.06361706,0.001257668,0.1450396,-0.412421971559525,-0.108258984982967,0.0627672076225281,-0.0869921272359981,-0.0374302820709642,0.0538522707687797,4
0.400009155273438,-0.132943376898766,2.91182637214661,1.14421784877777,-0.0733051402689975,2.93427522648826,1.18823646401636,1579.681,1273.763,3104.286,2981.908,-0.05701562,0.005826055,0.1357503,-0.43459016084671,-0.10616834461689,0.0754714384675026,-0.0955591682828665,-0.0411164404980124,0.0591556772815509,4
0.419998168945313,-0.142023742198944,2.90975022315979,1.14595818519592,-0.0753034649285836,2.93341540321397,1.18947352217404,1632.291,1288.931,3158.095,2844.395,-0.05243871,0.01017676,0.1278567,-0.454018414020538,-0.103803344070911,0.0870139747858047,-0.104434660908044,-0.0449353170220673,0.0646500300148815,4
0.44000244140625,-0.151446223258972,2.90772438049316,1.14789628982544,-0.077483988232608,2.93247718495301,1.19082336997196,1606.15,1237.661,3220.365,2843.23,-0.0496589,0.01397412,0.1224649,-0.471124112606049,-0.101291365921497,0.0969054847955704,-0.113620829717891,-0.048887868829098,0.0703367061060819,4
0.460006713867188,-0.161176964640617,2.9057514667511,1.14999759197235,-0.0798512213598696,2.93145863067119,1.19228880004469,1541.146,1158.207,3252.541,2938.763,-0.04788524,0.01718484,0.1193438,-0.48653706908226,-0.0986402481794357,0.105063065886497,-0.123099793815011,-0.0529664022684887,0.0762046364278779,4
0.480010986328125,-0.171193853020668,2.9038360118866,1.15223956108093,-0.0824109101018722,2.93035726811493,1.19387336931088,1475.202,1086.53,3247.651,3066.388,-0.04628734,0.01998794,0.1173751,-0.500843524932861,-0.0957782715559006,0.112099774181843,-0.132860437136906,-0.0571661344090936,0.082246939608052,5
0.5,-0.181481331586838,2.9019832611084,1.154616355896,-0.085166398670376,2.92917165836334,1.1955791479969,1431.865,1046.377,3216.458,3169.475,-0.04434003,0.02264423,0.1152202,-0.514374375343323,-0.0926394015550613,0.118837088346481,-0.142884000065179,-0.0614789935111996,0.0884520025491718,5
0.520004272460938,-0.192024618387222,2.90019869804382,1.15713584423065,-0.088127196023106,2.92789770997757,1.19741202260058,1422.266,1044.637,3178.783,3210.736,-0.04192401,0.02537714,0.111889,-0.52716463804245,-0.0892298221588135,0.125973105430603,-0.153174893518032,-0.065906877469682,0.0948225558197254,5
0.540008544921875,-0.202804908156395,2.89848589897156,1.15981078147888,-0.0912963635428427,2.92653410573011,1.19937388826368,1445.816,1073.466,3148.185,3184.8,-0.03928962,0.0282887,0.1070524,-0.539015650749207,-0.0856425017118454,0.13374799489975,-0.163714777034477,-0.0704418948965508,0.101347245800684,5
0.560012817382813,-0.213798224925995,2.89684534072876,1.16265344619751,-0.0946787750684717,2.92507874854427,1.20146776212465,1485.787,1114.249,3137.667,3113.282,-0.03688372,0.0313296,0.101056,-0.549665510654449,-0.0820333659648895,0.142134949564934,-0.174492968360474,-0.0750794495163205,0.10801945966793,5
0.580001831054688,-0.224976554512978,2.89527368545532,1.16566860675812,-0.0982762614093182,2.92353085067394,1.20369477754168,1521.055,1148.769,3145.925,3034.983,-0.03513721,0.03434523,0.09465475,-0.558916389942169,-0.0785768777132034,0.150757491588593,-0.185490414529404,-0.0798113433697334,0.11482740272751,5
0.600006103515625,-0.236311316490173,2.89376521110535,1.16885268688202,-0.102098762959148,2.92188613504538,1.20606108809202,1538.476,1166.57,3164.954,2980.056,-0.03430152,0.03715744,0.08862462,-0.56673926115036,-0.0754218697547913,0.159206345677376,-0.196713446836865,-0.0846403006364086,0.121774994352997,5
0.620010375976563,-0.247776716947556,2.89231181144714,1.1721955537796,-0.106147859919355,2.92014392174208,1.20856767199563,1534.835,1167.306,3181.54,2964.464,-0.03441869,0.03963051,0.08346356,-0.573269963264465,-0.0726700499653816,0.167142122983932,-0.20814339888717,-0.0895582896877615,0.128850679156259,5
0.639999389648438,-0.259352087974548,2.89090418815613,1.1756876707077,-0.110424235525481,2.91830391678686,1.21121495220784,1508.844,1156.76,3193.8,2985.551,-0.03534015,0.04170026,0.07929289,-0.578766584396362,-0.0703833252191544,0.174606889486313,-0.219761081350814,-0.0945570538913933,0.136042578028218,5
0.660003662109375,-0.271021962165833,2.88953232765198,1.17932152748108,-0.114938248900541,2.91636166293851,1.21400934151928,1465.658,1144.087,3198.682,3031.703,-0.03678038,0.04338432,0.07590809,-0.58349484205246,-0.0685983523726463,0.181693524122238,-0.231574097577923,-0.0996398647564507,0.143355397804799,5
0.680007934570313,-0.282775014638901,2.88818573951721,1.18309044837952,-0.119690355154666,2.91431696437584,1.21695112166479,1428.904,1139.6,3190.089,3076,-0.03844326,0.04477585,0.07288615,-0.587652981281281,-0.0673271715641022,0.188449084758759,-0.243563621239988,-0.104798621839723,0.150777484091833,5
0.70001220703125,-0.29460209608078,2.88685417175293,1.18699300289154,-0.124683985757554,2.91216834463331,1.22004241688759,1405.898,1146.539,3176.762,3100.862,-0.04016633,0.04596892,0.06985175,-0.591354370117188,-0.0665757209062576,0.195128977298737,-0.255719729227087,-0.11002905550423,0.158302694011575,5
0.720001220703125,-0.306494474411011,2.88552689552307,1.19102942943573,-0.129918284978346,2.90991617190799,1.22328269744952,1393.511,1162.983,3163.611,3106.722,-0.04194159,0.04702105,0.06662579,-0.594618558883667,-0.0663611143827438,0.201823800802231,-0.268023157655716,-0.11532287703907,0.16591910230247,5
0.740005493164063,-0.318443059921265,2.88419270515442,1.19520080089569,-0.13540428105644,2.90755570105657,1.22667879035609,1390.1,1184.781,3155.152,3094.913,-0.04384096,0.04794953,0.06322478,-0.597427725791931,-0.0667136013507843,0.208571150898933,-0.280482990349159,-0.120683994959631,0.173632332283853,5
0.760009765625,-0.330438256263733,2.88283944129944,1.19950568675995,-0.141140917956636,2.9050873864615,1.23023004187122,1392.733,1207.521,3148.933,3074.935,-0.04599812,0.04873351,0.05981497,-0.599760472774506,-0.0676665380597115,0.215241760015488,-0.293080296154222,-0.126104263719567,0.181430664670081,5
0.779998779296875,-0.342471152544022,2.88145422935486,1.2039430141449,-0.147126184485884,2.90251209348295,1.23393520697061,1390.132,1226.824,3149.817,3057.258,-0.04853451,0.04932102,0.05664466,-0.60164600610733,-0.0692582577466965,0.221867203712463,-0.305795832832518,-0.131575403921268,0.189302187598958,5
0.800003051757813,-0.354534268379211,2.88002371788025,1.20850992202759,-0.153371683173492,2.89982482987671,1.2378014681726,1372.079,1240.446,3155.323,3055.44,-0.05147731,0.04965898,0.05394033,-0.603155732154846,-0.0715227574110031,0.228346899151802,-0.318639638509124,-0.13710173468952,0.197253115148089,5
0.82000732421875,-0.36662220954895,2.8785343170166,1.21319973468781,-0.159875221826383,2.89702653888221,1.24182746840525,1351.988,1250.688,3155.879,3063.166,-0.05474607,0.04973777,0.05176464,-0.604395985603333,-0.0744707137346268,0.2344890832901,-0.331592781842754,-0.14267511039705,0.205271727915392,4
0.840011596679688,-0.378732085227966,2.87697243690491,1.21800780296326,-0.166638895824778,2.89411631891588,1.24601450480873,1328.917,1259.806,3155.043,3076.46,-0.05824813,0.04956197,0.05009568,-0.605495154857635,-0.0780990496277809,0.240402638912201,-0.344646098867604,-0.148291588045382,0.213352352969496,4
0.860000610351563,-0.390863299369812,2.87532448768616,1.22292971611023,-0.173659158941841,2.89109569582005,1.2503603820997,1300.385,1269.311,3151.741,3097.15,-0.06188281,0.04915218,0.04885858,-0.606559932231903,-0.0823928341269493,0.246092960238457,-0.357780475378537,-0.153942943326036,0.221483157706883,4
0.8800048828125,-0.403016775846481,2.87357783317566,1.22796201705933,-0.180948461186242,2.88795931270381,1.25487280742661,1274.611,1280.688,3147.264,3114.639,-0.06552495,0.04855118,0.04792596,-0.607676088809967,-0.0873300209641457,0.251615911722183,-0.371007022483504,-0.159633957038354,0.229671020432672,4
0.900009155273438,-0.415194571018219,2.87172031402588,1.23310029506683,-0.188503099076414,2.88470876307182,1.25954948815793,1259.665,1295.045,3137.831,3124.192,-0.06911169,0.04780544,0.04718358,-0.608888685703278,-0.0928739979863167,0.256913274526596,-0.384306908919572,-0.165356526615982,0.237904283698049,4
0.919998168945313,-0.427399158477783,2.86974024772644,1.23834347724915,-0.196318384305134,2.8813460641717,1.26438752200817,1249.722,1311.148,3131.368,3125.698,-0.07265689,0.04693693,0.04660317,-0.610231637954712,-0.0989978685975075,0.262160360813141,-0.397661187980262,-0.171102499820431,0.246171218589148,4
0.94000244140625,-0.43963360786438,2.86762666702271,1.24369096755981,-0.204407453948074,2.87786556348678,1.26939504145298,1234.347,1326.55,3129.419,3129.583,-0.07618132,0.04594722,0.04623823,-0.611722052097321,-0.105677656829357,0.267372131347656,-0.411081631631503,-0.176876941799768,0.254479112513653,4
0.960006713867188,-0.451901197433472,2.86536908149719,1.24913895130157,-0.212765478812529,2.87426933888379,1.27456905699201,1226.438,1340.8,3125.382,3129.849,-0.07967166,0.04485158,0.04610684,-0.613378703594208,-0.112878009676933,0.27240052819252,-0.424549556012544,-0.182671813410681,0.262816399271726,3
0.980010986328125,-0.464205980300903,2.86295771598816,1.25468635559082,-0.221393324468958,2.87055701793193,1.27991010445463,1219.293,1353.567,3124.434,3128.978,-0.08314496,0.04364726,0.0462645,-0.615241408348083,-0.120570726692677,0.277370154857635,-0.438056556301695,-0.188483498293199,0.271177875878363,3
1,-0.476552963256836,2.86038327217102,1.26033127307892,-0.230284798736574,2.86673126495361,1.28541435058594,1204.806,1363.893,3124.857,3136.884,-0.0866028,0.04232682,0.04677045,-0.617348492145538,-0.128721013665199,0.282244205474854,-0.451584000205995,-0.194303979492187,0.279552008056641,3
1.02000427246094,-0.488947987556458,2.85763740539551,1.26607179641724,-0.239454009753966,2.86278600961093,1.2910905289958,1189.009,1372.034,3126.427,3147.355,-0.08997596,0.04090376,0.047612,-0.619751632213593,-0.137291729450226,0.287028163671494,-0.465144357597929,-0.200138622445408,0.287946515251652,3
1.04000854492188,-0.501397728919983,2.85471296310425,1.2719042301178,-0.248894644448595,2.85872396824263,1.29693473159157,1180.339,1379.936,3122.756,3156.809,-0.09320851,0.03940658,0.04872765,-0.622488737106323,-0.146226346492767,0.29162272810936,-0.47871923339115,-0.205979512261105,0.296350010028666,3
1.05999755859375,-0.513909816741943,2.85160326957703,1.27782833576202,-0.258599401509697,2.85454828239877,1.30294243851408,1173.246,1387.808,3120.805,3164.368,-0.09629139,0.03785326,0.05007397,-0.625602304935455,-0.155482038855553,0.296208083629608,-0.492290296490434,-0.211818761581115,0.30475114456651,3
1.08000183105469,-0.526492059230804,2.84830284118652,1.28384482860565,-0.268583149539609,2.85025255453512,1.30912285413647,1159.445,1394.772,3122,3176.911,-0.09920488,0.03625635,0.05163444,-0.629113137722015,-0.165016308426857,0.300826370716095,-0.50587040849135,-0.217661904390701,0.313157880805523,3
1.10000610351563,-0.539152503013611,2.84480738639832,1.28995168209076,-0.278838480013141,2.84583997233313,1.31547139222872,1155.982,1401.604,3119.31,3183.723,-0.1018979,0.03465315,0.05333234,-0.63302606344223,-0.174770846962929,0.305344313383102,-0.519441457145546,-0.223501147495394,0.321559006401169,3
1.12001037597656,-0.551899552345276,2.84111332893372,1.29615020751953,-0.289365134970699,2.84131064678559,1.32198789310157,1156.868,1408.463,3118.938,3185.373,-0.1043853,0.0330584,0.05514865,-0.637353360652924,-0.184703290462494,0.309923827648163,-0.532995796775449,-0.22933320117373,0.329949788314817,3
1.13999938964844,-0.564741432666779,2.83721804618835,1.30244147777557,-0.300154365346813,2.83666834237095,1.3286669406667,1153.226,1413.99,3120.602,3191.551,-0.1066969,0.03147299,0.0571085,-0.642090141773224,-0.194768890738487,0.314562082290649,-0.546515580872639,-0.235150386571708,0.338319178707607,3
1.16000366210938,-0.577686250209808,2.83311939239502,1.30882680416107,-0.311222084148811,2.83190621216671,1.33551838583369,1149.479,1417.523,3124.739,3197.73,-0.1088029,0.02990826,0.05920514,-0.647240221500397,-0.204926818609238,0.319268941879272,-0.560014026276883,-0.240958390526247,0.34667535943296,3
1.18000793457031,-0.590742170810699,2.82881712913513,1.315305352211,-0.322559451663168,2.82702805965467,1.34253675639879,1153.705,1420.674,3124.33,3201.494,-0.1106964,0.02838336,0.0614055,-0.652796447277069,-0.215118944644928,0.323928833007813,-0.573473482003304,-0.246749618311663,0.355007403690405,3
1.20001220703125,-0.60391753911972,2.82431101799011,1.32187950611115,-0.334165615614823,2.82203425154496,1.34972152476313,1157.874,1422.992,3126.475,3204.779,-0.1124115,0.02690041,0.06370589,-0.658771157264709,-0.225309252738953,0.32871076464653,-0.586886736182789,-0.252520966862155,0.363310846989412,3
1.22000122070313,-0.617220818996429,2.8196017742157,1.32855188846588,-0.346030421585499,2.81692915700008,1.35706640485806,1155.643,1423.835,3130.956,3213.792,-0.1139615,0.02545943,0.06611145,-0.665161073207855,-0.235461845993996,0.333620607852936,-0.600236516861372,-0.258265004538453,0.371574997167698,3
1.24000549316406,-0.630660116672516,2.81469082832336,1.335324883461,-0.358170848086624,2.8117054706409,1.36458190719098,1153.207,1423.244,3137.324,3222.455,-0.1152941,0.02407559,0.06858561,-0.67196398973465,-0.245542466640472,0.338651388883591,-0.613536214864368,-0.263987493038594,0.379808143784027,2
1.260009765625,-0.64424329996109,2.80958080291748,1.34219825267792,-0.37057666480527,2.80636759428526,1.37226169871082,1161.098,1423.365,3137.628,3226.554,-0.1163908,0.02277547,0.07106534,-0.679158747196198,-0.255495667457581,0.343668103218079,-0.626768731761373,-0.26968107538565,0.387999702095469,2
1.27999877929688,-0.657978117465973,2.80427503585815,1.34917533397675,-0.383236695417198,2.80092033679326,1.3800988607405,1170.436,1423.411,3140.163,3228.231,-0.1172989,0.02156139,0.07353614,-0.686743795871735,-0.265291482210159,0.348855704069138,-0.639917282339435,-0.275338529371412,0.396139281255613,2
1.30000305175781,-0.671872138977051,2.79877686500549,1.3562605381012,-0.396168722856641,2.79535604666509,1.38810440176341,1170.265,1421.814,3147.386,3236.328,-0.118043,0.02042466,0.07601918,-0.694700717926025,-0.274907231330872,0.354260921478271,-0.652995275331231,-0.280965624398954,0.404235181908735,2
1.32000732421875,-0.685932099819183,2.7930908203125,1.36345481872559,-0.409361504843077,2.78967956113998,1.39627136227237,1178.166,1420.185,3150.317,3240.44,-0.1185975,0.01938689,0.07846172,-0.702997207641602,-0.284302681684494,0.359712570905685,-0.6659860834168,-0.286555206197011,0.41227711095171,2
1.34001159667969,-0.700164616107941,2.78722167015076,1.3707617521286,-0.422813232584026,2.78389165849082,1.40459862253867,1188.689,1418.483,3155.108,3240.819,-0.1189879,0.01844984,0.08085263,-0.711624026298523,-0.293457895517349,0.365347445011139,-0.678883253871146,-0.292104498338286,0.420261073840379,2
1.36000061035156,-0.714575707912445,2.781174659729,1.37818479537964,-0.436511415158101,2.77799771321212,1.41307845008695,1193.869,1415.778,3161.5,3245.826,-0.1192452,0.01760441,0.08321334,-0.720553755760193,-0.302351862192154,0.371153593063354,-0.691670720740693,-0.297606588091785,0.42817712498415,2
1.3800048828125,-0.729170978069305,2.77495527267456,1.38572728633881,-0.450474904562636,2.77198961381608,1.4217225152016,1197.845,1411.72,3169.686,3251.138,-0.1193437,0.01685325,0.08553171,-0.729766368865967,-0.310967683792114,0.37712374329567,-0.704361775018035,-0.303067194200314,0.436033492140578,2
1.40000915527344,-0.743955552577972,2.76856994628906,1.39338958263397,-0.464691155755482,2.76587275808388,1.43052305190393,1210.133,1408.703,3171.527,3253.358,-0.1192867,0.01621084,0.08776425,-0.73922598361969,-0.319269299507141,0.383116722106934,-0.716940488958393,-0.308479463400265,0.443820315276901,2
1.41999816894531,-0.758934080600739,2.76202487945557,1.40117585659027,-0.47914673136562,2.75965292774086,1.43947174182117,1221.83,1405.527,3176.095,3254.162,-0.1191264,0.01566993,0.08990669,-0.748926103115082,-0.327248990535736,0.389313668012619,-0.729391385793766,-0.313836736470737,0.451528013536465,2
1.44000244140625,-0.774110913276672,2.75532674789429,1.40909075737,-0.493861275572861,2.75332167044526,1.4485807456364,1223.143,1400.716,3185.771,3261.15,-0.1188729,0.01521578,0.09198468,-0.758841514587402,-0.334907412528992,0.395747035741806,-0.741727567798258,-0.319144650954242,0.459164697851088,2
1.46000671386719,-0.789489448070526,2.74848222732544,1.4171347618103,-0.508821304757097,2.74688478782212,1.45784171634646,1232.815,1396.799,3189.403,3264.132,-0.1184958,0.01486694,0.09394645,-0.768926560878754,-0.342221260070801,0.402201443910599,-0.753933682518823,-0.324396601119133,0.466720864320996,2
1.48001098632813,-0.805072844028473,2.7414984703064,1.42531108856201,-0.524024159888143,2.74034342397783,1.467253007885,1245.718,1393.265,3194.205,3262.673,-0.1180233,0.01462142,0.09578086,-0.779168665409088,-0.349187433719635,0.408815413713455,-0.766004036374583,-0.329590137176618,0.474192988348404,2
1.5,-0.820863544940948,2.73438239097595,1.43362283706665,-0.539455198877605,2.73370387899399,1.4768055561018,1252.242,1389.022,3200.779,3266.062,-0.1174939,0.01446285,0.09751713,-0.789535284042358,-0.355804860591888,0.415586292743683,-0.777924000354858,-0.334718964672088,0.481572013878822,1
1.52000427246094,-0.836863577365875,2.7271409034729,1.44207286834717,-0.555135099954955,2.72695725560613,1.48651216180595,1256.411,1383.664,3209.487,3269.876,-0.1168813,0.01438886,0.09915214,-0.800001204013824,-0.362077444791794,0.422501921653748,-0.789706299681991,-0.339788558913217,0.48886581843107,1
1.54000854492188,-0.853073954582214,2.71978116035461,1.45066070556641,-0.571049184024557,2.72010986981902,1.49636373793799,1268.779,1379.965,3211.059,3270.459,-0.1161884,0.01441004,0.1006488,-0.810522496700287,-0.367987364530563,0.429394125938416,-0.801336412291853,-0.344792671461508,0.496065412155667,1
1.55999755859375,-0.869495809078217,2.71231031417847,1.45938956737518,-0.587181951496087,2.71316839067337,1.50635068951315,1280.745,1376.288,3215.278,3269.024,-0.1154651,0.01451489,0.1020108,-0.821092665195465,-0.373543530702591,0.436441421508789,-0.812800388649436,-0.349725300221754,0.503162159625937,1
1.58000183105469,-0.886129558086395,2.70473504066467,1.46826303005219,-0.60355483331529,2.70612359703193,1.51648628330776,1281.494,1370.95,3224.804,3274.114,-0.1147215,0.01468261,0.1032772,-0.831686079502106,-0.378764003515244,0.443671554327011,-0.824110582941666,-0.354591760855452,0.510163708672098,0
1.60000610351563,-0.902974605560303,2.69706225395203,1.47728002071381,-0.620152298932711,2.69898217125626,1.52676090517188,1290.195,1366.996,3227.502,3275.586,-0.1139268,0.01492854,0.1044052,-0.842255175113678,-0.383642107248306,0.450852155685425,-0.835253140422976,-0.35938609205264,0.51706148254665,0
1.62001037597656,-0.920030534267426,2.68929839134216,1.48644244670868,-0.636970945360177,2.69174557755711,1.53717244849371,1301.768,1363.539,3231.259,3272.736,-0.1131082,0.01524745,0.1053894,-0.852792084217072,-0.388188451528549,0.458122074604034,-0.846223126656604,-0.364106170663034,0.523852426598179,0
1.63999938964844,-0.937295854091644,2.6814501285553,1.49575209617615,-0.653994195024907,2.68442094880091,1.54771065096602,1306.318,1359.456,3236.99,3274.848,-0.1122986,0.01561933,0.1062652,-0.863269090652466,-0.392417460680008,0.465480625629425,-0.857007552155828,-0.368746407673381,0.530528499715628,0
1.66000366210938,-0.954769134521484,2.67352318763733,1.50521016120911,-0.671244443874359,2.67699864863716,1.55838937674714,1308.053,1354.452,3244.658,3277.6,-0.1114634,0.01604082,0.1070344,-0.873664677143097,-0.396345943212509,0.472904056310654,-0.867618167158098,-0.373311858882592,0.53709697585572,0
1.68000793457031,-0.97244781255722,2.66552376747131,1.51481437683105,-0.688705090349012,2.66948582025311,1.56919834868089,1318.384,1351.573,3244.389,3276.912,-0.1106027,0.01652287,0.1076616,-0.883937895298004,-0.399967461824417,0.48021188378334,-0.878042061913515,-0.377796969585941,0.543549863268291,0
1.70001220703125,-0.990329682826996,2.65745782852173,1.52456617355347,-0.706372354049449,2.66188409024902,1.58013522651994,1328.26,1348.848,3246.825,3274.007,-0.1097648,0.01705208,0.1081542,-0.894089758396149,-0.40329983830452,0.487592458724976,-0.888274735793774,-0.382199803288802,0.549884375850026,0
1.72000122070313,-1.00841152667999,2.64933037757874,1.53446698188782,-0.724228658537036,2.6542010212754,1.5911891296115,1329.131,1345.233,3252.523,3276.751,-0.1089734,0.01760861,0.1085496,-0.904097318649292,-0.406367868185043,0.495039820671082,-0.898304216251578,-0.386515208538549,0.556093102023817,0
1.74000549316406,-1.02669036388397,2.6411464214325,1.54451704025269,-0.742297311768984,2.64642658456943,1.60237448669139,1328.122,1340.836,3260.102,3278.889,-0.1081701,0.01819328,0.1088466,-0.913940846920013,-0.409194558858871,0.502502202987671,-0.908141534469281,-0.390747931744771,0.562182870617028,0
1.760009765625,-1.04516196250916,2.63291096687317,1.55471241474152,-0.760560719141003,2.63856835059778,1.61368040586141,1337.442,1338.916,3258.295,3276.975,-0.1073478,0.01881985,0.1090097,-0.923579037189484,-0.411772966384888,0.509767770767212,-0.91777478390713,-0.394892849856044,0.568146310914365,0
1.77999877929688,-1.06382250785828,2.62462854385376,1.56505334377289,-0.779000609654483,2.63063418086074,1.62509557650306,1347.114,1337.258,3258.758,3272.592,-0.1065632,0.01947385,0.1090501,-0.933019280433655,-0.414119511842728,0.517044305801392,-0.927192788821983,-0.398945154262308,0.57397650459845,0
1.80000305175781,-1.08266735076904,2.61630320549011,1.57554113864899,-0.797640935141499,2.62261376955408,1.63663482594136,1343.287,1333.757,3265.604,3276.107,-0.105833,0.02012888,0.1090228,-0.942250847816467,-0.416265845298767,0.524388790130615,-0.936405971974637,-0.402909329586356,0.579679903854719,0
1.82000732421875,-1.10169208049774,2.60793876647949,1.58617210388184,-0.816463410111527,2.61451498441355,1.64828683458664,1346.374,1331.82,3265.561,3276.74,-0.1051192,0.02080104,0.1088905,-0.951236605644226,-0.418218851089478,0.531551122665405,-0.94540321420156,-0.406780591562751,0.585249625391268,0
1.84001159667969,-1.1208918094635,2.59953880310059,1.5969455242157,-0.835463677219795,2.60633970028288,1.66004890503489,1352.855,1330.453,3266.709,3272.249,-0.10443,0.02148747,0.1086487,-0.959982633590698,-0.419996947050095,0.538668811321259,-0.954180774018563,-0.410557330335375,0.590683353051152,0
1.86000061035156,-1.14026129245758,2.59110641479492,1.60786008834839,-0.854622615239374,2.59809614449182,1.6719092003358,1352.571,1328.635,3269.323,3272.826,-0.1037908,0.02217006,0.1083379,-0.968472719192505,-0.421619206666946,0.545728385448456,-0.962728579444532,-0.414235212212131,0.595974851798267,0
1.8800048828125,-1.15979528427124,2.58264422416687,1.61891436576843,-0.873964974649439,2.58977366760063,1.68388304221498,1349.772,1326.024,3273.668,3273.941,-0.1031613,0.02284704,0.1079641,-0.976699829101563,-0.423105686903,0.552714109420776,-0.971056158224177,-0.417818336715394,0.601130019760457,0
1.90000915527344,-1.17948794364929,2.57415509223938,1.63010323047638,-0.893471623792247,2.58138050142717,1.69595858726494,1355.526,1325.649,3269.651,3272.114,-0.1025402,0.02352992,0.1074947,-0.98463636636734,-0.424452424049377,0.559443891048431,-0.979153483542501,-0.421302389586788,0.606142649861596,0
1.91999816894531,-1.199334025383,2.56564164161682,1.6414258480072,-0.913122862707269,2.57292512231409,1.70812364027167,1360.626,1325.394,3268.932,3267.875,-0.1019735,0.02420701,0.1069398,-0.992299616336823,-0.425678491592407,0.566130518913269,-0.987011339258123,-0.424683405378145,0.611007036871143,0
1.94000244140625,-1.21932756900787,2.55710530281067,1.65288197994232,-0.932943991899774,2.5643966441608,1.72039386345315,1352.755,1323.447,3274.245,3271.174,-0.101459,0.02485752,0.1063511,-0.99968433380127,-0.426813453435898,0.572804570198059,-0.994638524886308,-0.427965170275055,0.615728628108227,0
1.96000671386719,-1.23946273326874,2.54854822158813,1.66446602344513,-0.952915303453826,2.55580354673295,1.73275705667061,1353.755,1323.209,3271.772,3270.573,-0.1009509,0.02550188,0.1056875,-1.00676023960114,-0.427859365940094,0.579203367233276,-1.00202586176059,-0.431143734953757,0.620301741541062,0
1.98001098632813,-1.2597336769104,2.53997159004211,1.67617571353912,-0.973031969359004,2.54714790738853,1.74521023115561,1358.612,1323.571,3270.381,3264.782,-0.1004656,0.02613753,0.104948,-1.01354169845581,-0.428828477859497,0.585485577583313,-1.00917036754089,-0.434217816196637,0.624724530959079,0
2,-1.28013396263123,2.53137683868408,1.68800890445709,-0.993273599084619,2.53843849960327,1.7577407641983,1355.561,1323.312,3271.051,3264.961,-0.1000347,0.02674526,0.1041793,-1.02002191543579,-0.429736465215683,0.591656923294067,-1.01606400046349,-0.437183953857422,0.628992018127441,0
2.02000427246094,-1.3006579875946,2.52276492118835,1.69996297359467,-1.01366615605493,2.52966415204104,1.77036472839513,1349.305,1322.064,3273.899,3266.168,-0.09961234,0.02732498,0.1033885,-1.02620232105255,-0.430600345134735,0.597701966762543,-1.02271452148052,-0.440045487257004,0.633109007445237,0
2.04000854492188,-1.3212993144989,2.51413679122925,1.71203148365021,-1.03418924440916,2.52083364047092,1.78306949773667,1352.242,1322.903,3268.267,3264.134,-0.09918731,0.02789244,0.1025386,-1.03206253051758,-0.431411445140839,0.603427827358246,-1.02911391720548,-0.442798968459032,0.637070538244476,0
2.05999755859375,-1.34205174446106,2.5054931640625,1.72421252727509,-1.05482201812353,2.5119559343546,1.79584216754118,1355.352,1323.924,3265.819,3259.106,-0.09880008,0.02843932,0.1016373,-1.03762626647949,-0.432182252407074,0.609054505825043,-1.03525504859546,-0.445441325732794,0.640872191117535,0
2.08000183105469,-1.36290979385376,2.49683451652527,1.7365049123764,-1.07559088172821,2.50301967256038,1.80869908347065,1345.315,1323.307,3269.284,3262.051,-0.09845174,0.02894554,0.1007385,-1.04289400577545,-0.43293496966362,0.61461740732193,-1.04114485287423,-0.447975543971863,0.644518260536375,0
2.10000610351563,-1.38386654853821,2.48816132545471,1.74890196323395,-1.09647498538954,2.49403382618922,1.82162733848484,1344.253,1324.117,3264.991,3261.403,-0.09809487,0.02943376,0.0997984,-1.04784321784973,-0.43366464972496,0.619854152202606,-1.04677621342161,-0.450398561093403,0.648004340974112,0
2.12001037597656,-1.40491652488708,2.47947382926941,1.76140081882477,-1.11746913671118,2.48500062938421,1.83462371824305,1347.45,1325.476,3262.179,3254.997,-0.09774334,0.02990423,0.09881303,-1.05249440670013,-0.434377938508987,0.624941289424896,-1.05214690704168,-0.452709420518306,0.651329056166548,0
2.13999938964844,-1.42605340480804,2.47077226638794,1.77399849891663,-1.138551967509,2.47592927627801,1.8476749948214,1342.19,1326.175,3261.486,3255.206,-0.09742855,0.03033888,0.09783084,-1.05684459209442,-0.43508368730545,0.629881322383881,-1.05725102347782,-0.454905579228273,0.654488747383304,0
2.16000366210938,-1.4472713470459,2.46205639839172,1.78669166564941,-1.15975039167652,2.46680818657414,1.86079782920208,1334.244,1325.784,3262.982,3256.143,-0.09710098,0.03074083,0.09685479,-1.06089985370636,-0.435791969299316,0.634659290313721,-1.0620943502576,-0.456989527434725,0.657486997379635,0
2.18000793457031,-1.46856415271759,2.45332670211792,1.79947340488434,-1.18104303873349,2.45764655539322,1.87397899203979,1336.135,1327.263,3256.095,3253.481,-0.09674625,0.03112815,0.09584612,-1.0646448135376,-0.436486959457397,0.639084994792938,-1.06667099276523,-0.458958728849171,0.660320157107579,0
2.20001220703125,-1.48992621898651,2.44458317756653,1.81234109401703,-1.20242455577657,2.44844668594002,1.88721516963236,1338.276,1328.875,3252.382,3247.977,-0.09640697,0.03149308,0.09481303,-1.06810510158539,-0.437173753976822,0.643384277820587,-1.07097916161324,-0.460812413548163,0.662987118851036,0
2.22000122070313,-1.51135182380676,2.43582582473755,1.8252922296524,-1.22387315175433,2.43921795429519,1.90049287228091,1330.235,1329.555,3252.066,3249.603,-0.09610336,0.03182037,0.09379874,-1.07128083705902,-0.437863409519196,0.647556662559509,-1.07501419914593,-0.462548577472581,0.665484999299265,0
2.24000549316406,-1.53283536434174,2.42705464363098,1.83832335472107,-1.24541615591711,2.42994860144581,1.91382901809327,1320.661,1329.205,3253.823,3250.716,-0.09576514,0.03211904,0.09279647,-1.07417643070221,-0.438564091920853,0.651557445526123,-1.07878069424208,-0.464169195088763,0.667816639186824,0
2.260009765625,-1.55437088012695,2.41826963424683,1.85142683982849,-1.26703177594152,2.42064800401982,1.92721011658316,1323.191,1330.828,3246.192,3246.979,-0.09536886,0.03241093,0.09176269,-1.0767742395401,-0.439253389835358,0.655174195766449,-1.08227399942825,-0.465672266718726,0.669979161506271,0
2.27999877929688,-1.57595300674438,2.40947103500366,1.86459982395172,-1.28869796983554,2.41132564607061,1.9406225227075,1326.872,1332.651,3241.409,3240.031,-0.09496992,0.03268748,0.09070899,-1.0790992975235,-0.439930200576782,0.658651411533356,-1.08549040888332,-0.467056197851165,0.67197027217779,0
2.30000305175781,-1.59757614135742,2.40065884590149,1.87784075737,-1.31044231452835,2.40196966201596,1.95408330789913,1315.681,1332.724,3242.836,3242.876,-0.09458696,0.0329268,0.089696,-1.08115673065186,-0.440605908632278,0.662046790122986,-1.08843358680109,-0.468322565086307,0.673792239511894,0
2.32000732421875,-1.61923468112946,2.39183354377747,1.8911429643631,-1.33224276726637,2.39258953623693,1.96757882664355,1312.98,1333.496,3237.612,3242.308,-0.09416831,0.03315287,0.08867548,-1.08293223381042,-0.441268593072891,0.665108680725098,-1.09109983431736,-0.469469776906228,0.675442773735451,0
2.34001159667969,-1.64092373847961,2.38299512863159,1.90450310707092,-1.35409377777295,2.38318765686251,1.9811056430551,1314.657,1334.713,3234.121,3235.761,-0.0937193,0.03336939,0.08763798,-1.08444726467133,-0.441917568445206,0.66800993680954,-1.09348812118877,-0.470497390025984,0.676921237078733,0
2.36000061035156,-1.66263771057129,2.37414407730103,1.91791796684265,-1.37597305876702,2.37377361348711,1.99464996024512,1308.727,1335.38,3232.193,3235.552,-0.0932655,0.03356303,0.08662573,-1.08569920063019,-0.442551553249359,0.670740962028503,-1.09559602313537,-0.471404361345641,0.678226128796969,0
2.3800048828125,-1.68437159061432,2.36528062820435,1.93138384819031,-1.39790843013262,2.36433543599182,2.00822900004707,1301.065,1334.91,3232.144,3235.704,-0.0927595,0.03373856,0.08563603,-1.08669519424438,-0.443169981241226,0.673292517662048,-1.09742594550583,-0.472191725819537,0.679358937915576,0
2.40000915527344,-1.70611989498138,2.35640573501587,1.94489359855652,-1.41987760424917,2.35488271411715,2.02182896536211,1303.416,1335.913,3224.156,3232.245,-0.09219171,0.03391471,0.08462793,-1.08742320537567,-0.443749189376831,0.675489366054535,-1.09897546783438,-0.472858441988871,0.680318166050934,0
2.41999816894531,-1.72787809371948,2.34751987457275,1.95844495296478,-1.44185817738692,2.34542508756209,2.03543598721428,1305.723,1337.006,3219.669,3226.083,-0.09160955,0.0340841,0.08360884,-1.08790671825409,-0.444288343191147,0.677568137645721,-1.10024313330221,-0.473403883025206,0.681102911362803,0
2.44000244140625,-1.74964094161987,2.33862400054932,1.97203624248505,-1.46387808506052,2.33595053645515,2.04906735901791,1294.144,1336.546,3221.033,3228.82,-0.09101992,0.03423008,0.08263022,-1.0881484746933,-0.444795459508896,0.679566860198975,-1.10123038958312,-0.473828671822132,0.681714070030222,0
2.46000671386719,-1.77140367031097,2.32971882820129,1.98566067218781,-1.48591492338117,2.32646870056377,2.06270921169857,1292.611,1336.683,3215.274,3227.267,-0.09036638,0.03437849,0.08163849,-1.08813261985779,-0.445253610610962,0.681223034858704,-1.10193578218388,-0.474132182551855,0.682150741652607,0
2.48001098632813,-1.79316127300262,2.32080554962158,1.99931514263153,-1.5079630509786,2.31698200721197,2.07635805297935,1296.042,1337.33,3211.135,3219.392,-0.08966278,0.0345315,0.08062578,-1.08787798881531,-0.445658296346664,0.682724952697754,-1.10235904000526,-0.474314298567936,0.682412758406602,0
2.5,-1.81490886211395,2.31188535690308,2.01299643516541,-1.52999999932945,2.30750012397766,2.08999997377396,1290.944,1337.391,3208.661,3218.791,-0.08894745,0.03467412,0.07963862,-1.08738040924072,-0.446005612611771,0.68407016992569,-1.10250000050292,-0.474374949932098,0.682500019669533,0
2.52000427246094,-1.83664178848267,2.30295944213867,2.0267014503479,-1.55205376834272,2.29801100328223,2.10365230735988,1283.654,1336.143,3208.523,3218.725,-0.08817566,0.0348107,0.07867306,-1.08664691448212,-0.446294873952866,0.685256123542786,-1.10235882472314,-0.474314205938057,0.682412625136718,0
2.54000854492188,-1.85835516452789,2.29402947425842,2.04042363166809,-1.57410188948011,2.28852431271001,2.11730114464159,1286.219,1336.126,3200.85,3214.987,-0.08733251,0.03495924,0.07768667,-1.08566546440125,-0.446503341197968,0.686104238033295,-1.10193535162022,-0.474131997292339,0.682150475113189,0
2.55999755859375,-1.88004398345947,2.2850968837738,2.05416035652161,-1.59612191359838,2.27904971150017,2.13093258853001,1289.263,1336.286,3196.383,3208.216,-0.08646166,0.03511393,0.07668444,-1.0844554901123,-0.44662880897522,0.686841309070587,-1.10123038958312,-0.473828671822132,0.681714070030222,0
2.58000183105469,-1.90170431137085,2.27616310119629,2.06791043281555,-1.61814182127198,2.26957516039323,2.14456396033363,1279.007,1335.116,3197.153,3210.214,-0.08557376,0.03525813,0.07571574,-1.08301723003387,-0.446676731109619,0.687500834465027,-1.10024313330221,-0.473403883025206,0.681102911362804,0
2.60000610351563,-1.92333114147186,2.26723074913025,2.08166718482971,-1.64013916343638,2.26011031859448,2.15818136301212,1278.484,1334.264,3191.358,3208.027,-0.08461768,0.03541617,0.07472793,-1.08133673667908,-0.446631163358688,0.687837064266205,-1.09897439291323,-0.472857979480329,0.680317500623536,0
2.62001037597656,-1.94491982460022,2.25830078125,2.09542775154114,-1.66210831390746,2.25065760689379,2.17178131368948,1282.508,1333.955,3187.04,3200.013,-0.08360994,0.03558949,0.07371228,-1.07942891120911,-0.446487873792648,0.68803083896637,-1.09742465646102,-0.47219117117957,0.679358139935436,0
2.63999938964844,-1.96646547317505,2.24937605857849,2.10918951034546,-1.68402693989188,2.24122663446822,2.18534998730279,1278.263,1333.151,3184.661,3198.653,-0.08258782,0.03576279,0.0727126,-1.07728922367096,-0.446244478225708,0.688089549541473,-1.09559602313537,-0.471404361345641,0.67822612879697,0
2.66000366210938,-1.98796391487122,2.2404580116272,2.12294936180115,-1.70592290617745,2.23180541187802,2.19890463348308,1271.594,1331.087,3184.296,3198.308,-0.08150871,0.03594032,0.07172555,-1.07492136955261,-0.445900738239288,0.687995731830597,-1.09348640563071,-0.470496651869278,0.67692017506657,0
2.68000793457031,-2.00941038131714,2.23154926300049,2.13670110702515,-1.72777388024004,2.22240354818443,2.21243142733407,1275.287,1330.073,3176.82,3193.564,-0.08035609,0.03613968,0.07070713,-1.07231426239014,-0.445436835289001,0.687581658363342,-1.09109790637238,-0.469468947365361,0.675441580245664,0
2.69999694824219,-2.03079986572266,2.22265219688416,2.15044236183167,-1.74955768413056,2.21303058593937,2.22591663964878,1279.155,1329.352,3172.313,3186.196,-0.07917684,0.03635332,0.0696654,-1.06948268413544,-0.444851130247116,0.687066197395325,-1.08843358680109,-0.468322565086308,0.673792239511893,0
2.72000122070313,-2.05212831497192,2.21376919746399,2.16417193412781,-1.77130202882336,2.20367460188472,2.23937742484041,1269.913,1327.446,3172.68,3187.645,-0.07798588,0.03656476,0.06864835,-1.06642544269562,-0.444149792194366,0.686479985713959,-1.08549040888332,-0.467056197851165,0.671970272177789,0
2.74000549316406,-2.07339096069336,2.20490288734436,2.17788362503052,-1.79298473688851,2.19434513834902,2.25280005402337,1270.14,1325.659,3166.941,3184.922,-0.07673313,0.03679636,0.06760345,-1.06313061714172,-0.443320691585541,0.685588181018829,-1.08227143928024,-0.465671165158559,0.669977576652695,0
2.760009765625,-2.09458351135254,2.19605588912964,2.191575050354,-1.81460030360772,2.18504456385877,2.26618111951479,1274.637,1324.481,3162.882,3176.334,-0.07543457,0.03704851,0.0665231,-1.05961036682129,-0.442362308502197,0.684571504592896,-1.07877792518082,-0.464168003639063,0.667814925005998,0
2.77999877929688,-2.11570048332214,2.18723011016846,2.20524334907532,-1.83612684690458,2.17578229366013,2.27950707526701,1270.776,1322.93,3160.243,3174.835,-0.07412802,0.0373063,0.06545019,-1.0558580160141,-0.441273808479309,0.683420479297638,-1.07501419914593,-0.462548577472581,0.665484999299265,0
2.80000305175781,-2.13673806190491,2.1784291267395,2.21888589859009,-1.85759178470316,2.16654653058634,2.29279489428112,1265.437,1320.207,3159.803,3173.192,-0.07276981,0.03757386,0.0643788,-1.05187809467316,-0.440057754516602,0.68213164806366,-1.07097597819164,-0.460811043810786,0.662985148161422,0
2.82000732421875,-2.15769124031067,2.16965484619141,2.23249650001526,-1.87897323600723,2.1573466894188,2.30603103117811,1269.329,1318.409,3152.233,3168.398,-0.07134875,0.03786572,0.06327043,-1.04765856266022,-0.438697665929794,0.680528342723846,-1.06666760390385,-0.458957270716794,0.660318059240952,0
2.84001159667969,-2.17855548858643,2.16091108322144,2.2460732460022,-1.90026581322863,2.14818508828617,2.31921215078427,1274.1,1316.973,3147.82,3160.016,-0.06990904,0.03817494,0.06213032,-1.04321277141571,-0.437194794416428,0.678837656974792,-1.06209075728,-0.456987981476842,0.657484773155346,0
2.86000061035156,-2.19932651519775,2.15219974517822,2.25961399078369,-1.9214480311499,2.13907097167731,2.33232495272651,1268.238,1314.983,3145.707,3160.044,-0.06848372,0.0384864,0.06100018,-1.0385354757309,-0.435554057359695,0.677039265632629,-1.05725102347782,-0.454905579228273,0.654488747383304,0
2.8800048828125,-2.21999907493591,2.14352416992188,2.27311611175537,-1.94254691640495,2.12999271078668,2.34538616777867,1261.831,1311.881,3145.877,3158.659,-0.06700993,0.03880827,0.05986365,-1.03363156318665,-0.43378210067749,0.675110101699829,-1.0521429102862,-0.45270770082608,0.651326581984514,0
2.90000915527344,-2.24056887626648,2.13488674163818,2.2865731716156,-1.96354098577478,2.12095954924324,2.35838249680481,1266.384,1309.846,3138.435,3152.743,-0.06546582,0.03915739,0.05867968,-1.02848780155182,-0.431864082813263,0.672857582569122,-1.04677201701582,-0.450396755497224,0.648001743199023,0
2.91999816894531,-2.26103115081787,2.12629079818726,2.29998326301575,-1.98440911693069,2.11198057539494,2.37130086407726,1272.591,1308.322,3133.407,3143.19,-0.06390148,0.03952534,0.05745804,-1.02311360836029,-0.429799497127533,0.670503616333008,-1.04114485287423,-0.447975543971863,0.644518260536375,0
2.94000244140625,-2.28138136863708,2.11773920059204,2.31334495544434,-2.00517798053537,2.10304431360073,2.38415778000673,1264.706,1305.905,3132.776,3143.739,-0.06235259,0.03989193,0.05625505,-1.01750707626343,-0.427596181631088,0.668084979057312,-1.03525504859546,-0.445441325732794,0.640872191117535,0
2.96000671386719,-2.30161428451538,2.10923385620117,2.32665276527405,-2.02582645724542,2.09415985092405,2.3969401707136,1264.916,1303.135,3127.283,3140.691,-0.06077067,0.04027538,0.05502149,-1.01166272163391,-0.425251066684723,0.665390431880951,-1.02910913225408,-0.442796909628122,0.637067576131623,0
2.98001098632813,-2.32172608375549,2.10077881813049,2.33990454673767,-2.04634944795115,2.08532938136936,2.40964487960608,1268.945,1301.106,3123.741,3131.679,-0.05916319,0.0406762,0.05375039,-1.00559055805206,-0.422768115997314,0.662590324878693,-1.02270954399162,-0.440043345582586,0.633105926142498,0
3,-2.34171199798584,2.09237575531006,2.35309743881226,-2.06672639957428,2.07656174835205,2.42225918334961,1265.042,1298.941,3120.657,3129.986,-0.05756263,0.04108046,0.05248164,-0.999283790588379,-0.42014953494072,0.659644842147827,-1.01606400046349,-0.437183953857422,0.628992018127441,0
3.02000427246094,-2.36156702041626,2.0840277671814,2.36622858047485,-2.0869834279768,2.06784571494631,2.43479924890685,1261.022,1295.806,3119.424,3127.072,-0.05592692,0.04149328,0.05120419,-0.99274867773056,-0.417400747537613,0.656562030315399,-1.00916501115878,-0.434215511495054,0.624721215103391,0
3.04000854492188,-2.38128662109375,2.07573747634888,2.37929224967957,-2.10709998486405,2.05919012250926,2.44725235590455,1265.17,1293.451,3111.971,3121.374,-0.05424859,0.04192501,0.04988696,-0.985977113246918,-0.414512604475021,0.653188407421112,-1.00202031904361,-0.431141350077486,0.620298310335216,0
3.05999755859375,-2.40086650848389,2.06750774383545,2.39228677749634,-2.12705600675913,2.05060360379452,2.45960608409476,1269.654,1291.572,3107.329,3112.789,-0.0525724,0.04236821,0.0485379,-0.978978097438812,-0.411488711833954,0.649728953838348,-0.994638524886308,-0.427965170275055,0.615728628108227,0
3.08000183105469,-2.42030096054077,2.0593409538269,2.4052107334137,-2.14687713595163,2.04207512564123,2.47187630727625,1261.228,1289.089,3106.601,3113.244,-0.05091858,0.04280641,0.04720447,-0.971750915050507,-0.408338963985443,0.646202147006989,-0.987011339258122,-0.424683405378145,0.611007036871143,0
3.10000610351563,-2.43958711624146,2.05123972892761,2.41805863380432,-2.16654331551667,2.03361331798384,2.48405060925705,1261.85,1286.229,3101.015,3109.242,-0.04923492,0.04325853,0.04583713,-0.964292883872986,-0.405063271522522,0.642398715019226,-0.979147395688901,-0.421299770153459,0.606138881190213,0
3.12001037597656,-2.45871925354004,2.04320669174194,2.430828332901,-2.18604984110275,2.02522020497339,2.49612607781951,1266.15,1284.232,3096.858,3099.906,-0.04753476,0.04372325,0.04443262,-0.956611335277557,-0.401664942502975,0.638481974601746,-0.971049893464309,-0.41781564116424,0.601126141575667,0
3.13999938964844,-2.47769331932068,2.03524351119995,2.44351696968079,-2.20537738341953,2.01690410346351,2.50809074721212,1262.928,1282.184,3093.384,3097.272,-0.04585431,0.04418696,0.04303126,-0.948701918125153,-0.398147881031036,0.634430110454559,-0.962728579444533,-0.414235212212131,0.595974851798267,0
3.16000366210938,-2.49650478363037,2.02735280990601,2.45612192153931,-2.22455088103183,2.00865428308644,2.51996005559448,1258.531,1279.203,3091.828,3094.392,-0.04415841,0.04465223,0.04162796,-0.940571784973145,-0.394519299268723,0.630248427391052,-0.954174163352092,-0.410554485950274,0.590679260733698,0
3.18000793457031,-2.51514887809753,2.01953744888306,2.46863770484924,-2.24355101420387,2.00047905658478,2.53172204312984,1261.812,1276.727,3084.763,3088.747,-0.04243481,0.04512863,0.04019246,-0.932217538356781,-0.390774816274643,0.625790894031525,-0.945396434568188,-0.406777674475913,0.585245428475253,0
3.19999694824219,-2.53362202644348,2.01179885864258,2.48106241226196,-2.2623590635174,1.99238647840124,2.54336512160655,1265.825,1274.858,3079.96,3080.198,-0.04071973,0.04561028,0.03873105,-0.923646688461304,-0.386918097734451,0.621241390705109,-0.936405971974636,-0.402909329586355,0.579679903854719,0
3.22000122070313,-2.55191922187805,2.00413990020752,2.49339485168457,-2.28099938900442,1.98436606709459,2.55490437104486,1257.879,1272.641,3078.7,3079.966,-0.03903555,0.04608227,0.03728871,-0.914860606193542,-0.382958590984344,0.616624414920807,-0.927192788821982,-0.398945154262308,0.573976504598449,0
3.24000549316406,-2.5700364112854,1.99656188488007,2.50562953948975,-2.29945328359428,1.9764258717947,2.56632821087688,1257.896,1269.857,3072.925,3076.282,-0.03733379,0.046561,0.0358204,-0.905860483646393,-0.37889838218689,0.611739039421082,-0.91776751470058,-0.394889722119544,0.568141810929231,0
3.260009765625,-2.58796977996826,1.98906695842743,2.51776456832886,-2.31771654397337,1.96856770107001,2.57763403905129,1262.134,1267.993,3068.71,3066.551,-0.03562351,0.047046,0.03432038,-0.896653771400452,-0.374741435050964,0.606750845909119,-0.908134108040216,-0.390744736359816,0.562178273303667,0
3.27999877929688,-2.60571432113647,1.98165714740753,2.52979731559753,-2.33577134012187,1.96079922667992,2.58881081793642,1258.272,1266.225,3065.02,3064.139,-0.03394305,0.04752376,0.03283171,-0.88723760843277,-0.370491981506348,0.601633310317993,-0.898304216251578,-0.386515208538549,0.556093102023818,0
3.30000305175781,-2.62326669692993,1.97433400154114,2.54172492027283,-2.35364119854729,1.95311032582551,2.59987311156116,1254.087,1263.52,3062.825,3061.118,-0.03225568,0.04799799,0.03134522,-0.877620756626129,-0.366157203912735,0.596382617950439,-0.888267004546666,-0.382196476749158,0.549879589839776,0
3.32000732421875,-2.64062261581421,1.96709942817688,2.55354261398315,-2.37130830610839,1.94550866300381,2.61080989274252,1257.072,1261.234,3056.011,3055.138,-0.03055072,0.04847699,0.02983387,-0.867803752422333,-0.361735314130783,0.590882241725922,-0.878034183119985,-0.377793579561194,0.543544985919778,0
3.34001159667969,-2.6577787399292,1.95995473861694,2.56524848937988,-2.38876879352593,1.93799590305759,2.62161876621234,1260.106,1259.599,3051.352,3046.948,-0.02886281,0.04895476,0.02830789,-0.857792437076569,-0.357229769229889,0.585297882556915,-0.867610144209785,-0.373308406832067,0.537092009268528,0
3.36000061035156,-2.6747305393219,1.95290184020996,2.57684063911438,-2.406005803634,1.93057929915441,2.6322892965819,1254.854,1257.819,3048.124,3045.464,-0.02721804,0.04942027,0.02680088,-0.847589075565338,-0.35264790058136,0.579609930515289,-0.857007552155826,-0.36874640767338,0.530528499715627,0
3.3800048828125,-2.6914746761322,1.94594204425812,2.58831644058228,-2.42304196557559,1.92324911460621,2.64283549236868,1249.451,1255.28,3046.222,3043.097,-0.02556901,0.04987947,0.02529884,-0.837203681468964,-0.347998082637787,0.573795855045319,-0.846214826007803,-0.364102599125748,0.523847288101157,0
3.40000915527344,-2.70800733566284,1.93907642364502,2.59967112541199,-2.43986044461333,1.91601259293018,2.6532469320683,1252.437,1253.14,3039.541,3036.757,-0.02389441,0.05034287,0.02377118,-0.826637625694275,-0.343278855085373,0.567732334136963,-0.835244706287931,-0.359382463079953,0.517056261415284,0
3.41999816894531,-2.72432494163513,1.93230652809143,2.61090278625488,-2.45644516534361,1.90887665092339,2.66351366424015,1256.281,1251.766,3034.635,3027.783,-0.02223207,0.05080399,0.02223065,-0.815894544124603,-0.338491469621658,0.561583817005157,-0.824110582941664,-0.354591760855451,0.510163708672097,0
3.44000244140625,-2.74042463302612,1.92563343048096,2.62200999259949,-2.47281804716281,1.90183185728196,2.67364925803476,1249.389,1250.184,3032.122,3027.094,-0.02061127,0.05124935,0.0207213,-0.804977297782898,-0.333642303943634,0.555360376834869,-0.812800388649434,-0.349725300221754,0.503162159625937,0
3.46000671386719,-2.75630235671997,1.91905891895294,2.63298845291138,-2.4889630419904,1.89488511704659,2.68364377892579,1249.069,1247.72,3026.736,3023.217,-0.01899153,0.05169142,0.019205,-0.793894946575165,-0.328736007213593,0.548919260501862,-0.801327600455845,-0.344788879974649,0.496059957209413,0
3.48001098632813,-2.77195572853088,1.91258335113525,2.64383625984192,-2.50487694859767,1.88803780761656,2.69349524520019,1251.364,1246.171,3022.538,3015.161,-0.01737872,0.05213008,0.01767866,-0.78265380859375,-0.323776066303253,0.54239022731781,-0.789697369743255,-0.339784716610052,0.488860290373601,0
3.5,-2.7873809337616,1.90620827674866,2.6545512676239,-2.5205447997813,1.88129636896134,2.70319439144611,1247.336,1244.795,3018.845,3012.658,-0.0158,0.05255585,0.01617413,-0.7712562084198,-0.318766564130783,0.535753667354584,-0.777924000354857,-0.334718964672089,0.481572013878822,0
3.52000427246094,-2.80257511138916,1.89993369579315,2.66513133049011,-2.53598752699493,1.87465179486116,2.71275417523047,1243.263,1242.698,3016.103,3009.749,-0.01422235,0.05297245,0.01468273,-0.759711980819702,-0.313713133335114,0.528998076915741,-0.765994882555673,-0.32958619854407,0.474187321698442,0
3.54000854492188,-2.81753587722778,1.89376151561737,2.67557215690613,-2.55119019794619,1.86811051026429,2.72216535275294,1245.834,1240.787,3009.881,3003.618,-0.0126335,0.0533876,0.01318141,-0.748025715351105,-0.308615386486053,0.522038519382477,-0.753924423002452,-0.324392617007921,0.466715132239272,0
3.55999755859375,-2.83225965499878,1.88769197463989,2.68587231636047,-2.56613872308604,1.86167857751006,2.73141920191151,1247.982,1239.557,3005.128,2996.393,-0.01106756,0.05379509,0.0116827,-0.736201047897339,-0.303474485874176,0.515006601810455,-0.741727567798258,-0.319144650954242,0.459164697851087,0
3.58000183105469,-2.84674453735352,1.88172614574432,2.69603061676025,-2.58085326729328,1.85534732021446,2.74052820572674,1241.617,1238.22,3002.584,2995.373,-0.009542638,0.05418609,0.01021825,-0.724243640899658,-0.29829615354538,0.507916152477264,-0.729391385793765,-0.313836736470737,0.451528013536464,0
3.60000610351563,-2.86098766326904,1.87586450576782,2.7060432434082,-2.59531978247425,1.84912278287974,2.74948366775945,1240.911,1236.08,2997.45,2991.813,-0.008021441,0.05457096,0.008755425,-0.712163984775543,-0.293085068464279,0.500636041164398,-0.716930938559024,-0.308475354130224,0.443814403124743,0
3.62001037597656,-2.87498736381531,1.87010765075684,2.71590900421143,-2.60953584173048,1.8430060097325,2.75828408564387,1243.093,1234.785,2993.486,2983.912,-0.006508233,0.05495054,0.007291188,-0.699967503547668,-0.287843406200409,0.49328738451004,-0.704352136620513,-0.303063047067126,0.436027525513372,0
3.63999938964844,-2.88874053955078,1.86445605754852,2.72562575340271,-2.6234885835008,1.83700253474321,2.76692149746096,1239.353,1233.688,2989.588,2981.652,-0.005030711,0.05531615,0.005856329,-0.687657356262207,-0.282573848962784,0.48584321141243,-0.691670720740692,-0.297606588091786,0.428177124984152,0
3.66000366210938,-2.90224552154541,1.8589106798172,2.735191822052,-2.63719712493647,1.83110413233575,2.77540773763803,1236.155,1231.883,2986.78,2978.376,-0.003560646,0.05567157,0.004441519,-0.675244033336639,-0.277281045913696,0.478306889533997,-0.678873453515702,-0.29210028151913,0.420255006953505,0
3.68000793457031,-2.91550016403198,1.85347127914429,2.74460387229919,-2.65064865588166,1.82531631436231,2.78373487607838,1237.864,1230.184,2980.918,2973.297,-0.002091114,0.05602176,0.003029478,-0.662733912467957,-0.271965384483337,0.470600605010986,-0.665976209205203,-0.286550957599616,0.412270998344358,0
3.69999694824219,-2.92850255966187,1.8481388092041,2.75386095046997,-2.66383127580226,1.81964420129024,2.79189554578451,1239.691,1229.103,2976.848,2966.282,-0.0006466155,0.05636279,0.001629053,-0.650130867958069,-0.266627997159958,0.462853938341141,-0.65299527533123,-0.280965624398954,0.404235181908735,0
3.72000122070313,-2.94125151634216,1.84291291236877,2.76296210289001,-2.6767633032417,1.81407991116207,2.79990108680742,1233.454,1228.023,2974.069,2965.867,0.0007542083,0.05668712,0.0002703557,-0.637441158294678,-0.261273056268692,0.455054759979248,-0.639917282339434,-0.275338529371411,0.396139281255611,0
3.74000549316406,-2.95374536514282,1.83779501914978,2.7719042301178,-2.6894328975087,1.80862853869646,2.80774416919516,1233.302,1226.041,2969.533,2961.896,0.002150067,0.05700485,-0.001079645,-0.624677240848541,-0.255905240774155,0.44710835814476,-0.626758665639204,-0.269676744214497,0.387993470686332,0
3.760009765625,-2.96598196029663,1.83278453350067,2.780686378479,-2.70183851231475,1.80329074921818,2.81542383572149,1234.924,1224.947,2965.52,2955.283,0.003530983,0.05731517,-0.002420281,-0.611843168735504,-0.250525414943695,0.439107716083527,-0.613526094901139,-0.263983138701136,0.379801879044709,0
3.77999877929688,-2.97796058654785,1.82788181304932,2.78930735588074,-2.7139695770734,1.79807109095524,2.82293354268985,1232.264,1223.992,2961.856,2952.544,0.004874483,0.0576123,-0.003728426,-0.598943769931793,-0.245135858654976,0.431044399738312,-0.60023651686137,-0.258265004538452,0.371574997167698,0
3.80000305175781,-2.98968052864075,1.823086977005,2.79776573181152,-2.72584333814708,1.79296214327972,2.83028396642013,1229.021,1222.51,2959.143,2949.933,0.006198976,0.05789787,-0.005007808,-0.585989117622375,-0.239740774035454,0.422919452190399,-0.586876524285838,-0.252516572968186,0.363304525338741,0
3.82000732421875,-3.00114035606384,1.81840038299561,2.80605912208557,-2.73744929742843,1.78796842323393,2.8374686080838,1230.139,1220.941,2954.218,2945.415,0.007515772,0.05817698,-0.006274407,-0.572987496852875,-0.234341740608215,0.414669990539551,-0.573463232144022,-0.246745208083563,0.355001058539243,0
3.84001159667969,-3.01233911514282,1.81382131576538,2.81418704986572,-2.74878645956754,1.78309035908911,2.84448685151184,1231.641,1219.954,2950.374,2939.391,0.008805322,0.05844686,-0.007521832,-0.559942424297333,-0.228939369320869,0.406392782926559,-0.560003743914976,-0.240953966313175,0.346668994161123,0
3.86000061035156,-3.02327632904053,1.80935072898865,2.82214856147766,-2.75984563331209,1.77833190558438,2.85133300688122,1228.34,1219.016,2947.146,2937.525,0.01004816,0.05870204,-0.008729842,-0.546860635280609,-0.223536878824234,0.3980772793293,-0.546515580872635,-0.235150386571708,0.338319178707605,0
3.8800048828125,-3.03395104408264,1.80498790740967,2.82994270324707,-2.77064299647982,1.77368610185671,2.85801708903178,1225.021,1217.553,2944.59,2935.471,0.01126815,0.05894589,-0.009906427,-0.533753633499146,-0.21813890337944,0.389712333679199,-0.532985466132484,-0.229328756186666,0.329943393154704,0
3.90000915527344,-3.04436373710632,1.80073308944702,2.8375678062439,-2.78116944461445,1.76915686529929,2.86453346187138,1226.402,1216.119,2940.185,2930.744,0.01247909,0.05918349,-0.01106916,-0.52062976360321,-0.212747424840927,0.381251752376556,-0.519431110871129,-0.223496695782554,0.321552601564443,0
3.91999816894531,-3.05451345443726,1.79658579826355,2.84502339363098,-2.79141684911929,1.7647476934202,2.87087709341145,1227.538,1215.279,2936.57,2925.402,0.01365966,0.05941172,-0.01220793,-0.507491767406464,-0.207362741231918,0.372775584459305,-0.505870408491346,-0.2176619043907,0.313157880805522,0
