t,x_s1,x_s2,x_s3,x_s_d1,x_s_d2,x_s_d3,propellers_rpms1,propellers_rpms2,propellers_rpms3,propellers_rpms4,rollRad,pitchRad,yawRad,v_s1,v_s2,v_s3,v_s_d1,v_s_d2,v_s_d3,insideCount
0,-0.0599999986588955,2.94000005722046,1.17999994754791,-0.0599999986588955,2.94000005722046,1.17999994754791,0,0,0,0,0,0,0,0,0,0,-1.06581410364015E-15,4.44089209850063E-16,4.44089209850063E-16,0
0.019989013671875,-0.0599999986588955,2.94000005722046,1.17811644077301,-0.0600018659130177,2.93999925379318,1.18000110346716,0,0,0,0,-0.01635288,0.0001297794,-0.01587137,-1.10653664009419E-09,-7.76775763711157E-08,-0.0941759571433067,-0.000279680311988734,-0.000120338624884473,0.000173135436141649,5
0.0399932861328125,-0.0599999986588955,2.94000005722046,1.17242503166199,-0.060014863945674,2.93999366110285,1.18000914986856,0,0,0,0,-0.03270202,0.0005238493,-0.03175127,-1.08383135799528E-09,-7.60859677484405E-08,-0.284568399190903,-0.00111059898697896,-0.000477859717552347,0.000687513678106196,5
0.05999755859375,-0.0599058866500854,2.93990302085876,1.16596508026123,-0.0600498857373401,2.93997859220429,1.18003083002592,1868.354,3252.841,3183.737,1722.314,-0.04942294,0.000329806,-0.01369557,0.00470561534166336,-0.00484914472326636,-0.32299879193306,-0.00247936261166862,-0.00106680046642749,0.00153484356504269,5
0.0800018310546875,-0.0598203726112843,2.93960738182068,1.16000318527222,-0.0601175574246769,2.93994947496775,1.18007272202403,1925.478,2314.355,3252.169,2829.42,-0.07543564,-0.002136388,0.02094805,0.00427567213773727,-0.014778820797801,-0.298097044229507,-0.00437268608126799,-0.00188144466206175,0.00270690098422899,5
0.0999908447265625,-0.0599374547600746,2.93904495239258,1.15498673915863,-0.0602281370710988,2.93990189563514,1.18014117609281,980.0964,1498.883,3915.018,3896.587,-0.1032007,-0.008063519,0.06330951,-0.00585401896387339,-0.0281177312135696,-0.25082466006279,-0.00677536694902951,-0.00291525111632684,0.0041942748969354,4
0.1199951171875,-0.0604638755321503,2.93818354606628,1.15081346035004,-0.0603918861403606,2.93983143898525,1.18024254456713,346.0178,980.1927,4173.286,4613.497,-0.1214359,-0.0154229,0.104006,-0.0263210758566856,-0.0430709719657898,-0.208664610981941,-0.00967801353495435,-0.00416417885169243,0.00599115140585487,4
0.139999389648438,-0.0615636557340622,2.93704128265381,1.1472829580307,-0.0606185767455666,2.93973390035084,1.18038287685052,352.9745,747.1586,3975.09,4855.053,-0.1254024,-0.0211684,0.1351104,-0.0549890846014023,-0.057116162031889,-0.1765246540308,-0.0130660253322238,-0.00562194567796536,0.00808849210174802,4
0.159988403320313,-0.0633409321308136,2.93568086624146,1.14427483081818,-0.0609175312885481,2.93960526856281,1.18056794395381,821.1297,814.9834,3462.453,4692.479,-0.1184601,-0.0235253,0.1522726,-0.0888638496398926,-0.0680163130164146,-0.150403559207916,-0.0169234294955564,-0.00728167892605071,0.0104764090324936,3
0.17999267578125,-0.0658470541238785,2.9341721534729,1.14182531833649,-0.0612985250199726,2.93944133760391,1.18080379722281,1348.496,1083.136,3007.172,4255.248,-0.1079784,-0.02278068,0.1557796,-0.125306099653244,-0.0754325985908508,-0.122476495802402,-0.0212433804254414,-0.00914043312572283,0.0131506644458931,3
0.199996948242188,-0.0690851733088493,2.93255376815796,1.140061378479,-0.0617704296168641,2.93923829023936,1.18109592864822,1636.58,1381.371,2918.107,3666.323,-0.0998238,-0.02030128,0.1501555,-0.161906167864799,-0.0809164941310883,-0.0881941169500351,-0.0260104776919234,-0.0111915819022102,0.0161017247421801,3
0.220001220703125,-0.0730105489492416,2.93082594871521,1.13903534412384,-0.0623420644491781,2.93899233174064,1.18144979784016,1641.675,1580.896,3147.912,3112.963,-0.09583811,-0.01735475,0.1421851,-0.196268945932388,-0.086386501789093,-0.0512994378805161,-0.03121219533433,-0.0134297356845702,0.019321835755004,3
0.239990234375,-0.0775503292679787,2.92897343635559,1.13863289356232,-0.0630214373585105,2.93870001655724,1.18187036203406,1524.136,1624.287,3417.867,2777.301,-0.094759,-0.01467775,0.137729,-0.226989030838013,-0.0926253348588943,-0.0201202891767025,-0.0368316683029241,-0.015847637913056,0.022800557215184,3
0.259994506835938,-0.0826392844319344,2.92699217796326,1.13863551616669,-0.0638179029240226,2.93835731967507,1.18236341216003,1438.42,1500.553,3534.079,2744.198,-0.09439095,-0.0125893,0.1393012,-0.254447758197784,-0.09906055778265,0.000129921361804008,-0.0428651747123285,-0.0184436871643672,0.0265355850983733,3
0.279998779296875,-0.088245153427124,2.9249005317688,1.13885200023651,-0.0647390625194898,2.93796097043536,1.18293365383054,1400.692,1276.099,3476.247,2977.699,-0.09320851,-0.01110591,0.145685,-0.280293643474579,-0.104587085545063,0.0108242519199848,-0.0492963837173861,-0.0212108567320638,0.030516809833474,3
0.300003051757813,-0.0943709015846252,2.92273235321045,1.13920664787292,-0.0657927507678135,2.93750759781875,1.18358593705038,1351.099,1061.738,3344.545,3324.79,-0.09053203,-0.009934656,0.1533108,-0.306287497282028,-0.108407936990261,0.0177300870418549,-0.0561132031658829,-0.0241439437008635,0.0347367458022363,3
0.319992065429688,-0.101036235690117,2.92052555084229,1.13972473144531,-0.0669855955880233,2.93699435001684,1.18432436481717,1280.946,941.1042,3237.547,3590.591,-0.08598335,-0.008523713,0.1583598,-0.333266407251358,-0.110342785716057,0.0259024240076542,-0.0632980253096114,-0.0272353719486164,0.0391844929697465,3
0.339996337890625,-0.108251884579659,2.91831183433533,1.14046168327332,-0.068326768706371,2.93641728069206,1.18515461486636,1252.259,943.6888,3172.185,3650.011,-0.07944795,-0.006293582,0.1584796,-0.360783100128174,-0.110682338476181,0.0368449799716473,-0.0708499516420146,-0.0304847548730522,0.0438594951176439,4
0.360000610351563,-0.116003453731537,2.91611456871033,1.14145255088806,-0.0698225328270578,2.93577369517774,1.1860805641102,1319.792,1047.361,3120.259,3498.22,-0.07154316,-0.002963566,0.1534759,-0.387578278779984,-0.109861329197884,0.0495458766818047,-0.0787518717320621,-0.0338847303337087,0.0487511600740379,4
0.379989624023438,-0.124251812696457,2.91394948959351,1.14270722866058,-0.0714784451857985,2.93506120235061,1.1871056527423,1456.214,1182.025,3089.908,3231.007,-0.06361067,0.001260014,0.1450371,-0.412417948246002,-0.10825751721859,0.0627333149313927,-0.0869857157641562,-0.0374275233937465,0.0538483017622888,4
0.399993896484375,-0.132943660020828,2.91182613372803,1.14421701431274,-0.0733036822025899,2.9342758538535,1.18823556140379,1579.036,1273.281,3105.608,2981.872,-0.05701562,0.005826182,0.1357475,-0.434592515230179,-0.106165312230587,0.0754878148436546,-0.0955525119207663,-0.0411135764513579,0.0591515566763244,4
0.419998168945313,-0.142024040222168,2.90974998474121,1.14595746994019,-0.0753034649285836,2.93341540321397,1.18947352217404,1631.095,1288.649,3158.795,2845.064,-0.05243551,0.01017584,0.127856,-0.4540194272995,-0.103802002966404,0.0870240405201912,-0.104434660908044,-0.0449353170220673,0.0646500300148815,4
0.44000244140625,-0.151446461677551,2.90772414207458,1.14789521694183,-0.077483988232608,2.93247718495301,1.19082336997196,1607.569,1238.401,3218.911,2842.495,-0.04965517,0.01397656,0.1224571,-0.47112113237381,-0.101289466023445,0.0968871489167213,-0.113620829717891,-0.048887868829098,0.0703367061060819,4
0.459991455078125,-0.161177173256874,2.9057514667511,1.14999663829803,-0.0798493430620752,2.93145943885026,1.19228763728888,1541.568,1158.262,3252.868,2938.092,-0.04789056,0.01718702,0.1193366,-0.486535489559174,-0.0986378937959671,0.105069682002068,-0.123092454730403,-0.0529632444654124,0.0762000931848968,4
0.479995727539063,-0.171194046735764,2.9038360118866,1.15223908424377,-0.0824088828700873,2.93035814037613,1.19387211435783,1473.191,1085.763,3249.468,3067.286,-0.04629053,0.01998629,0.1173795,-0.500843346118927,-0.0957786813378334,0.112124599516392,-0.132852887402757,-0.0571628859694044,0.0822422659629699,5
0.5,-0.181481435894966,2.9019832611084,1.15461552143097,-0.085166398670376,2.92917165836334,1.1955791479969,1431.913,1046.368,3215.809,3169.901,-0.04432938,0.02264407,0.1152257,-0.514370381832123,-0.0926406979560852,0.118820823729038,-0.142884000065179,-0.0614789935111996,0.0884520025491718,5
0.519989013671875,-0.192024603486061,2.90019869804382,1.1571341753006,-0.0881248588203387,2.92789871561062,1.19741057576073,1424.919,1045.374,3176.528,3209.707,-0.04191656,0.02538114,0.111884,-0.527157962322235,-0.0892267748713493,0.125933229923248,-0.153166947611899,-0.0659034585682559,0.0948176369253132,5
0.539993286132813,-0.202804893255234,2.89848589897156,1.15980970859528,-0.091293865515634,2.92653518056143,1.19937234186584,1444.626,1072.989,3149.925,3184.925,-0.03929281,0.02828891,0.1070518,-0.539014935493469,-0.0856376141309738,0.133775055408478,-0.163706645289342,-0.0704383960337938,0.101342211863077,5
0.55999755859375,-0.213798135519028,2.89684534072876,1.16265261173248,-0.094676112580471,2.92507989413848,1.20146611391775,1483.768,1113.86,3138.33,3114.846,-0.03688265,0.03132767,0.1010603,-0.549663126468658,-0.0820306092500687,0.142143383622169,-0.17448465888317,-0.0750758741803766,0.108014315705644,5
0.580001831054688,-0.224976405501366,2.8952739238739,1.16566753387451,-0.0982762614093182,2.92353085067394,1.20369477754168,1522.305,1149.133,3145.142,3034.053,-0.03512337,0.03434771,0.09464987,-0.558912694454193,-0.0785738378763199,0.150745674967766,-0.185490414529404,-0.0798113433697334,0.11482740272751,5
0.599990844726563,-0.236311018466949,2.8937656879425,1.16885113716125,-0.102095761416081,2.92188742652551,1.20605922999388,1540.726,1167.108,3163.36,2978.987,-0.03429566,0.03716256,0.08861164,-0.566731989383698,-0.0754157155752182,0.15917806327343,-0.19670480600515,-0.0846365827279185,0.121769645266545,5
0.6199951171875,-0.247776329517365,2.89231252670288,1.17219471931458,-0.106144683970236,2.92014528826426,1.20856570593183,1533.169,1166.947,3183.56,2964.62,-0.03442508,0.03963116,0.08345965,-0.573265969753265,-0.0726639926433563,0.167179852724075,-0.208134604141382,-0.0895545055543457,0.128845234789665,5
0.639999389648438,-0.259351521730423,2.89090490341187,1.17568695545197,-0.110424235525481,2.91830391678686,1.21121495220784,1506.765,1156.372,3194.236,2987.34,-0.03534121,0.04169882,0.07929713,-0.578759789466858,-0.0703800991177559,0.17461034655571,-0.219761081350814,-0.0945570538913933,0.136042578028218,5
0.659988403320313,-0.271021246910095,2.88953304290771,1.1793200969696,-0.114934715429503,2.91636318329238,1.21400715413238,1468.892,1144.649,3196.711,3029.858,-0.03677506,0.04338856,0.07589924,-0.583485901355743,-0.0685942471027374,0.181657835841179,-0.231565018351745,-0.0996359582190702,0.143349777331291,5
0.67999267578125,-0.282774180173874,2.88818669319153,1.18308961391449,-0.119686638739014,2.91431856344567,1.21694882102647,1427.895,1139.371,3191.724,3075.774,-0.03844486,0.04477638,0.07288582,-0.587647318840027,-0.0673229694366455,0.18847844004631,-0.243554411173546,-0.104794659005432,0.150771782621969,5
0.699996948242188,-0.294601112604141,2.88685512542725,1.18699204921722,-0.124680083855354,2.91217002351282,1.22004000142426,1403.796,1146.136,3176.835,3103.091,-0.0401658,0.04596687,0.06985991,-0.591346144676208,-0.066572517156601,0.195121809840202,-0.255710395848158,-0.11002503961202,0.158296916205407,5
0.720001220703125,-0.30649334192276,2.88552808761597,1.19102811813354,-0.129918284978346,2.90991617190799,1.22328269744952,1395.401,1163.181,3162.802,3105.401,-0.04192721,0.04702372,0.06662225,-0.594610929489136,-0.0663566291332245,0.20180556178093,-0.268023157655716,-0.11532287703907,0.16591910230247,5
0.739990234375,-0.318441689014435,2.88419389724731,1.19519889354706,-0.135400001298574,2.90755754251682,1.2266761409821,1392.251,1185.209,3153.627,3094.019,-0.04383883,0.04795366,0.06321364,-0.597417771816254,-0.0667059049010277,0.208541333675385,-0.280473432677602,-0.12067988256057,0.173626415629864,5
0.759994506835938,-0.330436736345291,2.88284063339233,1.19950473308563,-0.14113644597991,2.90508931062815,1.2302272735046,1390.211,1207.305,3151.329,3075.417,-0.0460093,0.04873223,0.05981484,-0.599754095077515,-0.0676610320806503,0.215291693806648,-0.293070637251543,-0.126100107763583,0.181424685349205,5
0.779998779296875,-0.34246951341629,2.88145542144775,1.20394206047058,-0.147126184485884,2.90251209348295,1.23393520697061,1387.578,1226.459,3150.151,3059.505,-0.04853664,0.04931828,0.0566516,-0.601637125015259,-0.0692554339766502,0.221868470311165,-0.305795832832518,-0.131575403921268,0.189302187598958,5
0.79998779296875,-0.354532390832901,2.88002514839172,1.20850801467896,-0.153366821193532,2.89982692185086,1.2377984583754,1376.762,1240.894,3153.081,3052.533,-0.05146559,0.04966401,0.0539276,-0.6031454205513,-0.0715180635452271,0.22829981148243,-0.318629798715703,-0.137097500901303,0.197247023847227,5
0.819992065429688,-0.366620182991028,2.87853574752808,1.21319842338562,-0.159870162197751,2.89702871589906,1.2418243362541,1350.82,1250.699,3157.489,3062.964,-0.05474767,0.04973854,0.05176312,-0.604387998580933,-0.0744666159152985,0.234521225094795,-0.33158286215529,-0.142670842232658,0.205265587156312,4
0.839996337890625,-0.37872987985611,2.87697386741638,1.21800637245178,-0.166633637018892,2.89411858163313,1.24601124935738,1326.105,1259.398,3155.181,3079.325,-0.05825132,0.04955925,0.0501054,-0.605484545230865,-0.0780951827764511,0.240396499633789,-0.344636106234817,-0.148287288494656,0.213346167053785,4
0.860000610351563,-0.390860885381699,2.87532615661621,1.2229278087616,-0.173659158941841,2.89109569582005,1.2503603820997,1302.505,1269.344,3151.13,3095.54,-0.06186896,0.04915423,0.04885462,-0.606550753116608,-0.0823880061507225,0.246074691414833,-0.357780475378537,-0.153942943326036,0.221483157706883,4
0.879989624023438,-0.403014183044434,2.87357974052429,1.22795939445496,-0.18094280014554,2.88796174849148,1.25486930297274,1277.254,1281.144,3145.537,3113.443,-0.06552228,0.04855533,0.04791377,-0.607664823532104,-0.0873215645551682,0.251580655574799,-0.370996904517929,-0.159629603560431,0.229664756929996,4
0.899993896484375,-0.415191769599915,2.87172245979309,1.23309874534607,-0.18849723509595,2.8847112861788,1.25954585807468,1256.676,1294.93,3140.315,3124.981,-0.06912661,0.04780338,0.0471852,-0.608880937099457,-0.0928699672222137,0.256966471672058,-0.384296738353309,-0.165352150505452,0.237897987633041,4
0.919998168945313,-0.427396208047867,2.86974263191223,1.23834192752838,-0.196318384305134,2.8813460641717,1.26438752200817,1246.789,1310.754,3131.688,3128.333,-0.07266222,0.04693357,0.04661196,-0.610221207141876,-0.0989955887198448,0.262160062789917,-0.397661187980262,-0.171102499820431,0.246171218589148,4
0.94000244140625,-0.439630419015884,2.86762928962708,1.24368834495544,-0.204407453948074,2.87786556348678,1.26939504145298,1239.829,1326.873,3127.085,3126.098,-0.0761696,0.04595265,0.04622317,-0.611710786819458,-0.10567232221365,0.267318665981293,-0.411081631631503,-0.176876941799768,0.254479112513653,4
0.959991455078125,-0.451897799968719,2.86537170410156,1.24913656711578,-0.212759000778906,2.87427212620069,1.27456504678061,1227.154,1341.213,3125.742,3128.748,-0.07968444,0.04485369,0.04609894,-0.613369166851044,-0.112874016165733,0.272412031888962,-0.424539267042903,-0.182667386354485,0.262810029909387,3
0.979995727539063,-0.464202463626862,2.86296033859253,1.25468504428864,-0.22138664033507,2.87055989392801,1.27990596665734,1213.113,1353.016,3127.177,3132.836,-0.08316999,0.04363962,0.046284,-0.615233480930328,-0.120573379099369,0.277422845363617,-0.438046240701377,-0.188479059778567,0.271171490030365,3
1,-0.47654926776886,2.86038589477539,1.26032936573029,-0.230284798736574,2.86673126495361,1.28541435058594,1204.64,1363.43,3124.281,3137.618,-0.08659428,0.04232341,0.04678195,-0.617339789867401,-0.128723368048668,0.282218158245087,-0.451584000205995,-0.194303979492187,0.279552008056641,3
1.01998901367188,-0.48894414305687,2.85764026641846,1.26606845855713,-0.239446912293295,2.86278906344998,1.29108613532954,1195.812,1372.627,3123.248,3143.291,-0.08995199,0.04091039,0.04759588,-0.619742631912231,-0.137286990880966,0.286956399679184,-0.46513400752272,-0.200134169097193,0.287940108062054,3
1.03999328613281,-0.501393735408783,2.8547158241272,1.27190172672272,-0.248887339851819,2.85872711120656,1.2969302096982,1177.973,1380.152,3124.607,3157.528,-0.09321277,0.03940617,0.04872668,-0.622484028339386,-0.146224677562714,0.291663229465485,-0.478708875293167,-0.205975055460915,0.29634359787259,3
1.05999755859375,-0.513905644416809,2.85160613059998,1.27782607078552,-0.258599401509697,2.85454828239877,1.30294243851408,1169.122,1387.365,3121.515,3167.952,-0.09629937,0.03784889,0.05008394,-0.6255943775177,-0.15548075735569,0.296216040849686,-0.492290296490434,-0.211818761581115,0.30475114456651,3
1.08000183105469,-0.526487708091736,2.84830594062805,1.28384172916412,-0.268583149539609,2.85025255453512,1.30912285413647,1164.409,1395.028,3120.049,3173.586,-0.09919742,0.03626115,0.05161844,-0.629104197025299,-0.165011718869209,0.300782740116119,-0.50587040849135,-0.217661904390701,0.313157880805523,3
1.09999084472656,-0.539148092269897,2.84481048583984,1.2899489402771,-0.278830554044452,2.84584338265603,1.31546648567654,1156.662,1402.086,3119.832,3182.381,-0.1019123,0.03465535,0.05332161,-0.633019328117371,-0.17476961016655,0.305362433195114,-0.519431110871131,-0.223496695782555,0.321552601564445,3
1.1199951171875,-0.551895022392273,2.84111618995667,1.29614853858948,-0.289357002179081,2.84131414609862,1.32198285851614,1150.757,1407.866,3121.899,3188.953,-0.1044076,0.03305098,0.05516634,-0.637347400188446,-0.184710279107094,0.309980362653732,-0.532985466132485,-0.229328756186667,0.329943393154705,3
1.13999938964844,-0.564736664295197,2.83722066879272,1.30243909358978,-0.300154365346813,2.83666834237095,1.3286669406667,1153.547,1413.504,3119.828,3192.003,-0.106682,0.0314703,0.05711978,-0.642080545425415,-0.194773465394974,0.314530074596405,-0.546515580872639,-0.235150386571708,0.338319178707607,3
1.15998840332031,-0.577681243419647,2.83312225341797,1.30882275104523,-0.31121353909136,2.83190988886621,1.33551309603608,1156.83,1418.224,3120.99,3193.639,-0.1087773,0.0299156,0.05919002,-0.647229433059692,-0.204921156167984,0.319185733795166,-0.560003743914979,-0.240953966313175,0.346668994161124,3
1.17999267578125,-0.590737104415894,2.82881999015808,1.31530225276947,-0.322550701230474,2.8270318247214,1.34253133946411,1150.762,1420.76,3126.449,3202.714,-0.1107049,0.02838169,0.06140822,-0.65279358625412,-0.215117812156677,0.323972970247269,-0.573463232144024,-0.246745208083563,0.355001058539242,3
1.19999694824219,-0.60391241312027,2.82431387901306,1.32187676429749,-0.334156660511822,2.8220381046756,1.34971598112778,1153.022,1422.44,3127.632,3208.703,-0.1124227,0.02689402,0.06371999,-0.658765494823456,-0.225309669971466,0.328728258609772,-0.58687652428584,-0.252516572968185,0.36330452533874,3
1.22000122070313,-0.6172154545784,2.81960463523865,1.32854878902435,-0.346030421585499,2.81692915700008,1.35706640485806,1158.114,1423.824,3130.434,3211.61,-0.1139418,0.02546131,0.0661034,-0.665155172348022,-0.235461264848709,0.333603888750076,-0.600236516861372,-0.258265004538453,0.371574997167698,3
1.239990234375,-0.630654513835907,2.81469392776489,1.33532083034515,-0.358161486344149,2.81170949873715,1.36457611182642,1158.041,1424.146,3134.573,3219.699,-0.1152808,0.02408375,0.06856221,-0.67195326089859,-0.245534464716911,0.338599890470505,-0.613526094901141,-0.263983138701136,0.379801879044709,2
1.25999450683594,-0.644237577915192,2.80958390235901,1.34219539165497,-0.3705671011502,2.80637170925886,1.37225577835275,1157.802,1423.12,3140.543,3227.488,-0.1164046,0.02277448,0.07106296,-0.679153919219971,-0.255495518445969,0.343726694583893,-0.626758665639206,-0.269676744214496,0.387993470686331,2
1.27999877929688,-0.65797221660614,2.80427813529968,1.34917271137238,-0.383236695417198,2.80092033679326,1.3800988607405,1166.688,1422.796,3141.061,3231.295,-0.1173064,0.0215564,0.07354867,-0.686732888221741,-0.265293002128601,0.348865330219269,-0.639917282339435,-0.275338529371412,0.396139281255613,2
1.29998779296875,-0.671865999698639,2.7987802028656,1.35625660419464,-0.396158759015336,2.79536033382764,1.388098233671,1176.119,1422.282,3144.342,3232.995,-0.1180345,0.02042956,0.07600856,-0.694686055183411,-0.274901926517487,0.354195654392242,-0.652985332144132,-0.280961346123326,0.404229026602261,2
1.31999206542969,-0.685925841331482,2.79309415817261,1.36345160007477,-0.409351342777246,2.78968393359302,1.39626507146953,1176.264,1420.079,3152.454,3240.628,-0.1186049,0.01938519,0.07846542,-0.702992022037506,-0.284303665161133,0.359752774238586,-0.665976209205206,-0.286550957599616,0.412270998344359,2
1.33999633789063,-0.700158059597015,2.78722500801086,1.37075853347778,-0.422802873722428,2.78389611561957,1.40459220990988,1185.005,1417.984,3155.635,3244.164,-0.1189916,0.01844387,0.08086913,-0.711614668369293,-0.2934590280056,0.365348130464554,-0.678873453515705,-0.29210028151913,0.420255006953505,2
1.36000061035156,-0.714568972587585,2.78117799758911,1.37818098068237,-0.436511415158101,2.77799771321212,1.41307845008695,1196.578,1415.854,3160.349,3244.041,-0.1192244,0.0176059,0.08321059,-0.720544576644897,-0.302349537611008,0.371121674776077,-0.691670720740693,-0.297606588091785,0.42817712498415,2
1.37998962402344,-0.729164063930511,2.77495884895325,1.38572239875793,-0.450464156928423,2.77199423822282,1.42171586190405,1202.108,1412.704,3166.82,3249.063,-0.1193389,0.01685985,0.08551343,-0.72975480556488,-0.310957401990891,0.377071261405945,-0.704352136620515,-0.303063047067127,0.436027525513373,2
1.39999389648438,-0.743948638439178,2.76857352256775,1.39338624477386,-0.464680216184654,2.76587746507559,1.43051627978847,1205.844,1408.207,3175.299,3254.644,-0.1193075,0.01620756,0.08776497,-0.739225089550018,-0.319269567728043,0.383190244436264,-0.716930938559026,-0.308475354130225,0.443814403124744,2
1.41999816894531,-0.75892698764801,2.76202845573425,1.40117287635803,-0.47914673136562,2.75965292774086,1.43947174182117,1217.974,1404.898,3177.284,3256.943,-0.1191312,0.01566429,0.08991888,-0.748917937278748,-0.327253103256226,0.389329493045807,-0.729391385793766,-0.313836736470737,0.451528013536465,2
1.44000244140625,-0.77410352230072,2.75533032417297,1.40908622741699,-0.493861275572861,2.75332167044526,1.4485807456364,1229.985,1401.555,3181.898,3257.273,-0.1188574,0.01522276,0.0919697,-0.758825838565826,-0.334902793169022,0.395668536424637,-0.741727567798258,-0.319144650954242,0.459164697851088,2
1.45999145507813,-0.789481818675995,2.74848604202271,1.41713035106659,-0.508809800712713,2.74688973769103,1.45783459479497,1234.426,1397.256,3189.417,3262.622,-0.1185139,0.01486986,0.09393767,-0.768918693065643,-0.34221738576889,0.402203470468521,-0.753924423002454,-0.324392617007921,0.466715132239272,2
1.47999572753906,-0.805065214633942,2.74150204658508,1.42530822753906,-0.524012471663969,2.74034845309416,1.46724577231745,1237.804,1391.978,3198.747,3267.219,-0.1180553,0.01460957,0.0958081,-0.779168248176575,-0.349196046590805,0.408893555402756,-0.765994882555672,-0.329586198544069,0.474187321698441,2
1.5,-0.820855796337128,2.73438572883606,1.43361949920654,-0.539455198877605,2.73370387899399,1.4768055561018,1251.341,1388.488,3200.324,3267.274,-0.1174806,0.01445625,0.09753887,-0.789528012275696,-0.355813503265381,0.415562331676483,-0.777924000354858,-0.334718964672088,0.481572013878822,1
1.51998901367188,-0.836855590343475,2.72714424133301,1.44206738471985,-0.555123050061237,2.72696244033876,1.48650470234772,1264.915,1385.064,3204.116,3265.499,-0.1168521,0.01439732,0.09913708,-0.799988865852356,-0.362071573734283,0.422394961118698,-0.789697369743256,-0.339784716610053,0.488860290373601,1
1.53999328613281,-0.853066086769104,2.71978449821472,1.4506561756134,-0.571036956668503,2.72011513090874,1.49635616862212,1266.658,1379.82,3213.594,3270.8,-0.1161927,0.01441004,0.1006451,-0.810525715351105,-0.367984741926193,0.429438710212708,-0.801327600455846,-0.344788879974649,0.496059957209413,1
1.55999755859375,-0.869487881660461,2.71231365203857,1.45938563346863,-0.587181951496087,2.71316839067337,1.50635068951315,1275.294,1375.619,3217.121,3273.001,-0.1154736,0.01450821,0.1020219,-0.821091949939728,-0.373544722795486,0.436471253633499,-0.812800388649436,-0.349725300221754,0.503162159625937,1
1.58000183105469,-0.886121571063995,2.70473837852478,1.46825802326202,-0.60355483331529,2.70612359703193,1.51648628330776,1286.696,1371.811,3221.784,3270.932,-0.1147141,0.01468835,0.1032598,-0.831677556037903,-0.378760069608688,0.443617641925812,-0.824110582941666,-0.354591760855452,0.510163708672098,0
1.59999084472656,-0.902966558933258,2.69706559181213,1.47727537155151,-0.620139554045575,2.69898765502515,1.52675301547962,1291.961,1367.444,3227.958,3273.354,-0.1139423,0.0149327,0.1043893,-0.842252552509308,-0.383640766143799,0.450866490602493,-0.835244706287931,-0.359382463079953,0.517056261415284,0
1.6199951171875,-0.920022368431091,2.68930149078369,1.48643934726715,-0.636958033083316,2.69175113334911,1.53716445517924,1294.942,1362.213,3235.747,3276.249,-0.1131284,0.0152383,0.1054098,-0.852793991565704,-0.388199239969254,0.458197563886642,-0.846214826007804,-0.364102599125749,0.523847288101157,0
1.63999938964844,-0.937287628650665,2.68145298957825,1.49574816226959,-0.653994195024907,2.68442094880091,1.54771065096602,1306.199,1359.013,3235.858,3275.933,-0.1122762,0.01561512,0.1062854,-0.863260447978973,-0.392426043748856,0.465442419052124,-0.857007552155828,-0.368746407673381,0.530528499715628,0
1.65998840332031,-0.954760611057281,2.67352628707886,1.50520396232605,-0.67123120513297,2.67700434489773,1.55838118133557,1316.547,1355.91,3238.845,3273.73,-0.1114373,0.01604988,0.1070222,-0.873650670051575,-0.396338015794754,0.472789525985718,-0.867610144209785,-0.373308406832068,0.537092009268528,0
1.67999267578125,-0.972439467906952,2.66552710533142,1.51480937004089,-0.688691692550512,2.66949158495151,1.56919005480539,1315.23,1351.148,3247.613,3277.9,-0.110616,0.01652061,0.1076634,-0.883943498134613,-0.399962782859802,0.480269521474838,-0.878034183119987,-0.377793579561193,0.543544985919778,0
1.69999694824219,-0.990321338176727,2.65746116638184,1.52456200122833,-0.706358800111611,2.66188992212981,1.58012683598675,1321.908,1348.031,3249.118,3278.468,-0.1097776,0.01704329,0.10817,-0.894092619419098,-0.403301239013672,0.487632870674133,-0.888267004546665,-0.382196476749158,0.549879589839776,0
1.72000122070313,-1.00840318202972,2.64933371543884,1.53446233272552,-0.724228658537036,2.6542010212754,1.5911891296115,1331.911,1345.48,3251.529,3274.328,-0.1089451,0.01761195,0.1085402,-0.90409529209137,-0.406368762254715,0.495018690824509,-0.898304216251578,-0.386515208538549,0.556093102023817,0
1.739990234375,-1.02668178081512,2.64114999771118,1.54451084136963,-0.74228345468553,2.64643254688532,1.60236590849663,1334.646,1342.327,3255.872,3275.421,-0.108152,0.01820585,0.1088156,-0.913929343223572,-0.409184336662292,0.50242817401886,-0.908134108040217,-0.390744736359816,0.562178273303667,0
1.75999450683594,-1.04515337944031,2.63291454315186,1.55470764636993,-0.760546715064628,2.63857437616062,1.61367173667103,1334.033,1338.225,3262.283,3277.558,-0.1073632,0.01882022,0.1090029,-0.92358011007309,-0.411769539117813,0.509841024875641,-0.917767514700581,-0.394889722119545,0.568141810929231,0
1.77999877929688,-1.06381368637085,2.62463212013245,1.56504905223846,-0.779000609654483,2.63063418086074,1.62509557650306,1341.971,1336.35,3260.453,3276.478,-0.1065728,0.01946719,0.1090668,-0.933012425899506,-0.41412165760994,0.517069458961487,-0.927192788821983,-0.398945154262308,0.57397650459845,0
1.79998779296875,-1.08265829086304,2.61630702018738,1.5755352973938,-0.797626646773287,2.62261991743975,1.63662598076079,1349.588,1334.676,3261.435,3272.926,-0.105826,0.02013442,0.1090145,-0.942235052585602,-0.416260808706284,0.524310052394867,-0.936399026186941,-0.402906341007953,0.579675604081262,0
1.81999206542969,-1.10168313980103,2.60794258117676,1.58616721630096,-0.816448984455027,2.61452119137054,1.64827790441807,1344.989,1331.374,3268.203,3276.3,-0.1051256,0.02079974,0.1088948,-0.95123565196991,-0.418218016624451,0.531595408916473,-0.945396434568188,-0.406777674475912,0.585245428475252,0
1.83999633789063,-1.12088263034821,2.59954261779785,1.59694063663483,-0.835449117627072,2.60634596486888,1.66003989195343,1348.484,1329.821,3267.45,3276.175,-0.1044327,0.02148041,0.1086694,-0.9599769115448,-0.419997483491898,0.538672864437103,-0.954174163352093,-0.410554485950274,0.590679260733698,0
1.86000061035156,-1.14025187492371,2.59111022949219,1.60785448551178,-0.854622615239374,2.59809614449182,1.6719092003358,1355.426,1328.873,3267.735,3271.138,-0.1037663,0.02217218,0.1083371,-0.968465983867645,-0.421615570783615,0.545690953731537,-0.962728579444532,-0.414235212212131,0.595974851798267,0
1.87998962402344,-1.15978574752808,2.58264827728271,1.61890757083893,-0.873950157556149,2.58978004298193,1.6838738697284,1354.735,1327.336,3270.058,3271.647,-0.1031581,0.0228549,0.1079423,-0.976689457893372,-0.42309233546257,0.552652180194855,-0.971049893464309,-0.417815641164241,0.601126141575667,0
1.89999389648438,-1.17947840690613,2.5741593837738,1.63009834289551,-0.893456683142228,2.58138692997148,1.69594933829086,1350.778,1324.865,3274.547,3273.084,-0.1025647,0.02352659,0.1074928,-0.98464173078537,-0.424449324607849,0.559538304805756,-0.979147395688901,-0.421299770153459,0.606138881190213,0
1.91999816894531,-1.19932436943054,2.56564569473267,1.64142143726349,-0.913122862707269,2.57292512231409,1.70812364027167,1355.844,1324.646,3270.411,3271.3,-0.1019778,0.02420084,0.1069535,-0.992295324802399,-0.42568227648735,0.566153109073639,-0.987011339258123,-0.424683405378145,0.611007036871143,0
1.94000244140625,-1.21931779384613,2.55710959434509,1.65287566184998,-0.932943991899774,2.5643966441608,1.72039386345315,1360.836,1324.607,3269.398,3266.692,-0.1014398,0.02486682,0.1063333,-0.999668955802917,-0.42680886387825,0.57271134853363,-0.994638524886308,-0.427965170275055,0.615728628108227,0
1.95999145507813,-1.23945283889771,2.54855251312256,1.66445970535278,-0.952900013794853,2.55581012544606,1.73274759164336,1355.929,1323.688,3271.739,3268.65,-0.1009716,0.02550575,0.105676,-1.00675392150879,-0.42785307765007,0.57920503616333,-1.00202031904361,-0.431141350077486,0.620298310335216,0
1.97999572753906,-1.25972378253937,2.53997588157654,1.6761714220047,-0.973016570682103,2.54715453300902,1.74520069864106,1349.384,1321.974,3275.949,3269.933,-0.1005034,0.02612353,0.1049796,-1.01354587078094,-0.42883563041687,0.5855832695961,-1.00916501115878,-0.434215511495054,0.624721215103391,0
2,-1.28012418746948,2.53138089179993,1.68800401687622,-0.993273599084619,2.53843849960327,1.7577407641983,1354.023,1322.698,3270.431,3266.914,-0.1000209,0.02673718,0.104207,-1.02001786231995,-0.429745942354202,0.591630101203918,-1.01606400046349,-0.437183953857422,0.628992018127441,0
2.01998901367188,-1.30064797401428,2.5227689743042,1.69995558261871,-1.01365055070775,2.52967086658596,1.77035506794184,1359.348,1323.663,3267.619,3260.973,-0.09957825,0.02733516,0.1033712,-1.02619194984436,-0.430594682693481,0.59757798910141,-1.02270954399163,-0.440043345582587,0.633105926142498,0
2.03999328613281,-1.32128930091858,2.51414084434509,1.71202528476715,-1.03417354141348,2.52084039703127,1.78305977683431,1350.18,1322.784,3271.235,3264.081,-0.09919103,0.02789299,0.1025331,-1.03206956386566,-0.431406527757645,0.603482961654663,-1.02910913225408,-0.442796909628122,0.637067576131623,0
2.05999755859375,-1.34204185009003,2.50549721717834,1.72420704364777,-1.05482201812353,2.5119559343546,1.79584216754118,1348.7,1323.22,3267.821,3264.125,-0.0988118,0.02843151,0.1016508,-1.03762865066528,-0.432181715965271,0.609089970588684,-1.03525504859546,-0.445441325732794,0.640872191117535,0
2.08000183105469,-1.36289966106415,2.49683856964111,1.73649823665619,-1.07559088172821,2.50301967256038,1.80869908347065,1351.23,1324.184,3265.951,3258.425,-0.09844428,0.02895191,0.1007182,-1.04288840293884,-0.432930469512939,0.614558339118958,-1.04114485287423,-0.447975543971863,0.644518260536375,0
2.09999084472656,-1.38385653495789,2.48816537857056,1.74889576435089,-1.09645901288412,2.49404069871208,1.82161745074311,1346.457,1324.641,3265.615,3258.551,-0.09811138,0.02943859,0.09977899,-1.04784369468689,-0.433662623167038,0.619875252246857,-1.04677201701582,-0.450396755497224,0.648001743199023,0
2.1199951171875,-1.40490651130676,2.47947764396667,1.76139628887177,-1.11745308225396,2.48500753716864,1.83461377976925,1339.553,1324.162,3267.046,3259.177,-0.09776784,0.02989427,0.09883599,-1.05249905586243,-0.434388130903244,0.625028252601624,-1.0521429102862,-0.45270770082608,0.651326581984514,0
2.13999938964844,-1.42604327201843,2.47077584266663,1.77399301528931,-1.138551967509,2.47592927627801,1.8476749948214,1342.037,1325.62,3260.152,3256.562,-0.09740618,0.03033472,0.09785303,-1.05683887004852,-0.435092836618423,0.62983775138855,-1.05725102347782,-0.454905579228273,0.654488747383304,0
2.15998840332031,-1.447261095047,2.46206021308899,1.78668367862701,-1.15973418543027,2.46681515966915,1.86078779676364,1344.109,1327.148,3256.849,3251.357,-0.09707062,0.03075113,0.09683984,-1.06088900566101,-0.435784846544266,0.634535253047943,-1.06209075728,-0.456987981476842,0.657484773155346,0
2.17999267578125,-1.46855401992798,2.45333051681519,1.79946672916412,-1.18102676265167,2.45765355853653,1.8739689163698,1332.597,1327.002,3259.565,3254.531,-0.0967617,0.03112543,0.09584946,-1.06465256214142,-0.436481952667236,0.63915354013443,-1.06666760390386,-0.458957270716794,0.660318059240953,0
2.19999694824219,-1.48991632461548,2.44458699226379,1.81233525276184,-1.20240821395574,2.44845371736898,1.88720505326679,1330.779,1328.078,3254.63,3253.557,-0.09642507,0.03148264,0.09483416,-1.06810998916626,-0.437174707651138,0.643427431583405,-1.07097597819164,-0.460811043810786,0.662985148161421,0
2.22000122070313,-1.51134192943573,2.43582963943481,1.82528591156006,-1.22387315175433,2.43921795429519,1.90049287228091,1333.472,1329.67,3251.118,3246.772,-0.09607407,0.03182389,0.09378946,-1.07128286361694,-0.437864452600479,0.647535383701324,-1.07501419914593,-0.462548577472581,0.665484999299265,0
2.239990234375,-1.53282535076141,2.42705845832825,1.83831548690796,-1.24539969505118,2.42995568409656,1.91381882803312,1327.9,1330.619,3249.514,3246.716,-0.09574331,0.03213238,0.09276288,-1.07416927814484,-0.438554435968399,0.651480555534363,-1.07877792518082,-0.464168003639063,0.667814925005999,0
2.25999450683594,-1.55436086654663,2.41827344894409,1.85142064094543,-1.26701526177039,2.4206551096063,1.92719989352455,1319.549,1330.376,3250.285,3247.506,-0.09538431,0.03241169,0.09175602,-1.07677757740021,-0.439250022172928,0.655257105827332,-1.08227143928024,-0.465671165158559,0.669977576652695,0
2.27999877929688,-1.57594275474548,2.40947484970093,1.86459410190582,-1.28869796983554,2.41132564607061,1.9406225227075,1320.989,1331.788,3242.888,3244.797,-0.09498217,0.03268076,0.09072819,-1.07909452915192,-0.439931631088257,0.6586754322052,-1.08549040888332,-0.467056197851165,0.67197027217779,0
2.29998779296875,-1.59756577014923,2.40066289901733,1.87783336639404,-1.31042570636616,2.40197680804417,1.95407302665558,1322.927,1333.327,3238.799,3238.935,-0.09457737,0.03293332,0.08968532,-1.08114564418793,-0.440600872039795,0.661965727806091,-1.08843144721369,-0.468321644481621,0.673790915005368,0
2.31999206542969,-1.61922430992126,2.39183759689331,1.89113664627075,-1.33222611841886,2.3925966997709,1.96756852021384,1311.342,1333.302,3240.379,3241.789,-0.09417576,0.03315211,0.08867987,-1.08293414115906,-0.441268026828766,0.66516387462616,-1.09109790637238,-0.469468947365361,0.675441580245663,0
2.33999633789063,-1.64091312885284,2.38299918174744,1.90449690818787,-1.35407709248145,2.38319483607731,1.98109531406483,1309.607,1334.139,3234.676,3240.455,-0.09372463,0.03336247,0.08766112,-1.08444404602051,-0.441917896270752,0.668014049530029,-1.09348640563071,-0.470496651869278,0.67692017506657,0
2.36000061035156,-1.66262710094452,2.37414813041687,1.91791093349457,-1.37597305876702,2.37377361348711,1.99464996024512,1312.233,1335.434,3230.722,3233.275,-0.0932394,0.03356596,0.08662362,-1.08569645881653,-0.442548155784607,0.670704007148743,-1.09559602313537,-0.471404361345641,0.678226128796969,0
2.37998962402344,-1.68436074256897,2.36528491973877,1.93137550354004,-1.39789168475144,2.36434264106153,2.00821863385843,1306.348,1336.074,3228.64,3233.156,-0.09275364,0.03374724,0.0856136,-1.08668887615204,-0.443157374858856,0.673231422901154,-1.09742465646102,-0.47219117117957,0.679358139935436,0
2.39999389648438,-1.70610928535461,2.35641002655029,1.94488728046417,-1.41986083522252,2.35488992936084,2.02181858453579,1298.324,1335.471,3228.807,3233.491,-0.09221835,0.03391146,0.08462812,-1.08742916584015,-0.443746119737625,0.675588667392731,-1.09897439291323,-0.472857979480329,0.680317500623536,0
2.41999816894531,-1.72786748409271,2.34752416610718,1.95843911170959,-1.44185817738692,2.34542508756209,2.03543598721428,1300.334,1336.294,3221.047,3230.166,-0.09161913,0.0340775,0.08362518,-1.08790493011475,-0.444291263818741,0.677592277526855,-1.10024313330221,-0.473403883025206,0.681102911362803,0
2.43998718261719,-1.74963009357452,2.33862829208374,1.97202861309052,-1.46386128162322,2.33595776650478,2.04905695688976,1302.83,1337.245,3216.619,3223.742,-0.09099861,0.03423939,0.0826107,-1.08813905715942,-0.444791078567505,0.679475247859955,-1.10122974390336,-0.473828394004169,0.681713670323692,0
2.45999145507813,-1.77139282226563,2.3297233581543,1.98565399646759,-1.48589810917879,2.32647593524532,2.06269880290633,1291.727,1336.722,3217.646,3226.288,-0.09036798,0.03438022,0.08163601,-1.08813333511353,-0.445252001285553,0.68127167224884,-1.10193535162022,-0.474131997292339,0.68215047511319,0
2.47999572753906,-1.7931501865387,2.32081031799316,1.99930858612061,-1.50794623031618,2.31698924467309,2.07634764018804,1290.474,1336.732,3211.765,3224.639,-0.08967343,0.03452503,0.08064782,-1.08787322044373,-0.445657134056091,0.682730734348297,-1.10235882472314,-0.474314205938057,0.682412625136718,0
2.5,-1.81489777565002,2.31189036369324,2.01298952102661,-1.52999999932945,2.30750012397766,2.08999997377396,1293.81,1337.243,3207.662,3216.874,-0.08893041,0.03467593,0.0796385,-1.08737730979919,-0.44600236415863,0.684041738510132,-1.10250000050292,-0.474374949932098,0.682500019669533,0
2.51998901367188,-1.83663070201874,2.30296468734741,2.02669358253479,-1.5520369476803,2.29801824074336,2.10364189456856,1288.53,1337.159,3205.318,3216.353,-0.0881746,0.0348178,0.07865371,-1.08664095401764,-0.44628432393074,0.685200214385986,-1.10235904000526,-0.474314298567936,0.682412758406603,0
2.53999328613281,-1.85834407806396,2.29403471946716,2.04041767120361,-1.57408507527774,2.28853154739156,2.11729073584934,1281.355,1335.787,3205.216,3216.134,-0.08735914,0.03495559,0.07768849,-1.0856705904007,-0.446502208709717,0.686199188232422,-1.10193578218388,-0.474132182551855,0.682150741652607,0
2.55999755859375,-1.88003301620483,2.28510212898254,2.05415487289429,-1.59612191359838,2.27904971150017,2.13093258853001,1284.294,1335.654,3197.443,3212.134,-0.08646964,0.03510751,0.0767005,-1.08445370197296,-0.446632832288742,0.686858475208282,-1.10123038958312,-0.473828671822132,0.681714070030222,0
2.58000183105469,-1.90169334411621,2.27616858482361,2.0679030418396,-1.61814182127198,2.26957516039323,2.14456396033363,1287.724,1335.709,3192.883,3205.101,-0.08555245,0.03526729,0.07569569,-1.08300936222076,-0.44667387008667,0.687409043312073,-1.10024313330221,-0.473403883025206,0.681102911362804,0
2.59999084472656,-1.92332005500793,2.26723575592041,2.08166003227234,-1.64012239440973,2.26011753383818,2.15817098218581,1280.661,1334.929,3191.376,3205.877,-0.08463632,0.03542009,0.07471523,-1.08133459091187,-0.446627676486969,0.687845945358276,-1.09897546783438,-0.47285844198887,0.680318166050934,0
2.6199951171875,-1.94490873813629,2.25830602645874,2.09542274475098,-1.66209156852628,2.2506648119635,2.17177094750084,1272.654,1332.96,3191.988,3205.81,-0.08365256,0.03557593,0.07374492,-1.07943332195282,-0.44649600982666,0.688130497932434,-1.09742594550583,-0.472191725819537,0.679358937915576,0
2.63999938964844,-1.96645450592041,2.24938082695007,2.10918402671814,-1.68402693989188,2.24122663446822,2.18534998730279,1276.746,1332.35,3184.087,3200.728,-0.08257876,0.03575538,0.07273822,-1.07728958129883,-0.446254640817642,0.688061594963074,-1.09559602313537,-0.471404361345641,0.67822612879697,0
2.65998840332031,-1.98795294761658,2.24046277999878,2.12294173240662,-1.70590622088595,2.23181259109281,2.19889430449282,1282.316,1332.078,3178.995,3192.065,-0.08147089,0.03595028,0.07170488,-1.07491934299469,-0.445899337530136,0.6878821849823,-1.09348812118877,-0.470497390025984,0.676921237078733,0
2.67999267578125,-2.0093994140625,2.23155379295349,2.13669443130493,-1.72775723139253,2.2224107117184,2.21242112090437,1272.948,1330.454,3179.225,3193.837,-0.08035982,0.03613958,0.07070371,-1.07232177257538,-0.445435762405396,0.687637746334076,-1.09109983431736,-0.469469776906228,0.675442773735451,0
2.69999694824219,-2.0307891368866,2.22265672683716,2.15043640136719,-1.74955768413056,2.21303058593937,2.22591663964878,1272.396,1328.803,3173.815,3191.683,-0.07919229,0.03634563,0.06968208,-1.06948626041412,-0.444852530956268,0.687095642089844,-1.08843358680109,-0.468322565086308,0.673792239511893,0
2.72000122070313,-2.05211758613586,2.21377372741699,2.16416501998901,-1.77130202882336,2.20367460188472,2.23937742484041,1275.977,1327.724,3170.049,3183.777,-0.07797842,0.03656995,0.06863011,-1.06642591953278,-0.444148480892181,0.6864253282547,-1.08549040888332,-0.467056197851165,0.671970272177789,0
2.739990234375,-2.07337999343872,2.20490741729736,2.17787718772888,-1.79296822271738,2.1943522439355,2.25278983096475,1272.039,1326.304,3167.542,3182.239,-0.07674911,0.03679975,0.06758683,-1.06313467025757,-0.443321824073792,0.685613930225372,-1.08227399942825,-0.465672266718727,0.669979161506271,0
2.75999450683594,-2.09457230567932,2.1960597038269,2.19157028198242,-1.81458384274179,2.18505164650952,2.26617092945464,1266.67,1323.768,3166.842,3180.884,-0.07546227,0.03703905,0.06654613,-1.05961620807648,-0.442372888326645,0.684653162956238,-1.07878069424208,-0.464169195088763,0.667816639186824,0
2.77999877929688,-2.11568975448608,2.1872341632843,2.205237865448,-1.83612684690458,2.17578229366013,2.27950707526701,1270.875,1322.199,3159.321,3175.75,-0.07410885,0.0373027,0.06546881,-1.05585932731628,-0.441284328699112,0.683383524417877,-1.07501419914593,-0.462548577472581,0.665484999299265,0
2.79998779296875,-2.13672733306885,2.17843294143677,2.21887826919556,-1.85757544288233,2.1665535620153,2.29278477791556,1275.08,1320.959,3154.668,3168.202,-0.07273626,0.03758302,0.06436243,-1.0518764257431,-0.440056174993515,0.682018160820007,-1.07097916161324,-0.460812413548163,0.662987118851036,0
2.81999206542969,-2.15768051147461,2.16965866088867,2.23249006271362,-1.87895695992541,2.1573536925621,2.30602095550813,1266.269,1318.68,3154.972,3169.146,-0.07136047,0.03786345,0.06327394,-1.04766666889191,-0.438696563243866,0.680593490600586,-1.06667099276523,-0.458958728849171,0.660320157107579,0
2.83999633789063,-2.17854499816895,2.1609148979187,2.2460675239563,-1.90024960698239,2.14819206138118,2.31920211834584,1266.579,1316.392,3149.44,3166.088,-0.06993035,0.03816514,0.06215338,-1.04321873188019,-0.437197059392929,0.678872108459473,-1.06209435025759,-0.456989527434725,0.657486997379635,0
2.86000061035156,-2.19931578636169,2.15220355987549,2.25960803031921,-1.9214480311499,2.13907097167731,2.33232495272651,1271.431,1314.766,3145.226,3157.178,-0.06846029,0.03848862,0.06099247,-1.03854274749756,-0.435557216405869,0.67702317237854,-1.05725102347782,-0.454905579228273,0.654488747383304,0
2.87998962402344,-2.21998834609985,2.14352798461914,2.273108959198,-1.94253086194772,2.12999961857111,2.34537622930486,1268.357,1312.893,3142.47,3154.806,-0.06698915,0.03881852,0.0598341,-1.03363275527954,-0.43377810716629,0.675047218799591,-1.05214690704168,-0.452709420518306,0.651329056166547,0
2.89999389648438,-2.24055790901184,2.13489103317261,2.28656768798828,-1.96352501326936,2.1209664217661,2.35837260906308,1263.032,1309.888,3141.614,3153.324,-0.06547967,0.03915738,0.0586752,-1.02849245071411,-0.431863605976105,0.672931909561157,-1.04677621342161,-0.450398561093403,0.648004340974112,0
2.91999816894531,-2.26102042198181,2.12629508972168,2.29997801780701,-1.98440911693069,2.11198057539494,2.37130086407726,1267.217,1307.663,3134.287,3147.902,-0.0639164,0.03951962,0.05747524,-1.02311325073242,-0.429802000522614,0.670517861843109,-1.04114485287423,-0.447975543971863,0.644518260536375,0
2.93998718261719,-2.28137063980103,2.11774325370789,2.31333827972412,-2.00516218376194,2.10305111051103,2.38414800105147,1271.603,1305.926,3129.94,3139.564,-0.06234353,0.03989726,0.0562428,-1.01750564575195,-0.427595883607864,0.668018758296967,-1.03525963910674,-0.445443300901551,0.640875032862689,0
2.95999145507813,-2.3016037940979,2.1092381477356,2.32664728164673,-2.02581075424974,2.0941666074844,2.39693044981124,1263.096,1303.385,3129.625,3140.287,-0.06077866,0.04027408,0.05502579,-1.01166725158691,-0.42525377869606,0.66544783115387,-1.02911391720548,-0.442798968459032,0.637070538244476,0
2.97999572753906,-2.32171583175659,2.10078239440918,2.33989906311035,-2.04633384260397,2.08533609591429,2.40963521915279,1264.112,1300.646,3123.887,3136.463,-0.05917118,0.04066973,0.0537725,-1.00559175014496,-0.422771364450455,0.662588179111481,-1.02271452148052,-0.440045487257004,0.633109007445237,0
3,-2.34170150756836,2.09237957000732,2.35309147834778,-2.06672639957428,2.07656174835205,2.42225918334961,1268.908,1298.71,3119.751,3127.126,-0.0575376,0.04108309,0.05247912,-0.999287724494934,-0.420150905847549,0.659615218639374,-1.01606400046349,-0.437183953857422,0.628992018127441,0
3.01998901367188,-2.36155652999878,2.08403158187866,2.36622166633606,-2.0869680292999,2.06785234056679,2.43478971639231,1265.489,1296.611,3116.496,3125.057,-0.05591786,0.04149939,0.05118742,-0.992749273777008,-0.417395234107971,0.656507670879364,-1.00917036754089,-0.434217816196637,0.624724530959079,0
3.03999328613281,-2.38127613067627,2.07574129104614,2.37928700447083,-2.10708469520508,2.05919670122237,2.4472428908773,1260.834,1293.488,3115.419,3122.556,-0.05427203,0.04192185,0.04989012,-0.985982835292816,-0.414511293172836,0.653271853923798,-1.00202586176059,-0.431143734953757,0.620301741541063,0
3.05999755859375,-2.40085577964783,2.06751155853271,2.39228200912476,-2.12705600675913,2.05060360379452,2.45960608409476,1264.434,1291.048,3108.324,3117.004,-0.05258625,0.04236203,0.04855438,-0.978981256484985,-0.41149166226387,0.649748802185059,-0.994638524886308,-0.427965170275055,0.615728628108227,0
3.08000183105469,-2.42029070854187,2.05934476852417,2.40520453453064,-2.14687713595163,2.04207512564123,2.47187630727625,1268.868,1289.137,3103.675,3108.36,-0.05089993,0.04281343,0.04718672,-0.971752882003784,-0.408339649438858,0.646132111549377,-0.987011339258122,-0.424683405378145,0.611007036871143,0
3.09999084472656,-2.43957686424255,2.0512433052063,2.41805267333984,-2.16652837486666,2.03361974652815,2.48404136028297,1263.922,1286.94,3101.009,3107.021,-0.04924558,0.04326179,0.04582608,-0.964295506477356,-0.405062854290009,0.642409980297089,-0.979153483542501,-0.421302389586788,0.606142649861596,0
3.1199951171875,-2.45870923995972,2.04320979118347,2.430823802948,-2.18603502400946,2.02522658035469,2.49611690533293,1257.879,1283.801,3100.211,3105.177,-0.04756938,0.04371336,0.04446075,-0.95661586523056,-0.401670277118683,0.638556778430939,-0.971056158224178,-0.417818336715394,0.601130019760458,0
3.13999938964844,-2.47768306732178,2.03524684906006,2.44351196289063,-2.20537738341953,2.01690410346351,2.50809074721212,1261.891,1281.343,3093.092,3098.828,-0.04584792,0.04418179,0.04305249,-0.948708057403564,-0.398155748844147,0.634407818317413,-0.962728579444533,-0.414235212212131,0.595974851798267,0
3.15998840332031,-2.49649500846863,2.02735614776611,2.45611500740051,-2.22453632143911,2.00866054767245,2.51995104251302,1267.355,1279.604,3087.93,3089.201,-0.04412645,0.04465937,0.04161182,-0.940577983856201,-0.39452075958252,0.630158007144928,-0.954180774018563,-0.410557330335374,0.590683353051152,0
3.17999267578125,-2.51513910293579,2.01954054832458,2.46863174438477,-2.24353658854737,2.00048526354177,2.53171311296128,1259.862,1277.371,3086.566,3088.84,-0.04243747,0.04512819,0.04019145,-0.932225942611694,-0.390774339437485,0.625842571258545,-0.945403214201559,-0.406780591562751,0.585249625391267,0
3.19999694824219,-2.53361225128174,2.01180219650269,2.48105692863464,-2.2623590635174,1.99238647840124,2.54336512160655,1259.83,1274.499,3080.909,3085.327,-0.04073518,0.045604,0.03874754,-0.92365300655365,-0.386918723583221,0.621262907981873,-0.936405971974636,-0.402909329586355,0.579679903854719,0
3.22000122070313,-2.55190992355347,2.00414299964905,2.49338841438293,-2.28099938900442,1.98436606709459,2.55490437104486,1263.356,1272.481,3076.885,3076.338,-0.03902756,0.04608647,0.03727338,-0.914867699146271,-0.382958739995956,0.616579830646515,-0.927192788821982,-0.398945154262308,0.573976504598449,0
3.239990234375,-2.57002735137939,1.99656510353088,2.50562381744385,-2.2994392795179,1.97643189735754,2.5663195416865,1259.396,1270.552,3073.462,3073.938,-0.03734444,0.04656356,0.03580718,-0.905867695808411,-0.378899306058884,0.611766457557678,-0.917774783907129,-0.394892849856044,0.568146310914365,0
3.25999450683594,-2.5879602432251,1.98907041549683,2.51776003837585,-2.31770268688992,1.96857366338589,2.57762546085652,1255.136,1267.769,3071.374,3070.966,-0.03564854,0.04703898,0.03433995,-0.896660566329956,-0.37474712729454,0.606814444065094,-0.90814153446928,-0.390747931744771,0.562182870617026,0
3.27999877929688,-2.60570526123047,1.98166024684906,2.52979207038879,-2.33577134012187,1.96079922667992,2.58881081793642,1258.762,1265.455,3064.258,3064.696,-0.03392921,0.04752213,0.03284258,-0.887245237827301,-0.370499193668365,0.601600706577301,-0.898304216251578,-0.386515208538549,0.556093102023818,0
3.29998779296875,-2.62325763702393,1.97433733940125,2.54171824455261,-2.35362764460945,1.95311615770631,2.59986472102797,1262.159,1263.8,3059.667,3056.169,-0.03222585,0.04800545,0.03132792,-0.877627849578857,-0.366158932447433,0.596308529376984,-0.888274735793772,-0.382199803288803,0.549884375850026,0
3.31999206542969,-2.64061403274536,1.96710252761841,2.55353689193726,-2.37129490830989,1.94551442770222,2.61080159886703,1254.167,1261.805,3057.72,3056.274,-0.03055977,0.04847566,0.02983792,-0.867810487747192,-0.361734837293625,0.590934276580811,-0.878042061913513,-0.37779696958594,0.54354986326829,0
3.33999633789063,-2.65776968002319,1.95995783805847,2.56524324417114,-2.38875555478454,1.93800159931817,2.62161057080077,1254.416,1259.145,3052.28,3051.859,-0.02888145,0.04894815,0.02832725,-0.857799053192139,-0.35723090171814,0.585318982601166,-0.867618167158097,-0.373311858882592,0.53709697585572,0
3.36000061035156,-2.67472171783447,1.95290470123291,2.57683515548706,-2.406005803634,1.93057929915441,2.6322892965819,1257.621,1257.473,3047.938,3042.99,-0.02720153,0.04942193,0.02679576,-0.84759908914566,-0.352650284767151,0.579600214958191,-0.857007552155826,-0.36874640767338,0.530528499715627,0
3.37998962402344,-2.69146609306335,1.94594490528107,2.58831024169922,-2.42302905329872,1.92325467039821,2.6428274990542,1253.975,1255.856,3044.079,3040.333,-0.02555356,0.04988562,0.02527951,-0.837210595607758,-0.347997188568115,0.573757112026215,-0.846223126656603,-0.364106170663035,0.523852426598178,0
3.39999389648438,-2.70799899101257,1.93907952308655,2.59966611862183,-2.43984769972619,1.91601807669906,2.65323904237604,1249.732,1253.445,3041.592,3037.405,-0.02390507,0.0503422,0.02377099,-0.826642990112305,-0.343278169631958,0.567789316177368,-0.835253140422974,-0.35938609205264,0.51706148254665,0
3.41999816894531,-2.72431707382202,1.93230938911438,2.6108980178833,-2.45644516534361,1.90887665092339,2.66351366424015,1252.286,1251.315,3035.001,3031.54,-0.02224379,0.05080019,0.02224425,-0.815898954868317,-0.338492661714554,0.561590254306793,-0.824110582941664,-0.354591760855451,0.510163708672097,0
3.43998718261719,-2.74041676521301,1.92563664913177,2.62200427055359,-2.47280564474684,1.90183719369507,2.67364158034846,1254.909,1249.879,3030.526,3023.431,-0.02060115,0.05125345,0.02071041,-0.804983615875244,-0.333643436431885,0.555317342281342,-0.812809078412023,-0.349729039183832,0.50316753900293,0
3.45999145507813,-2.75629472732544,1.91906177997589,2.63298344612122,-2.48895081463434,1.8948903781363,2.68363620960993,1247.551,1248.266,3028.052,3023.151,-0.01899633,0.05169093,0.01920695,-0.793900668621063,-0.328736960887909,0.548962831497192,-0.80133641229185,-0.344792671461508,0.496065412155666,0
3.47999572753906,-2.77194786071777,1.91258645057678,2.64383125305176,-2.50486489870395,1.88804299234919,2.69348778574196,1247.847,1245.872,3022.635,3018.64,-0.01738565,0.05212634,0.01769289,-0.782659113407135,-0.323777675628662,0.542391777038574,-0.789706299681989,-0.339788558913217,0.488865818431069,0
3.5,-2.78737282752991,1.90621089935303,2.65454602241516,-2.5205447997813,1.88129636896134,2.70319439144611,1250.299,1244.462,3018.313,3010.484,-0.01578296,0.05255793,0.01616999,-0.771263897418976,-0.318767845630646,0.535734236240387,-0.777924000354857,-0.334718964672089,0.481572013878822,0
3.51998901367188,-2.80256748199463,1.89993691444397,2.66512537002563,-2.53597583877076,1.87465682397749,2.71274693966292,1246.562,1243.13,3014.514,3007.841,-0.01421489,0.05297658,0.01467042,-0.759717404842377,-0.313711404800415,0.528970539569855,-0.766004036374581,-0.329590137176618,0.474192988348404,0
3.53999328613281,-2.81752777099609,1.89376473426819,2.67556715011597,-2.55117869390181,1.86811546013321,2.72215823120146,1242.313,1241.072,3011.763,3005.179,-0.01265215,0.05338506,0.01318674,-0.748029828071594,-0.308614015579224,0.522093594074249,-0.753933682518821,-0.324396601119134,0.466720864320997,0
3.55999755859375,-2.83225178718567,1.88769507408142,2.68586754798889,-2.56613872308604,1.86167857751006,2.73141920191151,1244.716,1239.161,3005.612,2999.231,-0.01108035,0.05379138,0.01169441,-0.736206591129303,-0.303475886583328,0.515017330646515,-0.741727567798258,-0.319144650954242,0.459164697851087,0
3.58000183105469,-2.84673714637756,1.88172888755798,2.69602513313293,-2.58085326729328,1.85534732021446,2.74052820572674,1246.716,1237.985,3001.183,2991.849,-0.009531453,0.05418972,0.0102065,-0.724251389503479,-0.298298388719559,0.507879078388214,-0.729391385793765,-0.313836736470737,0.451528013536464,0
3.59999084472656,-2.86098051071167,1.87586736679077,2.70603823661804,-2.59530884290342,1.84912748987145,2.74947689564398,1241.914,1236.676,2997.547,2990.445,-0.008027833,0.05457232,0.008750166,-0.712169468402863,-0.293086498975754,0.500652015209198,-0.716940488958392,-0.308479463400265,0.4438203152769,0
3.6199951171875,-2.87497997283936,1.87011027336121,2.715904712677,-2.60952509409627,1.84301063413925,2.75827743234631,1237.615,1234.739,2995.044,2987.802,-0.006531669,0.05494467,0.007310683,-0.699972748756409,-0.28784653544426,0.493329435586929,-0.704361775018033,-0.303067194200314,0.436033492140578,0
3.63999938964844,-2.88873338699341,1.86445879936218,2.72562122344971,-2.6234885835008,1.83700253474321,2.76692149746096,1239.412,1233.028,2989.372,2982.133,-0.00502645,0.05531376,0.005866919,-0.687666893005371,-0.282579064369202,0.485827654600143,-0.691670720740692,-0.297606588091786,0.428177124984152,0
3.65998840332031,-2.90223836898804,1.8589129447937,2.73518633842468,-2.63718676607487,1.8311085894645,2.77540132500924,1241.626,1231.955,2984.83,2974.905,-0.003539874,0.05567544,0.004429736,-0.675254642963409,-0.277284383773804,0.478260815143585,-0.678883253871145,-0.292104498338286,0.420261073840379,0
3.67999267578125,-2.91549301147461,1.85347366333008,2.74459910392761,-2.65063849381582,1.82532068681534,2.78372858527554,1236.29,1230.838,2982.007,2973.469,-0.002093245,0.05602093,0.003030354,-0.662741243839264,-0.271966338157654,0.470641732215881,-0.665986083416798,-0.286555206197011,0.41227711095171,0
3.69999694824219,-2.92849588394165,1.84814131259918,2.75385642051697,-2.66383127580226,1.81964420129024,2.79189554578451,1235.895,1228.85,2977.039,2969.94,-0.0006578008,0.05635913,0.001640976,-0.650138258934021,-0.266629308462143,0.462860494852066,-0.65299527533123,-0.280965624398954,0.404235181908735,0
3.72000122070313,-2.94124507904053,1.84291553497314,2.76295709609985,-2.6767633032417,1.81407991116207,2.79990108680742,1237.45,1227.65,2973.302,2962.973,0.0007610669,0.0566895,0.00026004,-0.637451171875,-0.261275231838226,0.45503181219101,-0.639917282339434,-0.275338529371411,0.396139281255611,0
3.739990234375,-2.95373868942261,1.83779740333557,2.77189970016479,-2.68942333385363,1.80863265367006,2.80773824883709,1233.699,1226.645,2969.771,2960.89,0.002142405,0.0570058,-0.001086037,-0.624684870243073,-0.25590705871582,0.447130650281906,-0.62676873176137,-0.26968107538565,0.387999702095468,0
3.75999450683594,-2.96597576141357,1.83278679847717,2.78068256378174,-2.70182915057228,1.80329477731443,2.81541804035694,1230.624,1224.989,2966.89,2958.072,0.003512979,0.05731128,-0.00240803,-0.611850202083588,-0.250528901815414,0.439148098230362,-0.613536214864365,-0.263987493038594,0.379808143784027,0
3.77999877929688,-2.97795486450195,1.82788419723511,2.78930306434631,-2.7139695770734,1.79807109095524,2.82293354268985,1232.501,1223.423,2961.596,2952.854,0.004880823,0.05761134,-0.003722567,-0.598954200744629,-0.245141357183456,0.431030124425888,-0.60023651686137,-0.258265004538452,0.371574997167698,0
3.79998779296875,-2.98967480659485,1.82308900356293,2.79776072502136,-2.72583438304408,1.79296599641037,2.83027842278479,1233.935,1222.471,2957.553,2946.778,0.006219415,0.0579019,-0.005018993,-0.585999846458435,-0.239744916558266,0.422880589962006,-0.586886736182787,-0.252520966862155,0.36331084698941,0
3.81999206542969,-3.00113439559937,1.81840229034424,2.80605483055115,-2.73744054699573,1.78797218830065,2.83746319114912,1228.751,1221.512,2955,2945.757,0.007513704,0.05817652,-0.006272277,-0.5729940533638,-0.234343230724335,0.414703577756882,-0.573473482003301,-0.246749618311662,0.355007403690404,0
3.83999633789063,-3.01233339309692,1.81382346153259,2.8141827583313,-2.74877791451009,1.78309403578861,2.84448156171422,1228.309,1219.699,2950.579,2942.614,0.008793919,0.05844344,-0.007509582,-0.559949576854706,-0.228941008448601,0.406400442123413,-0.560014026276881,-0.240958390526246,0.346675359432959,0
3.86000061035156,-3.02327084541321,1.80935263633728,2.82214426994324,-2.75984563331209,1.77833190558438,2.85133300688122,1230.055,1218.683,2947.223,2935.977,0.01005527,0.05870264,-0.008731972,-0.546870589256287,-0.223539397120476,0.398076415061951,-0.546515580872635,-0.235150386571708,0.338319178707605,0
3.87998962402344,-3.03394627571106,1.80498969554901,2.82993841171265,-2.7706348636882,1.77368960116974,2.85801205444635,1226.927,1217.846,2943.729,2934.224,0.01127431,0.05894814,-0.009914949,-0.533762514591217,-0.218140572309494,0.38970223069191,-0.532995796775444,-0.22933320117373,0.329949788314816,0
3.89999389648438,-3.04435896873474,1.80073475837708,2.83756422996521,-2.78116151864576,1.76916027562219,2.86452855531919,1224.732,1216.398,2941.149,2931.286,0.01247336,0.05918304,-0.0110681,-0.520636081695557,-0.212748453021049,0.381285637617111,-0.519441457145543,-0.223501147495394,0.321559006401168,0
3.91999816894531,-3.05450868606567,1.7965874671936,2.84501981735229,-2.79141684911929,1.7647476934202,2.87087709341145,1225.894,1215.032,2936.603,2927.09,0.01365635,0.05941052,-0.0122026,-0.507499098777771,-0.20736463367939,0.372777879238129,-0.505870408491346,-0.2176619043907,0.313157880805522,0
