t,x_s1,x_s2,x_s3,x_s_d1,x_s_d2,x_s_d3,propellers_rpms1,propellers_rpms2,propellers_rpms3,propellers_rpms4,rollRad,pitchRad,yawRad,v_s1,v_s2,v_s3,v_s_d1,v_s_d2,v_s_d3,insideCount
0,-0.0599999986588955,2.94000005722046,1.17999994754791,-0.0599999986588955,2.94000005722046,1.17999994754791,0,0,0,0,0,0,0,0,0,0,-1.06581410364015E-15,4.44089209850063E-16,4.44089209850063E-16,0
0.0200042724609375,-0.0599999986588955,2.94000005722046,1.17811644077301,-0.0600018701838461,2.93999925195556,1.18000110611101,0,0,0,0,-0.01635288,0.0001297794,-0.01587137,-1.10653664009419E-09,-7.76775763711157E-08,-0.0941759571433067,-0.000280105751305916,-0.000120521679537258,0.00017339880334547,5
0.040008544921875,-0.0599999986588955,2.94000005722046,1.17242503166199,-0.060014880898484,2.93999365380853,1.18000916036316,0,0,0,0,-0.03270202,0.0005238493,-0.03175127,-1.08383135799528E-09,-7.60859677484405E-08,-0.284568399190903,-0.00111143977225461,-0.000478221483967637,0.00068803416424398,5
0.0600128173828125,-0.0599058866500854,2.93990302085876,1.16596508026123,-0.0600499235789167,2.93997857592211,1.18003085345166,1868.186,3252.807,3183.866,1722.401,-0.04942188,0.0003295492,-0.01369504,0.00470568425953388,-0.00484921643510461,-0.322996616363525,-0.00248060856799822,-0.00106733656662813,0.00153561487136384,5
0.0800018310546875,-0.0598203726112843,2.93960738182068,1.16000306606293,-0.0601175574246769,2.93994947496775,1.18007272202403,1925.521,2314.37,3252.09,2829.448,-0.07543297,-0.002136388,0.02094803,0.00427571590989828,-0.0147785749286413,-0.298098176717758,-0.00437268608126799,-0.00188144466206175,0.00270690098422899,5
0.100006103515625,-0.0599374510347843,2.93904495239258,1.15498661994934,-0.0602282404704493,2.93990185114529,1.18014124010193,979.9462,1498.767,3915.207,3896.673,-0.1031954,-0.008063519,0.06330917,-0.00585394445806742,-0.0281172171235085,-0.250822335481644,-0.00677739276378709,-0.00291612276782231,0.00419552897277328,4
0.120010375976563,-0.0604638457298279,2.93818354606628,1.15081322193146,-0.0603920338334453,2.93983137543704,1.18024263599618,346.5513,980.4565,4172.638,4613.365,-0.1214316,-0.01542077,0.1040025,-0.0263197757303715,-0.0430684797465801,-0.208672434091568,-0.00968041450003567,-0.00416521191989172,0.00599263771761404,4
0.139999389648438,-0.0615636184811592,2.93704128265381,1.14728283882141,-0.0606185767455666,2.93973390035084,1.18038287685052,353.0439,747.1285,3975.232,4854.946,-0.1254013,-0.0211668,0.1351056,-0.0549885854125023,-0.0571135133504868,-0.17652040719986,-0.0130660253322238,-0.00562194567796536,0.00808849210174802,4
0.160003662109375,-0.0633408948779106,2.93568086624146,1.14427506923676,-0.0609177895434042,2.93960515744296,1.18056810382587,820.7158,814.7341,3463.194,4692.39,-0.1184579,-0.02352423,0.15227,-0.0888637006282806,-0.0680152252316475,-0.150388970971107,-0.0169265510445065,-0.00728302204135792,0.0104783414199936,3
0.180007934570313,-0.0658469349145889,2.9341721534729,1.14182543754578,-0.0612988491946875,2.93944119812059,1.1808039979024,1348.825,1083.543,3006.427,4255.217,-0.1079784,-0.02277961,0.155778,-0.125302016735077,-0.075430691242218,-0.122481107711792,-0.0212468478482708,-0.00914192506089775,0.0131528109458008,3
0.20001220703125,-0.069084994494915,2.93255376815796,1.14006161689758,-0.0617708265342762,2.93923811945689,1.181096174359,1636.669,1381.315,2918.166,3666.287,-0.09982753,-0.02030074,0.150155,-0.161903142929077,-0.0809145197272301,-0.0881917774677277,-0.0260142813927851,-0.0111932185284278,0.0161040794142088,3
0.220001220703125,-0.0730103328824043,2.93082594871521,1.139035820961,-0.0623420644491781,2.93899233174064,1.18144979784016,1641.417,1580.689,3148.294,3113.058,-0.09584344,-0.01735475,0.1421872,-0.196267053484917,-0.0863857269287109,-0.0512920692563057,-0.03121219533433,-0.0134297356845702,0.019321835755004,3
0.240005493164063,-0.0775500982999802,2.92897343635559,1.13863360881805,-0.0630219993990999,2.93869977472688,1.18187070996396,1523.598,1623.929,3418.53,2777.481,-0.09475847,-0.01467881,0.1377347,-0.226988300681114,-0.0926262587308884,-0.0201100185513496,-0.0368361158647881,-0.0158495515746756,0.0228033104678445,3
0.260009765625,-0.0826389789581299,2.92699217796326,1.13863587379456,-0.0638185570309634,2.93835703823113,1.18236381708338,1439.117,1500.981,3532.858,2744.26,-0.09438882,-0.01258876,0.1393044,-0.25444421172142,-0.0990593954920769,0.000113677233457565,-0.0428699302682246,-0.0184457333472145,0.0265385290140116,3
0.279998779296875,-0.088244840502739,2.9249005317688,1.13885235786438,-0.0647390625194898,2.93796097043536,1.18293365383054,1401.001,1276.142,3476.101,2977.603,-0.0932117,-0.01110538,0.1456849,-0.280293226242065,-0.104584626853466,0.010823143646121,-0.0492963837173861,-0.0212108567320638,0.030516809833474,3
0.300003051757813,-0.0943706631660461,2.92273235321045,1.13920736312866,-0.0657927507678135,2.93750759781875,1.18358593705038,1350.138,1061.194,3345.864,3324.969,-0.09053309,-0.009935722,0.1533125,-0.306290715932846,-0.108407519757748,0.0177513379603624,-0.0561132031658829,-0.0241439437008635,0.0347367458022363,3
0.32000732421875,-0.101035982370377,2.92052555084229,1.13972544670105,-0.0669865614821475,2.93699393441958,1.18432496275165,1280.91,941.247,3237.254,3590.659,-0.08597643,-0.008524246,0.158361,-0.333266288042068,-0.110342897474766,0.025902109220624,-0.0633036493784043,-0.0272377918282996,0.0391879745362408,3
0.340011596679688,-0.108251571655273,2.91831207275391,1.14046192169189,-0.0683278498358171,2.93641681551226,1.18515528413699,1253.57,944.4673,3170.538,3649.614,-0.07944635,-0.006291452,0.1584748,-0.360779702663422,-0.110679440200329,0.0368257537484169,-0.0708558471483356,-0.0304872915447207,0.0438631447168985,4
0.360000610351563,-0.116003155708313,2.91611480712891,1.14145302772522,-0.0698225328270578,2.93577369517774,1.1860805641102,1319.772,1047.256,3120.746,3498.003,-0.07155381,-0.0029625,0.1534703,-0.387578904628754,-0.109858058393002,0.0495566204190254,-0.0787518717320621,-0.0338847303337087,0.0487511600740379,4
0.3800048828125,-0.124251589179039,2.91394972801208,1.14270842075348,-0.0714797725314022,2.93506063123087,1.18710647443246,1454.517,1181.211,3091.987,3231.372,-0.06361706,0.001257668,0.1450396,-0.412421971559525,-0.108258984982967,0.0627672076225281,-0.0869921272359981,-0.0374302820709642,0.0538522707687797,4
0.400009155273438,-0.132943376898766,2.91182637214661,1.14421784877777,-0.0733051402689975,2.93427522648826,1.18823646401636,1579.681,1273.763,3104.286,2981.908,-0.05701562,0.005826055,0.1357503,-0.43459016084671,-0.10616834461689,0.0754714384675026,-0.0955591682828665,-0.0411164404980124,0.0591556772815509,4
0.420013427734375,-0.142023742198944,2.90975022315979,1.14595818519592,-0.0753050585276311,2.93341471753282,1.18947450868777,1632.291,1288.931,3158.095,2844.395,-0.05243871,0.01017676,0.1278567,-0.454018414020538,-0.103803344070911,0.0870139747858047,-0.104441553474511,-0.0449382827008623,0.0646542968418633,4
0.44000244140625,-0.15144619345665,2.90772438049316,1.14789605140686,-0.077483988232608,2.93247718495301,1.19082336997196,1606.952,1238.051,3219.475,2842.977,-0.04966582,0.01397479,0.1224621,-0.471122622489929,-0.10129077732563,0.0968940556049347,-0.113620829717891,-0.048887868829098,0.0703367061060819,4
0.460006713867188,-0.16117699444294,2.9057514667511,1.14999783039093,-0.0798512213598696,2.93145863067119,1.19228880004469,1539.996,1157.718,3254.192,2938.801,-0.04789322,0.01718321,0.1193466,-0.486540406942368,-0.0986415967345238,0.105090923607349,-0.123099793815011,-0.0529664022684887,0.0762046364278779,4
0.480010986328125,-0.17119388282299,2.90383577346802,1.15223979949951,-0.0824109101018722,2.93035726811493,1.19387336931088,1474.372,1086.283,3247.764,3067.186,-0.04628627,0.01998598,0.1173824,-0.500844478607178,-0.0957819446921349,0.11209836602211,-0.132860437136906,-0.0571661344090936,0.082246939608052,5
0.5,-0.18148136138916,2.90198302268982,1.15461611747742,-0.085166398670376,2.92917165836334,1.1955791479969,1433.173,1046.71,3215.429,3168.851,-0.04433098,0.02264507,0.1152221,-0.514374434947968,-0.0926416143774986,0.118818886578083,-0.142884000065179,-0.0614789935111996,0.0884520025491718,5
0.520004272460938,-0.192024677991867,2.90019845962524,1.15713536739349,-0.088127196023106,2.92789770997757,1.19741202260058,1422.811,1044.694,3178.39,3210.638,-0.04191922,0.02537832,0.1118885,-0.527165174484253,-0.0892291218042374,0.125963240861893,-0.153174893518032,-0.065906877469682,0.0948225558197254,5
0.540008544921875,-0.202805012464523,2.89848566055298,1.15981042385101,-0.0912963635428427,2.92653410573011,1.19937388826368,1445.374,1073.409,3148.464,3185.088,-0.03929121,0.0282884,0.1070515,-0.539017379283905,-0.0856406465172768,0.133753687143326,-0.163714777034477,-0.0704418948965508,0.101347245800684,5
0.560012817382813,-0.213798373937607,2.89684510231018,1.16265332698822,-0.0946787750684717,2.92507874854427,1.20146776212465,1485.221,1114.228,3138.057,3113.452,-0.03688585,0.03132915,0.1010544,-0.549667716026306,-0.0820323452353477,0.142145529389381,-0.174492968360474,-0.0750794495163205,0.10801945966793,5
0.580001831054688,-0.224976718425751,2.89527344703674,1.16566860675812,-0.0982762614093182,2.92353085067394,1.20369477754168,1521.054,1148.83,3146.007,3034.788,-0.03513615,0.03434569,0.09465198,-0.558917939662933,-0.0785770043730736,0.150762096047401,-0.185490414529404,-0.0798113433697334,0.11482740272751,5
0.600006103515625,-0.23631152510643,2.89376497268677,1.16885268688202,-0.102098762959148,2.92188613504538,1.20606108809202,1538.883,1166.636,3164.8,2979.725,-0.03429779,0.03715884,0.08862158,-0.566739618778229,-0.0754221528768539,0.159204423427582,-0.196713446836865,-0.0846403006364086,0.121774994352997,5
0.620010375976563,-0.24777689576149,2.89231157302856,1.17219543457031,-0.106147859919355,2.92014392174208,1.20856767199563,1535.096,1167.303,3181.417,2964.356,-0.03441656,0.03963152,0.08346205,-0.573269426822662,-0.0726697593927383,0.167139127850533,-0.20814339888717,-0.0895582896877615,0.128850679156259,5
0.639999389648438,-0.259352207183838,2.89090394973755,1.17568755149841,-0.110424235525481,2.91830391678686,1.21121495220784,1508.761,1156.705,3193.82,2985.695,-0.03534121,0.04170046,0.07929361,-0.57876592874527,-0.0703826621174812,0.174606755375862,-0.219761081350814,-0.0945570538913933,0.136042578028218,5
0.660003662109375,-0.271022081375122,2.8895320892334,1.17932140827179,-0.114938248900541,2.91636166293851,1.21400934151928,1465.388,1144.026,3198.79,3031.925,-0.03678305,0.0433839,0.07591023,-0.583494603633881,-0.0685977563261986,0.181695818901062,-0.231574097577923,-0.0996398647564507,0.143355397804799,5
0.680007934570313,-0.28277513384819,2.88818550109863,1.18309044837952,-0.119690355154666,2.91431696437584,1.21695112166479,1428.734,1139.571,3190.141,3076.125,-0.03844433,0.04477528,0.07288811,-0.58765321969986,-0.0673268884420395,0.188450664281845,-0.243563621239988,-0.104798621839723,0.150777484091833,5
0.70001220703125,-0.29460221529007,2.88685393333435,1.18699300289154,-0.124683985757554,2.91216834463331,1.22004241688759,1405.949,1146.551,3176.722,3100.821,-0.0401658,0.04596874,0.06985244,-0.59135490655899,-0.0665755569934845,0.195128828287125,-0.255719729227087,-0.11002905550423,0.158302694011575,5
0.720001220703125,-0.3064945936203,2.88552665710449,1.19102942943573,-0.129918284978346,2.90991617190799,1.22328269744952,1393.651,1163.013,3163.537,3106.626,-0.04193946,0.04702117,0.0666253,-0.594619035720825,-0.0663607940077782,0.20182292163372,-0.268023157655716,-0.11532287703907,0.16591910230247,5
0.740005493164063,-0.318443149328232,2.88419246673584,1.19520080089569,-0.13540428105644,2.90755570105657,1.22667879035609,1390.185,1184.804,3155.118,3094.849,-0.04383936,0.04794984,0.06322374,-0.597428023815155,-0.0667130723595619,0.208571091294289,-0.280482990349159,-0.120683994959631,0.173632332283853,5
0.760009765625,-0.330438375473022,2.88283920288086,1.19950568675995,-0.141140917956636,2.9050873864615,1.23023004187122,1392.723,1207.531,3148.953,3074.923,-0.04599759,0.04873361,0.05981406,-0.59976053237915,-0.0676659196615219,0.215242952108383,-0.293080296154222,-0.126104263719567,0.181430664670081,5
0.779998779296875,-0.342471301555634,2.88145399093628,1.2039430141449,-0.147126184485884,2.90251209348295,1.23393520697061,1390.074,1226.821,3149.856,3057.276,-0.04853451,0.04932097,0.05664418,-0.601645827293396,-0.0692576915025711,0.221868753433228,-0.305795832832518,-0.131575403921268,0.189302187598958,5
0.800003051757813,-0.354534417390823,2.88002347946167,1.20850992202759,-0.153371683173492,2.89982482987671,1.2378014681726,1372.058,1240.438,3155.343,3055.442,-0.05147731,0.04965892,0.05394018,-0.603155434131622,-0.0715222284197807,0.228347808122635,-0.318639638509124,-0.13710173468952,0.197253115148089,5
0.82000732421875,-0.366622298955917,2.87853407859802,1.21319973468781,-0.159875221826383,2.89702653888221,1.24182746840525,1352.003,1250.683,3155.868,3063.163,-0.05474607,0.04973765,0.05176471,-0.604395627975464,-0.0744701623916626,0.234489142894745,-0.331592781842754,-0.14267511039705,0.205271727915392,4
0.840011596679688,-0.378732204437256,2.87697219848633,1.21800780296326,-0.166638895824778,2.89411631891588,1.24601450480873,1328.941,1259.802,3155.028,3076.456,-0.05824813,0.04956197,0.05009585,-0.605494856834412,-0.0780985206365585,0.240402549505234,-0.344646098867604,-0.148291588045382,0.213352352969496,4
0.860000610351563,-0.390863388776779,2.87532424926758,1.22292971611023,-0.173659158941841,2.89109569582005,1.2503603820997,1300.353,1269.306,3151.749,3097.18,-0.06188281,0.04915199,0.04885895,-0.606559693813324,-0.0823923051357269,0.246093362569809,-0.357780475378537,-0.153942943326036,0.221483157706883,4
0.8800048828125,-0.403016924858093,2.87357759475708,1.22796201705933,-0.180948461186242,2.88795931270381,1.25487280742661,1274.59,1280.685,3147.262,3114.661,-0.06552495,0.04855099,0.04792623,-0.607675969600677,-0.0873295143246651,0.251616150140762,-0.371007022483504,-0.159633957038354,0.229671020432672,4
0.900009155273438,-0.415194690227509,2.8717200756073,1.23310029506683,-0.188503099076414,2.88470876307182,1.25954948815793,1259.659,1295.046,3137.832,3124.192,-0.06911169,0.0478052,0.04718365,-0.608888626098633,-0.0928735509514809,0.256913542747498,-0.384306908919572,-0.165356526615982,0.237904283698049,4
0.919998168945313,-0.427399277687073,2.86974024772644,1.23834347724915,-0.196318384305134,2.8813460641717,1.26438752200817,1249.745,1311.154,3131.361,3125.675,-0.07265636,0.04693682,0.04660301,-0.610231578350067,-0.0989973619580269,0.26216048002243,-0.397661187980262,-0.171102499820431,0.246171218589148,4
0.94000244140625,-0.439633727073669,2.86762666702271,1.24369084835052,-0.204407453948074,2.87786556348678,1.26939504145298,1234.363,1326.553,3129.357,3129.625,-0.07618132,0.04594707,0.04623772,-0.611721873283386,-0.105677045881748,0.267370909452438,-0.411081631631503,-0.176876941799768,0.254479112513653,4
0.960006713867188,-0.451901257038116,2.86536908149719,1.24913883209229,-0.212765478812529,2.87426933888379,1.27456905699201,1226.49,1340.81,3125.427,3129.75,-0.07967166,0.04485161,0.04610594,-0.613378643989563,-0.112877570092678,0.272401928901672,-0.424549556012544,-0.182671813410681,0.262816399271726,3
0.980010986328125,-0.46420606970787,2.86295771598816,1.25468623638153,-0.221393324468958,2.87055701793193,1.27991010445463,1219.194,1353.569,3124.475,3129.03,-0.08314548,0.04364713,0.04626416,-0.615241169929504,-0.120570465922356,0.277371495962143,-0.438056556301695,-0.188483498293199,0.271177875878363,3
1,-0.476553082466125,2.86038327217102,1.26033115386963,-0.230284798736574,2.86673126495361,1.28541435058594,1204.821,1363.885,3124.865,3136.865,-0.08660334,0.04232682,0.04677029,-0.61734813451767,-0.128720819950104,0.28224441409111,-0.451584000205995,-0.194303979492187,0.279552008056641,3
1.02000427246094,-0.488948076963425,2.85763740539551,1.26607167720795,-0.239454009753966,2.86278600961093,1.2910905289958,1189.048,1372.033,3126.404,3147.341,-0.08997596,0.04090369,0.04761202,-0.619751214981079,-0.137291476130486,0.287027686834335,-0.465144357597929,-0.200138622445408,0.287946515251652,3
1.04000854492188,-0.501397788524628,2.85471296310425,1.27190411090851,-0.248894644448595,2.85872396824263,1.29693473159157,1180.35,1379.933,3122.736,3156.823,-0.09320851,0.0394064,0.0487279,-0.62248831987381,-0.146226078271866,0.291622370481491,-0.47871923339115,-0.205979512261105,0.296350010028666,3
1.06001281738281,-0.513909816741943,2.85160326957703,1.27782821655273,-0.258606913342529,2.85454505026695,1.30294708869644,1173.217,1387.804,3120.813,3164.396,-0.09629191,0.03785305,0.05007436,-0.625602066516876,-0.155481800436974,0.296208292245865,-0.492300656572427,-0.21182321923497,0.304757557950783,3
1.08000183105469,-0.526492059230804,2.8483030796051,1.2838442325592,-0.268583149539609,2.85025255453512,1.30912285413647,1161.906,1395.063,3120.479,3175.79,-0.099215,0.03625819,0.0516281,-0.629111468791962,-0.165013432502747,0.300798326730728,-0.50587040849135,-0.217661904390701,0.313157880805523,3
1.10000610351563,-0.539152681827545,2.84480762481689,1.2899523973465,-0.278838480013141,2.84583997233313,1.31547139222872,1152.693,1401.409,3122.053,3184.597,-0.1019208,0.03464837,0.0533419,-0.633030712604523,-0.174776822328568,0.305405676364899,-0.519441457145546,-0.223501147495394,0.321559006401169,3
1.12001037597656,-0.551899790763855,2.84111332893372,1.29615080356598,-0.289365134970699,2.84131064678559,1.32198789310157,1154.034,1408.028,3119.156,3188.01,-0.1043927,0.03305223,0.05516586,-0.637354791164398,-0.184710249304771,0.309923142194748,-0.532995796775449,-0.22933320117373,0.329949788314817,3
1.13999938964844,-0.564741671085358,2.83721780776978,1.30244135856628,-0.300154365346813,2.83666834237095,1.3286669406667,1157.038,1414.056,3119.265,3188.924,-0.1066745,0.03147494,0.05710603,-0.642092764377594,-0.194772571325302,0.314527481794357,-0.546515580872639,-0.235150386571708,0.338319178707607,3
1.16000366210938,-0.577686548233032,2.83311939239502,1.30882632732391,-0.311222084148811,2.83190621216671,1.33551838583369,1150.946,1417.922,3123.723,3197.127,-0.1087869,0.02991089,0.05920017,-0.647243022918701,-0.204926133155823,0.319248557090759,-0.560014026276883,-0.240958390526247,0.34667535943296,3
1.18000793457031,-0.590742528438568,2.82881712913513,1.31530499458313,-0.322559451663168,2.82702805965467,1.34253675639879,1152.757,1420.689,3124.474,3202.454,-0.1106975,0.02838341,0.06140371,-0.652799844741821,-0.215116918087006,0.323932647705078,-0.573473482003304,-0.246749618311663,0.355007403690405,3
1.20001220703125,-0.603918015956879,2.82431101799011,1.32187962532043,-0.334165615614823,2.82203425154496,1.34972152476313,1156.695,1422.895,3127.277,3205.239,-0.1124179,0.02689961,0.0637037,-0.658775329589844,-0.225309401750565,0.328730911016464,-0.586886736182789,-0.252520966862155,0.363310846989412,3
1.22000122070313,-0.617221236228943,2.8196017742157,1.32855224609375,-0.346030421585499,2.81692915700008,1.35706640485806,1155.287,1423.818,3131.393,3213.612,-0.113962,0.02545941,0.06610737,-0.665163815021515,-0.235463917255402,0.333633363246918,-0.600236516861372,-0.258265004538453,0.371574997167698,3
1.24000549316406,-0.630660593509674,2.81469082832336,1.33532524108887,-0.358170848086624,2.8117054706409,1.36458190719098,1154.041,1423.306,3137.099,3221.726,-0.1152872,0.02407757,0.06858001,-0.671964168548584,-0.245544105768204,0.338647931814194,-0.613536214864368,-0.263987493038594,0.379808143784027,2
1.260009765625,-0.644243657588959,2.80958080291748,1.34219837188721,-0.37057666480527,2.80636759428526,1.37226169871082,1161.851,1423.413,3137.231,3226.201,-0.1163855,0.02277741,0.07106206,-0.679157137870789,-0.255495607852936,0.343659371137619,-0.626768731761373,-0.26968107538565,0.387999702095469,2
1.27999877929688,-0.657978475093842,2.80427503585815,1.34917545318604,-0.383236695417198,2.80092033679326,1.3800988607405,1170.34,1423.358,3140.094,3228.517,-0.1173005,0.02156144,0.07353735,-0.686742305755615,-0.265290558338165,0.348853707313538,-0.639917282339435,-0.275338529371412,0.396139281255613,2
1.30000305175781,-0.671872556209564,2.79877686500549,1.35626077651978,-0.396168722856641,2.79535604666509,1.38810440176341,1169.56,1421.696,3147.642,3236.894,-0.1180489,0.02042311,0.0760235,-0.694700479507446,-0.274907022714615,0.354266464710236,-0.652995275331231,-0.280965624398954,0.404235181908735,2
1.32000732421875,-0.685932457447052,2.7930908203125,1.36345517635345,-0.409361504843077,2.78967956113998,1.39627136227237,1177.704,1420.109,3150.527,3240.703,-0.1186007,0.01938516,0.07846544,-0.702997922897339,-0.284303516149521,0.359717667102814,-0.6659860834168,-0.286555206197011,0.41227711095171,2
1.34001159667969,-0.700164973735809,2.78722167015076,1.37076210975647,-0.422813232584026,2.78389165849082,1.40459862253867,1188.863,1418.514,3155.019,3240.65,-0.1189858,0.01844946,0.08085331,-0.71162486076355,-0.293458759784698,0.365346401929855,-0.678883253871146,-0.292104498338286,0.420261073840379,2
1.36000061035156,-0.714576125144958,2.781174659729,1.37818503379822,-0.436511415158101,2.77799771321212,1.41307845008695,1194.29,1415.863,3161.264,3245.559,-0.1192409,0.01760499,0.08321142,-0.720554351806641,-0.302351951599121,0.371149271726608,-0.691670720740693,-0.297606588091785,0.42817712498415,2
1.3800048828125,-0.729171454906464,2.77495527267456,1.38572752475739,-0.450474904562636,2.77198961381608,1.4217225152016,1198.017,1411.775,3169.59,3251.043,-0.119341,0.01685405,0.08552908,-0.72976678609848,-0.310967147350311,0.377122282981873,-0.704361775018035,-0.303067194200314,0.436033492140578,2
1.40000915527344,-0.743955910205841,2.76856994628906,1.39338994026184,-0.464691155755482,2.76587275808388,1.43052305190393,1209.988,1408.702,3171.629,3253.423,-0.1192867,0.01621125,0.08776224,-0.739226222038269,-0.319268882274628,0.383119434118271,-0.716940488958393,-0.308479463400265,0.443820315276901,2
1.41999816894531,-0.758934438228607,2.76202487945557,1.40117633342743,-0.47914673136562,2.75965292774086,1.43947174182117,1221.696,1405.504,3176.23,3254.172,-0.1191269,0.01567016,0.0899054,-0.748925924301147,-0.327248990535736,0.389317125082016,-0.729391385793766,-0.313836736470737,0.451528013536465,2
1.44000244140625,-0.774111330509186,2.75532674789429,1.40909123420715,-0.493861275572861,2.75332167044526,1.4485807456364,1223.145,1400.7,3185.8,3261.115,-0.1188729,0.01521583,0.091984,-0.758840799331665,-0.334907501935959,0.39574784040451,-0.741727567798258,-0.319144650954242,0.459164697851088,2
1.46000671386719,-0.789489805698395,2.74848222732544,1.41713523864746,-0.508821304757097,2.74688478782212,1.45784171634646,1232.905,1396.792,3189.337,3264.106,-0.1184958,0.01486708,0.09394635,-0.768925487995148,-0.342221200466156,0.402199804782867,-0.753933682518823,-0.324396601119133,0.466720864320996,2
1.48001098632813,-0.805073082447052,2.7414984703064,1.42531156539917,-0.524024159888143,2.74034342397783,1.467253007885,1245.759,1393.258,3194.159,3262.688,-0.1180233,0.01462145,0.09578121,-0.779167592525482,-0.349187165498734,0.408814042806625,-0.766004036374583,-0.329590137176618,0.474192988348404,2
1.5,-0.820863783359528,2.73438239097595,1.43362331390381,-0.539455198877605,2.73370387899399,1.4768055561018,1252.171,1389.01,3200.786,3266.137,-0.1174949,0.01446253,0.09751786,-0.789534449577332,-0.355804592370987,0.415586143732071,-0.777924000354858,-0.334718964672088,0.481572013878822,1
1.52000427246094,-0.836863875389099,2.7271409034729,1.44207334518433,-0.555135099954955,2.72695725560613,1.48651216180595,1256.316,1383.651,3209.524,3269.936,-0.1168819,0.01438837,0.09915277,-0.800000607967377,-0.362077325582504,0.422502368688583,-0.789706299681991,-0.339788558913217,0.48886581843107,1
1.54000854492188,-0.853074252605438,2.71978116035461,1.45066118240356,-0.571049184024557,2.72010986981902,1.49636373793799,1268.759,1379.967,3211.064,3270.458,-0.1161884,0.01440992,0.1006489,-0.810521960258484,-0.367987364530563,0.429393857717514,-0.801336412291853,-0.344792671461508,0.496065412155667,1
1.56001281738281,-0.869496166706085,2.71231031417847,1.45938992500305,-0.587194353912065,2.71316305426025,1.50635836719945,1280.817,1376.304,3215.247,3268.962,-0.1154645,0.01451496,0.1020103,-0.821092009544373,-0.373543471097946,0.436440289020538,-0.812809078412023,-0.349729039183831,0.50316753900293,1
1.58000183105469,-0.886129796504974,2.70473504066467,1.46826267242432,-0.60355483331529,2.70612359703193,1.51648628330776,1284.431,1371.684,3222.524,3272.888,-0.1147364,0.01468553,0.103268,-0.831681609153748,-0.378759801387787,0.443635493516922,-0.824110582941666,-0.354591760855452,0.510163708672098,0
1.60000610351563,-0.902975022792816,2.69706201553345,1.47728133201599,-0.620152298932711,2.69898217125626,1.52676090517188,1286.37,1366.177,3231.594,3276.297,-0.113954,0.0149227,0.1044151,-0.842264294624329,-0.383650034666061,0.450930178165436,-0.835253140422976,-0.35938609205264,0.51706148254665,0
1.62001037597656,-0.920030951499939,2.689297914505,1.48644387722015,-0.636970945360177,2.69174557755711,1.53717244849371,1298.485,1362.908,3231.894,3275.484,-0.1131114,0.01523949,0.1054124,-0.85279369354248,-0.388200134038925,0.458126962184906,-0.846223126656604,-0.364106170663034,0.523852426598179,0
1.63999938964844,-0.937296211719513,2.68144941329956,1.49575233459473,-0.653994195024907,2.68442094880091,1.54771065096602,1310.71,1359.844,3234.439,3272.484,-0.1122693,0.01562186,0.1062679,-0.863267660140991,-0.392422258853912,0.465423405170441,-0.857007552155828,-0.368746407673381,0.530528499715628,0
1.66000366210938,-0.954769611358643,2.67352247238159,1.50520968437195,-0.671244443874359,2.67699864863716,1.55838937674714,1310.271,1354.989,3243.01,3276.859,-0.1114464,0.01604482,0.1070296,-0.873665928840637,-0.39634245634079,0.472869515419006,-0.867618167158098,-0.373311858882592,0.53709697585572,0
1.68000793457031,-0.972448408603668,2.66552305221558,1.51481425762177,-0.688705090349012,2.66948582025311,1.56919834868089,1316.658,1351.542,3245.131,3278.175,-0.1106096,0.01652214,0.1076592,-0.883943974971771,-0.399962961673737,0.480228424072266,-0.878042061913515,-0.377796969585941,0.543549863268291,0
1.70001220703125,-0.990330457687378,2.65745735168457,1.52456676959991,-0.706372354049449,2.66188409024902,1.58013522651994,1326.187,1348.634,3248.319,3274.699,-0.1097744,0.01705029,0.1081512,-0.894097447395325,-0.403300106525421,0.487627148628235,-0.888274735793774,-0.382199803288802,0.549884375850026,0
1.72000122070313,-1.00841236114502,2.64932990074158,1.53446781635284,-0.724228658537036,2.6542010212754,1.5911891296115,1329.245,1345.252,3252.865,3276.07,-0.108968,0.01760999,0.1085424,-0.904101133346558,-0.406371057033539,0.495050430297852,-0.898304216251578,-0.386515208538549,0.556093102023817,0
1.74000549316406,-1.026691198349,2.64114594459534,1.54451751708984,-0.742297311768984,2.64642658456943,1.60237448669139,1329.858,1341.037,3259.376,3277.654,-0.1081563,0.01819794,0.1088373,-0.913939595222473,-0.409196048974991,0.502488076686859,-0.908141534469281,-0.390747931744771,0.562182870617028,0
1.760009765625,-1.04516267776489,2.63291049003601,1.55471253395081,-0.760560719141003,2.63856835059778,1.61368040586141,1338.372,1338.998,3257.69,3276.711,-0.1073414,0.01882324,0.1090053,-0.923575520515442,-0.411771148443222,0.509753942489624,-0.91777478390713,-0.394892849856044,0.568146310914365,0
1.77999877929688,-1.06382310390472,2.6246280670166,1.56505346298218,-0.779000609654483,2.63063418086074,1.62509557650306,1346.461,1337.099,3258.964,3273.301,-0.1065691,0.01947371,0.1090531,-0.933017075061798,-0.414116948843002,0.51704728603363,-0.927192788821983,-0.398945154262308,0.57397650459845,0
1.80000305175781,-1.08266806602478,2.61630272865295,1.57554149627686,-0.797640935141499,2.62261376955408,1.63663482594136,1342.098,1333.524,3266.204,3276.883,-0.1058425,0.02012651,0.1090296,-0.942250788211823,-0.416265040636063,0.524401009082794,-0.936405971974637,-0.402909329586356,0.579679903854719,0
1.82000732421875,-1.10169267654419,2.60793828964233,1.58617258071899,-0.816463410111527,2.61451498441355,1.64828683458664,1345.959,1331.725,3265.762,3276.925,-0.1051214,0.02079925,0.1088957,-0.951237320899963,-0.418219566345215,0.531555652618408,-0.94540321420156,-0.406780591562751,0.585249625391268,0
1.84001159667969,-1.12089240550995,2.59953832626343,1.59694576263428,-0.835463677219795,2.60633970028288,1.66004890503489,1353.449,1330.546,3266.351,3271.863,-0.1044247,0.02148796,0.1086494,-0.959982991218567,-0.419997125864029,0.538661777973175,-0.954180774018563,-0.410557330335375,0.590683353051152,0
1.86000061035156,-1.14026188850403,2.59110593795776,1.60786020755768,-0.854622615239374,2.59809614449182,1.6719092003358,1353.186,1328.77,3268.931,3272.514,-0.103785,0.0221715,0.1083357,-0.968472898006439,-0.421617716550827,0.545720458030701,-0.962728579444532,-0.414235212212131,0.595974851798267,0
1.8800048828125,-1.1597957611084,2.58264398574829,1.61891448497772,-0.873964974649439,2.58977366760063,1.68388304221498,1349.76,1326.072,3273.658,3273.981,-0.1031597,0.02284801,0.1079616,-0.976700365543365,-0.423103362321854,0.552714288234711,-0.971056158224177,-0.417818336715394,0.601130019760457,0
1.90000915527344,-1.17948865890503,2.57415509223938,1.63010346889496,-0.893471623792247,2.58138050142717,1.69595858726494,1355.172,1325.629,3269.856,3272.293,-0.1025418,0.02353036,0.1074928,-0.984636902809143,-0.424450486898422,0.559449017047882,-0.979153483542501,-0.421302389586788,0.606142649861596,0
1.91999816894531,-1.19933462142944,2.56564164161682,1.64142620563507,-0.913122862707269,2.57292512231409,1.70812364027167,1360.443,1325.367,3269.111,3267.876,-0.1019746,0.02420774,0.1069376,-0.992299675941467,-0.425677418708801,0.566135048866272,-0.987011339258123,-0.424683405378145,0.611007036871143,0
1.94000244140625,-1.21932816505432,2.55710530281067,1.65288233757019,-0.932943991899774,2.5643966441608,1.72039386345315,1352.939,1323.452,3274.268,3270.94,-0.1014579,0.02485852,0.1063489,-0.999683558940887,-0.42681285738945,0.572805523872375,-0.994638524886308,-0.427965170275055,0.615728628108227,0
1.96000671386719,-1.23946332931519,2.54854822158813,1.664466381073,-0.952915303453826,2.55580354673295,1.73275705667061,1353.948,1323.214,3271.668,3270.48,-0.1009498,0.02550284,0.1056865,-1.00675868988037,-0.427858501672745,0.57920104265213,-1.00202586176059,-0.431143734953757,0.620301741541062,0
1.98001098632813,-1.25973415374756,2.53997159004211,1.67617607116699,-0.973031969359004,2.54714790738853,1.74521023115561,1358.647,1323.549,3270.308,3264.856,-0.1004662,0.02613791,0.1049484,-1.01354002952576,-0.428827226161957,0.585483491420746,-1.00917036754089,-0.434217816196637,0.624724530959079,0
2,-1.28013455867767,2.53137683868408,1.68800926208496,-0.993273599084619,2.53843849960327,1.7577407641983,1355.419,1323.278,3271.08,3265.111,-0.1000363,0.02674511,0.1041806,-1.0200207233429,-0.429735153913498,0.591657221317291,-1.01606400046349,-0.437183953857422,0.628992018127441,0
2.02000427246094,-1.30065870285034,2.52276492118835,1.69996333122253,-1.01366615605493,2.52966415204104,1.77036472839513,1349.097,1322.036,3273.969,3266.316,-0.09961394,0.02732461,0.1033897,-1.02620160579681,-0.430599272251129,0.597703278064728,-1.02271452148052,-0.440045487257004,0.633109007445237,0
2.04000854492188,-1.32129991054535,2.51413679122925,1.71203184127808,-1.03418924440916,2.52083364047092,1.78306949773667,1352.218,1322.908,3268.269,3264.13,-0.09918731,0.02789257,0.1025386,-1.03206193447113,-0.431410580873489,0.603427827358246,-1.02911391720548,-0.442798968459032,0.637070538244476,0
2.06001281738281,-1.3420524597168,2.5054931640625,1.72421288490295,-1.05483781489696,2.5119491374443,1.79585194649644,1355.52,1323.964,3265.746,3258.967,-0.09879848,0.02843977,0.101636,-1.03762543201447,-0.432181268930435,0.609053134918213,-1.03525963910674,-0.445443300901551,0.64087503286269,0
2.08000183105469,-1.36291027069092,2.49683451652527,1.73650443553925,-1.07559088172821,2.50301967256038,1.80869908347065,1348.606,1324.092,3266.712,3260.733,-0.09846825,0.02894898,0.100727,-1.04288864135742,-0.432929903268814,0.614575982093811,-1.04114485287423,-0.447975543971863,0.644518260536375,0
2.10000610351563,-1.38386726379395,2.48816108703613,1.74890327453613,-1.09647498538954,2.49403382618922,1.82162733848484,1340.088,1323.318,3269.587,3261.965,-0.09812471,0.02942744,0.09980804,-1.04785263538361,-0.433671444654465,0.619945049285889,-1.04677621342161,-0.450398561093403,0.648004340974112,0
2.12001037597656,-1.40491700172424,2.47947335243225,1.76140224933624,-1.11746913671118,2.48500062938421,1.83462371824305,1343.364,1324.798,3262.807,3258.528,-0.09774867,0.02989542,0.09883874,-1.0524959564209,-0.434389591217041,0.624946117401123,-1.05214690704168,-0.452709420518306,0.651329056166548,0
2.13999938964844,-1.4260538816452,2.47077131271362,1.77399861812592,-1.138551967509,2.47592927627801,1.8476749948214,1347.466,1326.493,3258.782,3252.16,-0.09739553,0.03034227,0.09783217,-1.0568436384201,-0.435089081525803,0.629818320274353,-1.05725102347782,-0.454905579228273,0.654488747383304,0
2.16000366210938,-1.44727206230164,2.46205568313599,1.78669106960297,-1.15975039167652,2.46680818657414,1.86079782920208,1336.798,1326.35,3261.292,3255.13,-0.09708074,0.03074505,0.09684953,-1.06090092658997,-0.435788512229919,0.634623467922211,-1.0620943502576,-0.456989527434725,0.657486997379635,0
2.18000793457031,-1.46856498718262,2.45332598686218,1.79947304725647,-1.18104303873349,2.45764655539322,1.87397899203979,1334.073,1327.263,3256.701,3255.209,-0.09675424,0.03112666,0.09584572,-1.06464958190918,-0.436481446027756,0.639099359512329,-1.06667099276523,-0.458958728849171,0.660320157107579,0
2.20001220703125,-1.48992705345154,2.44458246231079,1.8123414516449,-1.20242455577657,2.44844668594002,1.88721516963236,1336.014,1328.681,3253.896,3248.823,-0.09641868,0.03149039,0.09481121,-1.06811225414276,-0.437172710895538,0.6434206366539,-1.07097916161324,-0.460812413548163,0.662987118851036,0
2.22000122070313,-1.51135301589966,2.43582510948181,1.82529282569885,-1.22387315175433,2.43921795429519,1.90049287228091,1330.158,1329.565,3252.591,3248.922,-0.09610017,0.03182129,0.09379147,-1.07128524780273,-0.437865972518921,0.647571921348572,-1.07501419914593,-0.462548577472581,0.665484999299265,0
2.24000549316406,-1.53283643722534,2.42705368995667,1.83832371234894,-1.24541615591711,2.42994860144581,1.91382901809327,1322.419,1329.376,3253.167,3249.395,-0.0957497,0.03212345,0.09278629,-1.07417583465576,-0.43856555223465,0.651544272899628,-1.07878069424208,-0.464169195088763,0.667816639186824,0
2.260009765625,-1.55437183380127,2.41826868057251,1.85142683982849,-1.26703177594152,2.42064800401982,1.92721011658316,1324.519,1330.925,3245.528,3246.367,-0.09535874,0.0324149,0.09175675,-1.0767707824707,-0.43925154209137,0.655158817768097,-1.08227399942825,-0.465672266718726,0.669979161506271,0
2.27999877929688,-1.57595372200012,2.40947008132935,1.86459982395172,-1.28869796983554,2.41132564607061,1.9406225227075,1326.331,1332.533,3241.453,3240.78,-0.09497365,0.03268752,0.09071183,-1.07909607887268,-0.439926862716675,0.658651351928711,-1.08549040888332,-0.467056197851165,0.67197027217779,0
2.30000305175781,-1.59757673740387,2.40065789222717,1.87784099578857,-1.31044231452835,2.40196966201596,1.95408330789913,1314.407,1332.5,3243.385,3243.8,-0.09459708,0.03292407,0.08970372,-1.08115577697754,-0.440603822469711,0.662058770656586,-1.08843358680109,-0.468322565086307,0.673792239511894,0
2.32000732421875,-1.61923551559448,2.39183259010315,1.89114332199097,-1.33224276726637,2.39258953623693,1.96757882664355,1312.317,1333.378,3237.922,3242.653,-0.0941731,0.03315063,0.08868185,-1.08293271064758,-0.4412682056427,0.665116429328918,-1.09109983431736,-0.469469776906228,0.675442773735451,0
2.34001159667969,-1.64092433452606,2.38299417495728,1.90450346469879,-1.35409377777295,2.38318765686251,1.9811056430551,1315.053,1334.761,3233.905,3235.449,-0.09371504,0.03336951,0.0876394,-1.08444797992706,-0.441917181015015,0.668006181716919,-1.09348812118877,-0.470497390025984,0.676921237078733,0
2.36000061035156,-1.66263842582703,2.37414312362671,1.91791808605194,-1.37597305876702,2.37377361348711,1.99464996024512,1309.52,1335.517,3231.769,3235.068,-0.09325751,0.03356467,0.08662303,-1.08569943904877,-0.442549675703049,0.670732736587524,-1.09559602313537,-0.471404361345641,0.678226128796969,0
2.3800048828125,-1.68437230587006,2.36527967453003,1.93138384819031,-1.39790843013262,2.36433543599182,2.00822900004707,1301.273,1334.994,3232.015,3235.613,-0.09275577,0.0337403,0.08563275,-1.08669519424438,-0.443166822195053,0.67329066991806,-1.09742594550583,-0.472191725819537,0.679358937915576,0
2.40000915527344,-1.7061208486557,2.35640478134155,1.94489371776581,-1.41987760424917,2.35488271411715,2.02182896536211,1303.091,1335.905,3224.354,3232.413,-0.09219278,0.03391556,0.0846258,-1.08742308616638,-0.443746089935303,0.67549467086792,-1.09897546783438,-0.472858441988871,0.680318166050934,0
2.41999816894531,-1.72787880897522,2.34751892089844,1.95844519138336,-1.44185817738692,2.34542508756209,2.03543598721428,1305.391,1336.958,3219.918,3226.189,-0.09161061,0.03408459,0.08360764,-1.08790624141693,-0.444286018610001,0.677574396133423,-1.10024313330221,-0.473403883025206,0.681102911362803,0
2.44000244140625,-1.7496417760849,2.33862328529358,1.97203660011292,-1.46387808506052,2.33595053645515,2.04906735901791,1294.265,1336.529,3221.053,3228.661,-0.09101886,0.0342309,0.08262907,-1.0881472826004,-0.444793432950974,0.679567992687225,-1.10123038958312,-0.473828671822132,0.681714070030222,0
2.46000671386719,-1.77140426635742,2.32971811294556,1.98566102981567,-1.48591492338117,2.32646870056377,2.06270921169857,1292.827,1336.685,3215.103,3227.218,-0.09036478,0.03437937,0.08163778,-1.08813071250916,-0.445251107215881,0.681219458580017,-1.10193578218388,-0.474132182551855,0.682150741652607,0
2.48001098632813,-1.79316186904907,2.32080554962158,1.9993155002594,-1.5079630509786,2.31698200721197,2.07635805297935,1296.19,1337.326,3211.077,3219.325,-0.08966224,0.03453248,0.08062553,-1.08787620067596,-0.445655435323715,0.682723820209503,-1.10235904000526,-0.474314298567936,0.682412758406602,0
2.5,-1.8149094581604,2.31188535690308,2.01299691200256,-1.52999999932945,2.30750012397766,2.08999997377396,1290.672,1337.377,3208.583,3219.157,-0.08895011,0.03467454,0.07963886,-1.08737862110138,-0.446002513170242,0.684068858623505,-1.10250000050292,-0.474374949932098,0.682500019669533,0
2.52000427246094,-1.83664238452911,2.30295944213867,2.02670216560364,-1.55205376834272,2.29801100328223,2.10365230735988,1283.573,1336.124,3208.718,3218.621,-0.08817779,0.03481103,0.07867197,-1.0866459608078,-0.446292549371719,0.685260951519012,-1.10235882472314,-0.474314205938057,0.682412625136718,0
2.54000854492188,-1.85835564136505,2.294029712677,2.04042434692383,-1.57410188948011,2.28852431271001,2.11730114464159,1286.026,1336.13,3200.958,3215.033,-0.08733357,0.03495968,0.07768559,-1.08566427230835,-0.446501761674881,0.686107218265533,-1.10193535162022,-0.474131997292339,0.682150475113189,0
2.55999755859375,-1.88004469871521,2.2850968837738,2.05416107177734,-1.59612191359838,2.27904971150017,2.13093258853001,1289.523,1336.304,3196.243,3208.054,-0.08646005,0.0351148,0.07668234,-1.08445358276367,-0.446627199649811,0.68683797121048,-1.10123038958312,-0.473828671822132,0.681714070030222,0
2.58000183105469,-1.90170502662659,2.27616310119629,2.06791114807129,-1.61814182127198,2.26957516039323,2.14456396033363,1279.251,1335.138,3197.126,3209.995,-0.08557216,0.03525922,0.07571379,-1.08301520347595,-0.446675002574921,0.687499701976776,-1.10024313330221,-0.473403883025206,0.681102911362804,0
2.60000610351563,-1.9233318567276,2.26723074913025,2.08166790008545,-1.64013916343638,2.26011031859448,2.15818136301212,1278.331,1334.258,3191.337,3208.213,-0.08461822,0.0354164,0.07472766,-1.08133435249329,-0.446629345417023,0.687835991382599,-1.09897439291323,-0.472857979480329,0.680317500623536,0
2.62001037597656,-1.94492042064667,2.25830078125,2.09542846679688,-1.66210831390746,2.25065760689379,2.17178131368948,1282.434,1333.931,3187.07,3200.075,-0.083611,0.0355895,0.07371232,-1.0794266462326,-0.446486234664917,0.688030660152435,-1.09742465646102,-0.47219117117957,0.679358139935436,0
2.63999938964844,-1.96646618843079,2.24937605857849,2.1091902256012,-1.68402693989188,2.24122663446822,2.18534998730279,1278.196,1333.15,3184.686,3198.683,-0.08258889,0.03576275,0.07271259,-1.07728707790375,-0.446243137121201,0.688089668750763,-1.09559602313537,-0.471404361345641,0.67822612879697,0
2.66000366210938,-1.98796439170837,2.2404580116272,2.12295007705688,-1.70592290617745,2.23180541187802,2.19890463348308,1271.555,1331.09,3184.301,3198.325,-0.08150924,0.03594043,0.07172532,-1.07491934299469,-0.445899575948715,0.687995135784149,-1.09348640563071,-0.470496651869278,0.67692017506657,0
2.68000793457031,-2.0094108581543,2.23154926300049,2.1367015838623,-1.72777388024004,2.22240354818443,2.21243142733407,1275.385,1330.087,3176.773,3193.491,-0.08035609,0.03613984,0.0707064,-1.07231211662292,-0.445435702800751,0.687579810619354,-1.09109790637238,-0.469468947365361,0.675441580245664,0
2.70001220703125,-2.03080010414124,2.22265219688416,2.15044283866882,-1.74957429229274,2.21302343991116,2.22592692089233,1279.216,1329.368,3172.288,3186.151,-0.07917684,0.03635341,0.06966466,-1.06948041915894,-0.444850027561188,0.687064707279205,-1.08843144721369,-0.468321644481621,0.673790915005369,0
2.72000122070313,-2.05212879180908,2.21376895904541,2.16417169570923,-1.77130202882336,2.20367460188472,2.23937742484041,1273.149,1327.912,3170.515,3186.265,-0.07800079,0.03656732,0.06863868,-1.06642031669617,-0.444145768880844,0.686439990997314,-1.08549040888332,-0.467056197851165,0.671970272177789,0
2.74000549316406,-2.07339119911194,2.20490264892578,2.17788529396057,-1.79298473688851,2.19434513834902,2.25280005402337,1265.853,1325.304,3170.947,3185.738,-0.07676402,0.03678981,0.06761539,-1.0631355047226,-0.443326473236084,0.685675084590912,-1.08227143928024,-0.465671165158559,0.669977576652695,0
2.760009765625,-2.09458374977112,2.19605493545532,2.19157671928406,-1.81460030360772,2.18504456385877,2.26618111951479,1270.394,1323.897,3163.219,3180.229,-0.07544415,0.03703978,0.06654872,-1.05961108207703,-0.442371815443039,0.684570789337158,-1.07877792518082,-0.464168003639063,0.667814925005998,0
2.77999877929688,-2.11570072174072,2.18722939491272,2.20524406433105,-1.83612684690458,2.17578229366013,2.27950707526701,1276.311,1322.912,3158.284,3171.134,-0.074095,0.03730914,0.06544893,-1.05585992336273,-0.441279619932175,0.683366000652313,-1.07501419914593,-0.462548577472581,0.665484999299265,0
2.80000305175781,-2.13673853874207,2.17842817306519,2.21888589859009,-1.85759178470316,2.16654653058634,2.29279489428112,1267.744,1320.795,3158.084,3172.385,-0.07274798,0.03757732,0.06437306,-1.05187952518463,-0.440055966377258,0.682094871997833,-1.07097597819164,-0.460811043810786,0.662985148161422,0
2.82000732421875,-2.15769147872925,2.16965460777283,2.23249673843384,-1.87897323600723,2.1573466894188,2.30603103117811,1267.794,1318.498,3152.684,3169.664,-0.07135408,0.03786483,0.06326944,-1.04766154289246,-0.438693463802338,0.680539488792419,-1.06666760390385,-0.458957270716794,0.660318059240952,0
2.84001159667969,-2.17855548858643,2.16091108322144,2.24607396125793,-1.90026581322863,2.14818508828617,2.31921215078427,1271.739,1316.859,3148.907,3161.331,-0.06992236,0.03817246,0.06212956,-1.04321682453156,-0.437193185091019,0.678864717483521,-1.06209075728,-0.456987981476842,0.657484773155346,0
2.86000061035156,-2.19932675361633,2.15219950675964,2.25961494445801,-1.9214480311499,2.13907097167731,2.33232495272651,1268.127,1314.968,3146.32,3159.37,-0.06848478,0.03848679,0.06099268,-1.03853893280029,-0.435555785894394,0.677055299282074,-1.05725102347782,-0.454905579228273,0.654488747383304,0
2.8800048828125,-2.21999931335449,2.1435239315033,2.27311706542969,-1.94254691640495,2.12999271078668,2.34538616777867,1263.074,1311.991,3145.661,3157.45,-0.06699981,0.03881146,0.05985383,-1.0336320400238,-0.433784425258636,0.675105392932892,-1.0521429102862,-0.45270770082608,0.651326581984514,0
2.90000915527344,-2.24056911468506,2.13488698005676,2.28657388687134,-1.96354098577478,2.12095954924324,2.35838249680481,1267.6,1309.887,3137.848,3152.151,-0.06545624,0.03916042,0.05867385,-1.02848505973816,-0.431864529848099,0.672841548919678,-1.04677201701582,-0.450396755497224,0.648001743199023,0
2.91999816894531,-2.26103115081787,2.12629103660583,2.29998373985291,-1.98440911693069,2.11198057539494,2.37130086407726,1272.635,1308.245,3133.144,3143.607,-0.06390361,0.03952587,0.05745902,-1.0231100320816,-0.429798275232315,0.670494616031647,-1.04114485287423,-0.447975543971863,0.644518260536375,0
2.94000244140625,-2.28138136863708,2.11773920059204,2.31334567070007,-2.00517798053537,2.10304431360073,2.38415778000673,1263.717,1305.762,3133.182,3144.494,-0.06236271,0.03988972,0.05626114,-1.01750516891479,-0.427595585584641,0.668092787265778,-1.03525504859546,-0.445441325732794,0.640872191117535,0
2.96000671386719,-2.30161428451538,2.10923385620117,2.32665371894836,-2.02582645724542,2.09415985092405,2.3969401707136,1263.825,1303.018,3127.74,3141.34,-0.0607792,0.04027237,0.05502878,-1.01166260242462,-0.425252348184586,0.665400326251984,-1.02910913225408,-0.442796909628122,0.637067576131623,0
2.98001098632813,-2.32172632217407,2.10077857971191,2.33990550041199,-2.04634944795115,2.08532938136936,2.40964487960608,1269.073,1301.089,3123.647,3131.548,-0.05916212,0.04067489,0.05375335,-1.00559139251709,-0.422770112752914,0.66258716583252,-1.02270954399162,-0.440043345582586,0.633105926142498,0
3,-2.34171199798584,2.0923752784729,2.35309815406799,-2.06672639957428,2.07656174835205,2.42225918334961,1265.9,1299.039,3120.307,3129.376,-0.05755517,0.04108131,0.05247989,-0.999284684658051,-0.420150697231293,0.659635901451111,-1.01606400046349,-0.437183953857422,0.628992018127441,0
3.02000427246094,-2.36156678199768,2.08402752876282,2.36622929573059,-2.0869834279768,2.06784571494631,2.43479924890685,1261.479,1295.912,3119.18,3126.818,-0.05592106,0.04149427,0.05120166,-0.992748916149139,-0.417400509119034,0.656555891036987,-1.00916501115878,-0.434215511495054,0.624721215103391,0
3.04000854492188,-2.38128662109375,2.0757372379303,2.3792929649353,-2.10709998486405,2.05919012250926,2.44725235590455,1264.999,1293.476,3111.94,3121.598,-0.05424912,0.04192546,0.04988559,-0.985976874828339,-0.414511561393738,0.653187036514282,-1.00202031904361,-0.431141350077486,0.620298310335216,0
3.05999755859375,-2.40086603164673,2.06750750541687,2.39228773117065,-2.12705600675913,2.05060360379452,2.45960608409476,1269.248,1291.543,3107.604,3112.948,-0.05257506,0.04236803,0.04853736,-0.978978037834167,-0.411488056182861,0.649734497070313,-0.994638524886308,-0.427965170275055,0.615728628108227,0
3.08000183105469,-2.42030096054077,2.05934071540833,2.40521192550659,-2.14687713595163,2.04207512564123,2.47187630727625,1261.022,1289.064,3106.763,3113.265,-0.05092017,0.04280637,0.04720422,-0.971750736236572,-0.408339023590088,0.646205067634583,-0.987011339258122,-0.424683405378145,0.611007036871143,0
3.10000610351563,-2.43958711624146,2.05123949050903,2.41805982589722,-2.16654331551667,2.03361331798384,2.48405060925705,1261.949,1286.205,3101.003,3109.142,-0.04923386,0.04325897,0.04583683,-0.964292466640472,-0.405063599348068,0.642396509647369,-0.979147395688901,-0.421299770153459,0.606138881190213,0
3.12001037597656,-2.45871925354004,2.04320621490479,2.43082928657532,-2.18604984110275,2.02522020497339,2.49612607781951,1266.46,1284.224,3096.72,3099.74,-0.04753263,0.04372396,0.04443219,-0.95661062002182,-0.401665031909943,0.638476490974426,-0.971049893464309,-0.41781564116424,0.601126141575667,0
3.13999938964844,-2.47769355773926,2.03524327278137,2.4435179233551,-2.20537738341953,2.01690410346351,2.50809074721212,1263.044,1282.185,3093.356,3097.205,-0.04585324,0.04418733,0.04303186,-0.948701143264771,-0.398147583007813,0.634427547454834,-0.962728579444533,-0.414235212212131,0.595974851798267,0
3.16000366210938,-2.49650478363037,2.02735280990601,2.45612287521362,-2.22455088103183,2.00865428308644,2.51996005559448,1258.246,1279.181,3091.779,3094.749,-0.04415947,0.04465181,0.04162963,-0.940571069717407,-0.394518733024597,0.630245387554169,-0.954174163352092,-0.410554485950274,0.590679260733698,0
3.18000793457031,-2.51514911651611,2.01953721046448,2.46863865852356,-2.24355101420387,2.00047905658478,2.53172204312984,1261.823,1276.714,3084.777,3088.729,-0.04243587,0.04512861,0.04019254,-0.932217359542847,-0.390774339437485,0.625789523124695,-0.945396434568188,-0.406777674475913,0.585245428475253,0
3.20001220703125,-2.5336217880249,2.01179885864258,2.48106360435486,-2.26237335188561,1.99238033051557,2.54337396678712,1265.692,1274.888,3080.108,3080.143,-0.04072027,0.04561047,0.0387306,-0.923646748065948,-0.386917948722839,0.621243953704834,-0.93639902618694,-0.402906341007952,0.579675604081262,0
3.22000122070313,-2.55191922187805,2.00413942337036,2.49339532852173,-2.28099938900442,1.98436606709459,2.55490437104486,1260.607,1272.827,3077.036,3078.795,-0.03904407,0.04608467,0.03728024,-0.914858937263489,-0.38295716047287,0.616588532924652,-0.927192788821982,-0.398945154262308,0.573976504598449,0
3.24000549316406,-2.5700364112854,1.9965615272522,2.50563144683838,-2.29945328359428,1.9764258717947,2.56632821087688,1254.853,1269.922,3075.797,3076.557,-0.03735616,0.046557,0.03582846,-0.90586268901825,-0.378901541233063,0.611807286739349,-0.91776751470058,-0.394889722119544,0.568141810929231,0
3.260009765625,-2.58796954154968,1.98906683921814,2.51776623725891,-2.31771654397337,1.96856770107001,2.57763403905129,1258.225,1267.566,3068.776,3070.364,-0.03563363,0.04704006,0.03434084,-0.896655380725861,-0.374747455120087,0.606745541095734,-0.908134108040216,-0.390744736359816,0.562178273303667,0
3.27999877929688,-2.6057140827179,1.98165678977966,2.52979803085327,-2.33577134012187,1.96079922667992,2.58881081793642,1263.073,1265.953,3063.735,3060.798,-0.03391695,0.04752658,0.03282757,-0.887241959571838,-0.370496839284897,0.601589918136597,-0.898304216251578,-0.386515208538549,0.556093102023818,0
3.30000305175781,-2.62326669692993,1.97433352470398,2.54172539710999,-2.35364119854729,1.95311032582551,2.59987311156116,1255.867,1264.038,3061.828,3060.114,-0.03223863,0.04800092,0.03133915,-0.877623498439789,-0.366157501935959,0.596362888813019,-0.888267004546666,-0.382196476749158,0.549879589839776,0
3.32000732421875,-2.64062261581421,1.9670991897583,2.55354309082031,-2.37130830610839,1.94550866300381,2.61080989274252,1255.515,1261.313,3056.246,3056.545,-0.03055445,0.04847638,0.02983514,-0.867805123329163,-0.361733376979828,0.590888142585754,-0.878034183119985,-0.377793579561194,0.543544985919778,0
3.34001159667969,-2.6577787399292,1.95995402336121,2.5652494430542,-2.38876879352593,1.93799590305759,2.62161876621234,1258.719,1259.478,3052.027,3047.729,-0.02887133,0.04895331,0.02830885,-0.857794523239136,-0.357228815555573,0.585312902927399,-0.867610144209785,-0.373308406832067,0.537092009268528,0
3.36000061035156,-2.6747305393219,1.95290148258209,2.57684183120728,-2.406005803634,1.93057929915441,2.6322892965819,1254.643,1257.822,3048.613,3045.066,-0.02721857,0.0494203,0.02679823,-0.847591698169708,-0.352648675441742,0.579621970653534,-0.857007552155826,-0.36874640767338,0.530528499715627,0
3.3800048828125,-2.69147443771362,1.94594168663025,2.58831763267517,-2.42304196557559,1.92324911460621,2.64283549236868,1250.114,1255.317,3045.894,3042.655,-0.02556155,0.04988123,0.02529405,-0.837205111980438,-0.347999006509781,0.573786914348602,-0.846214826007803,-0.364102599125748,0.523847288101157,0
3.40000915527344,-2.70800709724426,1.93907570838928,2.5996720790863,-2.43986044461333,1.91601259293018,2.6532469320683,1253.67,1253.157,3039.211,3035.902,-0.02388642,0.05034534,0.02376593,-0.82663768529892,-0.343278735876083,0.567721545696259,-0.835244706287931,-0.359382463079953,0.517056261415284,0
3.41999816894531,-2.72432494163513,1.93230581283569,2.6109037399292,-2.45644516534361,1.90887665092339,2.66351366424015,1256.079,1251.778,3034.666,3028.023,-0.0222326,0.05080451,0.02223161,-0.815893471240997,-0.338490426540375,0.561582982540131,-0.824110582941664,-0.354591760855451,0.510163708672097,0
3.44000244140625,-2.74042439460754,1.92563307285309,2.6220109462738,-2.47281804716281,1.90183185728196,2.67364925803476,1248.505,1250.062,3032.304,3027.904,-0.02061713,0.05124817,0.02072701,-0.804976522922516,-0.333641231060028,0.555361866950989,-0.812800388649434,-0.349725300221754,0.503162159625937,0
3.46000671386719,-2.75630235671997,1.91905832290649,2.63298940658569,-2.4889630419904,1.89488511704659,2.68364377892579,1248.836,1247.623,3026.778,3023.45,-0.01899473,0.05169052,0.01920908,-0.793895423412323,-0.328735411167145,0.548917710781097,-0.801327600455845,-0.344788879974649,0.496059957209413,0
3.48001098632813,-2.77195572853088,1.91258275508881,2.64383721351624,-2.50487694859767,1.88803780761656,2.69349524520019,1251.454,1246.207,3022.608,3014.935,-0.01737819,0.05212966,0.01767999,-0.782655298709869,-0.323775738477707,0.542391121387482,-0.789697369743255,-0.339784716610052,0.488860290373601,0
3.5,-2.7873809337616,1.90620732307434,2.65455222129822,-2.5205447997813,1.88129636896134,2.70319439144611,1247.417,1244.844,3018.707,3012.648,-0.01579681,0.05255594,0.01617391,-0.771257698535919,-0.318765997886658,0.535749316215515,-0.777924000354857,-0.334718964672089,0.481572013878822,0
3.52000427246094,-2.80257511138916,1.8999330997467,2.66513204574585,-2.53598752699493,1.87465179486116,2.71275417523047,1243.688,1242.721,3016.064,3009.357,-0.01421755,0.05297321,0.01468096,-0.759713172912598,-0.313712000846863,0.528995037078857,-0.765994882555673,-0.32958619854407,0.474187321698442,0
3.54000854492188,-2.81753587722778,1.89376091957092,2.67557263374329,-2.55119019794619,1.86811051026429,2.72216535275294,1245.841,1240.813,3009.713,3003.777,-0.01263137,0.05338803,0.0131803,-0.748026132583618,-0.308613657951355,0.522033095359802,-0.753924423002452,-0.324392617007921,0.466715132239272,0
3.55999755859375,-2.83225965499878,1.88769149780273,2.68587279319763,-2.56613872308604,1.86167857751006,2.73141920191151,1248.035,1239.547,3005.248,2996.258,-0.01106756,0.05379545,0.01168161,-0.736201226711273,-0.303472638130188,0.515007615089417,-0.741727567798258,-0.319144650954242,0.459164697851087,0
3.58000183105469,-2.84674453735352,1.88172554969788,2.69603109359741,-2.58085326729328,1.85534732021446,2.74052820572674,1241.219,1238.227,3002.688,2995.651,-0.009544769,0.05418595,0.01021876,-0.724243640899658,-0.298294484615326,0.507917821407318,-0.729391385793765,-0.313836736470737,0.451528013536464,0
3.60000610351563,-2.86098766326904,1.87586402893066,2.70604372024536,-2.59531978247425,1.84912278287974,2.74948366775945,1240.899,1236.04,2997.552,2991.739,-0.008021974,0.05457114,0.008755771,-0.712164223194122,-0.293083786964417,0.500636398792267,-0.716930938559024,-0.308475354130224,0.443814403124743,0
3.62001037597656,-2.87498736381531,1.8701069355011,2.71590948104858,-2.60953584173048,1.8430060097325,2.75828408564387,1243.204,1234.776,2993.4,2983.883,-0.0065077,0.05495083,0.007291454,-0.699967801570892,-0.287842154502869,0.493283569812775,-0.704352136620513,-0.303063047067126,0.436027525513372,0
3.63999938964844,-2.88874077796936,1.86445558071136,2.72562623023987,-2.6234885835008,1.83700253474321,2.76692149746096,1239.552,1233.686,2989.579,2981.478,-0.005029113,0.05531628,0.005856674,-0.687657594680786,-0.282572448253632,0.485841184854507,-0.691670720740692,-0.297606588091786,0.428177124984152,0
3.66000366210938,-2.90224552154541,1.85891008377075,2.73519229888916,-2.63719712493647,1.83110413233575,2.77540773763803,1235.991,1231.877,2986.681,2978.651,-0.003560646,0.05567132,0.004442631,-0.675244212150574,-0.277279376983643,0.478303134441376,-0.678873453515702,-0.29210028151913,0.420255006953505,0
3.68000793457031,-2.91550016403198,1.85347092151642,2.74460434913635,-2.65064865588166,1.82531631436231,2.78373487607838,1237.969,1230.171,2980.98,2973.15,-0.002090581,0.05602171,0.003029594,-0.662734270095825,-0.271963715553284,0.470600634813309,-0.665976209205203,-0.286550957599616,0.412270998344358,0
3.70001220703125,-2.92850255966187,1.84813821315765,2.75386142730713,-2.66384123964357,1.81963991412768,2.79190171387692,1239.495,1229.129,2976.817,2966.478,-0.0006471481,0.05636278,0.001629209,-0.650131225585938,-0.266626298427582,0.462852865457535,-0.65298533214413,-0.280961346123326,0.404229026602262,0
3.72000122070313,-2.94125127792358,1.84291291236877,2.76296210289001,-2.6767633032417,1.81407991116207,2.79990108680742,1235.223,1228.001,2973.352,2964.888,0.0007504983,0.05668825,0.0002651787,-0.637441515922546,-0.261271446943283,0.455036669969559,-0.639917282339434,-0.275338529371411,0.396139281255611,0
3.74000549316406,-2.95374512672424,1.8377947807312,2.77190494537354,-2.6894328975087,1.80862853869646,2.80774416919516,1231.28,1226.298,2970.823,2962.465,0.002135216,0.05700259,-0.001074852,-0.624677121639252,-0.255904585123062,0.447144478559494,-0.626758665639204,-0.269676744214497,0.387993470686332,0
3.760009765625,-2.96598196029663,1.8327841758728,2.78068709373474,-2.70183851231475,1.80329074921818,2.81542383572149,1232.73,1224.707,2965.642,2957.351,0.003522507,0.05731222,-0.002410161,-0.611845135688782,-0.250526785850525,0.4391068816185,-0.613526094901139,-0.263983138701136,0.379801879044709,0
3.77999877929688,-2.97796058654785,1.82788133621216,2.78930759429932,-2.7139695770734,1.79807109095524,2.82293354268985,1234.792,1223.745,2961.474,2950.583,0.004888515,0.05761363,-0.003731621,-0.598948001861572,-0.245137900114059,0.4310262799263,-0.60023651686137,-0.258265004538452,0.371574997167698,0
3.80000305175781,-2.98968076705933,1.82308673858643,2.79776573181152,-2.72584333814708,1.79296214327972,2.83028396642013,1230.121,1222.791,2958.528,2949.303,0.006211273,0.05789956,-0.005011537,-0.585991621017456,-0.239740818738937,0.422907084226608,-0.586876524285838,-0.252516572968186,0.363304525338741,0
3.82000732421875,-3.00114059448242,1.81839978694916,2.80605912208557,-2.73744929742843,1.78796842323393,2.8374686080838,1229.727,1220.972,2954.09,2946.031,0.007516999,0.05817716,-0.006274407,-0.572988271713257,-0.234340146183968,0.414666473865509,-0.573463232144022,-0.246745208083563,0.355001058539243,0
3.84001159667969,-3.01233911514282,1.8138210773468,2.8141872882843,-2.74878645956754,1.78309035908911,2.84448685151184,1230.971,1219.926,2950.803,2939.682,0.008801143,0.0584464,-0.0075213,-0.559942960739136,-0.228937581181526,0.406403332948685,-0.560003743914976,-0.240953966313175,0.346668994161123,0
3.86000061035156,-3.02327680587769,1.80935037136078,2.82214879989624,-2.75984563331209,1.77833190558438,2.85133300688122,1227.683,1219.007,2947.274,2937.994,0.01004446,0.0587017,-0.00872931,-0.54686164855957,-0.223535686731339,0.398081630468369,-0.546515580872635,-0.235150386571708,0.338319178707605,0
3.8800048828125,-3.0339515209198,1.8049875497818,2.82994318008423,-2.77064299647982,1.77368610185671,2.85801708903178,1225.422,1217.544,2944.693,2934.94,0.01127062,0.0589467,-0.009909622,-0.533755004405975,-0.218138292431831,0.389714390039444,-0.532985466132484,-0.229328756186666,0.329943393154704,0
3.90000915527344,-3.04436445236206,1.80073261260986,2.83756804466248,-2.78116944461445,1.76915686529929,2.86453346187138,1226.719,1216.171,2940.027,2930.533,0.01248355,0.05918452,-0.01107236,-0.520630478858948,-0.21274670958519,0.381248325109482,-0.519431110871129,-0.223496695782554,0.321552601564443,0
3.91999816894531,-3.05451393127441,1.79658544063568,2.84502339363098,-2.79141684911929,1.7647476934202,2.87087709341145,1227.873,1215.261,2936.494,2925.197,0.01366334,0.05941258,-0.01221006,-0.507491648197174,-0.207361549139023,0.372772485017776,-0.505870408491346,-0.2176619043907,0.313157880805522,0
