t,x_s1,x_s2,x_s3,x_s_d1,x_s_d2,x_s_d3,propellers_rpms1,propellers_rpms2,propellers_rpms3,propellers_rpms4,rollRad,pitchRad,yawRad,v_s1,v_s2,v_s3,v_s_d1,v_s_d2,v_s_d3,insideCount
0,-0.0599999986588955,2.94000005722046,1.17999994754791,-0.0599999986588955,2.94000005722046,1.17999994754791,0,0,0,0,0,0,0,0,0,0,-1.06581410364015E-15,4.44089209850063E-16,4.44089209850063E-16,0
0.019989013671875,-0.0599999986588955,2.94000005722046,1.17811644077301,-0.0600018659130177,2.93999925379318,1.18000110346716,0,0,0,0,-0.01635288,0.0001297794,-0.01587137,-1.10653664009419E-09,-7.76775763711157E-08,-0.0941759571433067,-0.000279680311988734,-0.000120338624884473,0.000173135436141649,9
0.0399932861328125,-0.0599999986588955,2.94000005722046,1.17242503166199,-0.060014863945674,2.93999366110285,1.18000914986856,0,0,0,0,-0.03270202,0.0005238493,-0.03175127,-1.08383135799528E-09,-7.60859677484405E-08,-0.284568399190903,-0.00111059898697896,-0.000477859717552347,0.000687513678106196,9
0.05999755859375,-0.0599058866500854,2.93990302085876,1.16596508026123,-0.0600498857373401,2.93997859220429,1.18003083002592,1868.354,3252.841,3183.737,1722.314,-0.04942294,0.000329806,-0.01369557,0.00470561534166336,-0.00484914472326636,-0.32299879193306,-0.00247936261166862,-0.00106680046642749,0.00153484356504269,9
0.079986572265625,-0.0598203726112843,2.93960738182068,1.16000318527222,-0.0601174907153006,2.93994950367094,1.18007268072775,1925.478,2314.355,3252.169,2829.42,-0.07543564,-0.002136388,0.02094805,0.00427567213773727,-0.014778820797801,-0.298097044229507,-0.00437104534358026,-0.00188073869847162,0.00270588528944111,9
0.0999908447265625,-0.0599374547600746,2.93904495239258,1.15498673915863,-0.0602281370710988,2.93990189563514,1.18014117609281,979.8283,1498.76,3915.294,3896.684,-0.1031986,-0.008064052,0.06331035,-0.00585409160703421,-0.028117997571826,-0.250821143388748,-0.00677536694902951,-0.00291525111632684,0.0041942748969354,8
0.1199951171875,-0.0604638569056988,2.93818354606628,1.15081322193146,-0.0603918861403606,2.93983143898525,1.18024254456713,346.4391,980.4211,4172.694,4613.423,-0.1214343,-0.01542183,0.1040048,-0.0263201668858528,-0.0430697575211525,-0.208673357963562,-0.00967801353495435,-0.00416417885169243,0.00599115140585487,8
0.139999389648438,-0.061563640832901,2.93704128265381,1.14728271961212,-0.0606185767455666,2.93973390035084,1.18038287685052,352.9913,747.085,3975.225,4855.024,-0.1254029,-0.02116734,0.1351083,-0.0549892820417881,-0.0571149438619614,-0.176523879170418,-0.0130660253322238,-0.00562194567796536,0.00808849210174802,7
0.159988403320313,-0.063340924680233,2.93568086624146,1.14427471160889,-0.0609175312885481,2.93960526856281,1.18056794395381,820.9889,814.9572,3462.693,4692.408,-0.1184611,-0.02352477,0.1522709,-0.088864266872406,-0.0680159479379654,-0.150398120284081,-0.0169234294955564,-0.00728167892605071,0.0104764090324936,7
0.17999267578125,-0.0658470392227173,2.9341721534729,1.1418251991272,-0.0612985250199726,2.93944133760391,1.18080379722281,1348.431,1083.154,3007.24,4255.203,-0.1079795,-0.02278068,0.1557794,-0.125305712223053,-0.0754329711198807,-0.122474029660225,-0.0212433804254414,-0.00914043312572283,0.0131506644458931,7
0.199996948242188,-0.0690851435065269,2.93255376815796,1.14006125926971,-0.0617704296168641,2.93923829023936,1.18109592864822,1636.609,1381.373,2918.039,3666.351,-0.09982433,-0.02030128,0.1501567,-0.161905124783516,-0.0809169486165047,-0.0881956964731216,-0.0260104776919234,-0.0111915819022102,0.0161017247421801,7
0.220001220703125,-0.0730105042457581,2.93082594871521,1.13903522491455,-0.0623420644491781,2.93899233174064,1.18144979784016,1641.709,1580.855,3147.846,3113.043,-0.09583811,-0.01735475,0.142187,-0.196268036961555,-0.086386613547802,-0.0513021871447563,-0.03121219533433,-0.0134297356845702,0.019321835755004,7
0.239990234375,-0.0775502771139145,2.92897343635559,1.13863277435303,-0.0630214373585105,2.93870001655724,1.18187036203406,1524.124,1624.245,3417.853,2777.381,-0.09475953,-0.01467775,0.1377306,-0.226988792419434,-0.0926252007484436,-0.0201216954737902,-0.0368316683029241,-0.015847637913056,0.022800557215184,7
0.259994506835938,-0.0826392397284508,2.92699217796326,1.1386353969574,-0.0638179029240226,2.93835731967507,1.18236341216003,1438.383,1500.545,3534.099,2744.228,-0.09439095,-0.0125893,0.139302,-0.254448115825653,-0.0990603119134903,0.000130265951156616,-0.0428651747123285,-0.0184436871643672,0.0265355850983733,7
0.279998779296875,-0.0882451236248016,2.9249005317688,1.13885188102722,-0.0647390625194898,2.93796097043536,1.18293365383054,1400.683,1276.121,3476.251,2977.681,-0.09320798,-0.01110591,0.1456849,-0.280294239521027,-0.104586839675903,0.0108250137418509,-0.0492963837173861,-0.0212108567320638,0.030516809833474,7
0.29998779296875,-0.0943708866834641,2.92273235321045,1.13920652866364,-0.0657918945890516,2.93750796620855,1.18358540703494,1351.13,1061.771,3344.532,3324.737,-0.0905315,-0.009934124,0.1533099,-0.306288033723831,-0.10840766876936,0.0177306588739157,-0.0561078595514081,-0.0241416444928383,0.0347334378503248,7
0.319992065429688,-0.101036235690117,2.92052555084229,1.13972473144531,-0.0669855955880233,2.93699435001684,1.18432436481717,1280.473,940.7471,3238.268,3590.663,-0.08597643,-0.008524246,0.1583608,-0.333267956972122,-0.110343307256699,0.0259108282625675,-0.0632980253096114,-0.0272353719486164,0.0391844929697465,7
0.339996337890625,-0.108251824975014,2.91831183433533,1.14046120643616,-0.068326768706371,2.93641728069206,1.18515461486636,1253.049,944.2448,3170.808,3650.013,-0.07944263,-0.006291984,0.1584771,-0.360779762268066,-0.110680535435677,0.0368255972862244,-0.0708499516420146,-0.0304847548730522,0.0438594951176439,7
0.360000610351563,-0.11600336432457,2.91611456871033,1.14145219326019,-0.0698225328270578,2.93577369517774,1.1860805641102,1320.18,1047.498,3120.205,3497.867,-0.07154582,-0.002961968,0.1534705,-0.387577503919601,-0.109857924282551,0.0495469383895397,-0.0787518717320621,-0.0338847303337087,0.0487511600740379,8
0.379989624023438,-0.124251753091812,2.91394948959351,1.14270722866058,-0.0714784451857985,2.93506120235061,1.1871056527423,1455.436,1181.691,3090.851,3231.183,-0.06361706,0.001259607,0.145035,-0.412418723106384,-0.108256004750729,0.0627491027116776,-0.0869857157641562,-0.0374275233937465,0.0538483017622888,8
0.399993896484375,-0.132943585515022,2.91182613372803,1.14421713352203,-0.0733036822025899,2.9342758538535,1.18823556140379,1578.67,1273.216,3105.921,2981.903,-0.05701828,0.005825673,0.1357485,-0.434592247009277,-0.106166265904903,0.0754952132701874,-0.0955525119207663,-0.0411135764513579,0.0591515566763244,8
0.419998168945313,-0.14202393591404,2.90974998474121,1.14595746994019,-0.0753034649285836,2.93341540321397,1.18947352217404,1631.451,1288.716,3158.445,2844.945,-0.05243391,0.01017596,0.1278584,-0.454017579555511,-0.103803411126137,0.087017185986042,-0.104434660908044,-0.0449353170220673,0.0646500300148815,8
0.439987182617188,-0.151446312665939,2.90772414207458,1.14789497852325,-0.0774822545706558,2.93247793089932,1.19082229675263,1607.962,1238.405,3218.554,2842.489,-0.04965357,0.01397712,0.1224598,-0.471119225025177,-0.10128965228796,0.0968777388334274,-0.113613709720558,-0.0488848052931553,0.0703322984885602,8
0.459991455078125,-0.161177039146423,2.9057514667511,1.14999651908875,-0.0798493430620752,2.93145943885026,1.19228763728888,1540.639,1157.799,3253.779,2938.572,-0.0478847,0.01718568,0.1193424,-0.486536294221878,-0.098637580871582,0.105079419910908,-0.123092454730403,-0.0529632444654124,0.0762000931848968,8
0.479995727539063,-0.171193853020668,2.9038360118866,1.15223848819733,-0.0824088828700873,2.93035814037613,1.19387211435783,1474.07,1086.195,3247.95,3067.446,-0.04628414,0.01998728,0.1173785,-0.500840485095978,-0.0957764238119125,0.112098999321461,-0.132852887402757,-0.0571628859694044,0.0822422659629699,8
0.5,-0.181481242179871,2.9019832611084,1.15461504459381,-0.085166398670376,2.92917165836334,1.1955791479969,1432.682,1046.657,3215.784,3169.018,-0.04433098,0.02264607,0.1152183,-0.514370441436768,-0.0926364734768867,0.11882558465004,-0.142884000065179,-0.0614789935111996,0.0884520025491718,8
0.519989013671875,-0.192024424672127,2.90019869804382,1.15713405609131,-0.0881248588203387,2.92789871561062,1.19741057576073,1423.671,1045.104,3177.574,3210.178,-0.04192401,0.02538048,0.1118811,-0.527158677577972,-0.08922428637743,0.125953182578087,-0.153166947611899,-0.0659034585682559,0.0948176369253132,9
0.539993286132813,-0.202804699540138,2.89848589897156,1.15980970859528,-0.091293865515634,2.92653518056143,1.19937234186584,1444.255,1072.974,3150.195,3184.934,-0.03929548,0.02828836,0.1070512,-0.539014458656311,-0.0856379345059395,0.133782774209976,-0.163706645289342,-0.0704383960337938,0.101342211863077,9
0.55999755859375,-0.213797956705093,2.89684534072876,1.16265249252319,-0.094676112580471,2.92507989413848,1.20146611391775,1484.368,1113.933,3137.997,3114.462,-0.03687999,0.0313285,0.1010603,-0.54966127872467,-0.0820316225290298,0.14213664829731,-0.17448465888317,-0.0750758741803766,0.108014315705644,9
0.579986572265625,-0.224976152181625,2.8952739238739,1.16566717624664,-0.0982734311149,2.92353206847056,1.2036930254546,1522.761,1149.111,3144.827,3033.976,-0.03512177,0.0343484,0.09465173,-0.558910429477692,-0.0785738974809647,0.150736287236214,-0.185481935470438,-0.0798076950675377,0.114822153786096,9
0.599990844726563,-0.23631078004837,2.8937656879425,1.16885101795197,-0.102095761416081,2.92188742652551,1.20605922999388,1539.36,1166.659,3164.429,2979.724,-0.03429033,0.03716082,0.08861941,-0.566732168197632,-0.0754154771566391,0.159191757440567,-0.19670480600515,-0.0846365827279185,0.121769645266545,9
0.6199951171875,-0.247776031494141,2.89231252670288,1.17219388484955,-0.106144683970236,2.92014528826426,1.20856570593183,1534.374,1167.243,3181.755,2964.85,-0.03441656,0.03963226,0.08345956,-0.573262691497803,-0.0726617649197578,0.167144119739532,-0.208134604141382,-0.0895545055543457,0.128845234789665,9
0.639999389648438,-0.259351223707199,2.89090490341187,1.17568624019623,-0.110424235525481,2.91830391678686,1.21121495220784,1508.08,1156.706,3194.228,2985.908,-0.03534175,0.04170128,0.0792892,-0.578759253025055,-0.0703755244612694,0.174615815281868,-0.219761081350814,-0.0945570538913933,0.136042578028218,9
0.659988403320313,-0.271020919084549,2.88953304290771,1.17931985855103,-0.114934715429503,2.91636318329238,1.21400715413238,1466.915,1144.436,3197.776,3030.99,-0.03678624,0.04338725,0.07589893,-0.583485424518585,-0.0685911551117897,0.181680202484131,-0.231565018351745,-0.0996359582190702,0.143349777331291,9
0.67999267578125,-0.282773852348328,2.88818669319153,1.18308961391449,-0.119686638739014,2.91431856344567,1.21694882102647,1427.388,1139.324,3192.059,3075.857,-0.03845019,0.04477564,0.07288606,-0.587646663188934,-0.067322663962841,0.188487470149994,-0.243554411173546,-0.104794659005432,0.150771782621969,9
0.699996948242188,-0.294600754976273,2.88685512542725,1.18699193000793,-0.124680083855354,2.91217002351282,1.22004000142426,1404.544,1146.194,3176.567,3102.495,-0.04016313,0.04596793,0.06985895,-0.591344833374023,-0.0665732100605965,0.195116072893143,-0.255710395848158,-0.11002503961202,0.158296916205407,9
0.720001220703125,-0.306492924690247,2.88552808761597,1.19102787971497,-0.129918284978346,2.90991617190799,1.22328269744952,1396.036,1163.188,3162.459,3105.142,-0.04192455,0.04702483,0.06662278,-0.594609081745148,-0.0663565397262573,0.201795727014542,-0.268023157655716,-0.11532287703907,0.16591910230247,9
0.739990234375,-0.318441241979599,2.88419389724731,1.19519865512848,-0.135400001298574,2.90755754251682,1.2266761409821,1392.202,1185.147,3153.542,3094.277,-0.04383989,0.04795343,0.06321685,-0.59741622209549,-0.0667048841714859,0.208536937832832,-0.280473432677602,-0.12067988256057,0.173626415629864,9
0.759994506835938,-0.3304363489151,2.88284063339233,1.19950449466705,-0.14113644597991,2.90508931062815,1.2302272735046,1389.725,1207.236,3151.466,3075.848,-0.0460141,0.0487311,0.05981915,-0.599753737449646,-0.0676599964499474,0.215293645858765,-0.293070637251543,-0.126100107763583,0.181424685349205,9
0.779998779296875,-0.342469096183777,2.88145542144775,1.20394194126129,-0.147126184485884,2.90251209348295,1.23393520697061,1387.225,1226.443,3150.288,3059.706,-0.04853984,0.04931718,0.05665448,-0.601637899875641,-0.069254994392395,0.221871793270111,-0.305795832832518,-0.131575403921268,0.189302187598958,9
0.79998779296875,-0.35453200340271,2.88002514839172,1.20850789546967,-0.153366821193532,2.89982692185086,1.2377984583754,1376.851,1240.939,3153.062,3052.386,-0.05146506,0.04966403,0.05392758,-0.60314667224884,-0.0715179964900017,0.228300094604492,-0.318629798715703,-0.137097500901303,0.197247023847227,9
0.819992065429688,-0.366619765758514,2.87853574752808,1.21319830417633,-0.159870162197751,2.89702871589906,1.2418243362541,1351.145,1250.764,3157.378,3062.688,-0.054745,0.04973927,0.05176107,-0.604389011859894,-0.0744664445519447,0.234519124031067,-0.33158286215529,-0.142670842232658,0.205265587156312,9
0.839996337890625,-0.378729492425919,2.87697386741638,1.21800625324249,-0.166633637018892,2.89411858163313,1.24601124935738,1326.325,1259.435,3155.115,3079.162,-0.05824919,0.04956001,0.05010324,-0.605485022068024,-0.0780946165323257,0.240394920110703,-0.344636106234817,-0.148287288494656,0.213346167053785,8
0.860000610351563,-0.390860497951508,2.87532615661621,1.2229278087616,-0.173659158941841,2.89109569582005,1.2503603820997,1302.465,1269.339,3151.157,3095.579,-0.06186949,0.04915468,0.04885374,-0.606550872325897,-0.082387313246727,0.246075019240379,-0.357780475378537,-0.153942943326036,0.221483157706883,8
0.879989624023438,-0.403013825416565,2.87357974052429,1.22795939445496,-0.18094280014554,2.88796174849148,1.25486930297274,1277.094,1281.115,3145.62,3113.548,-0.06552389,0.04855517,0.04791415,-0.607664823532104,-0.0873210802674294,0.25158229470253,-0.370996904517929,-0.159629603560431,0.229664756929996,8
0.899993896484375,-0.415191411972046,2.87172245979309,1.23309874534607,-0.18849723509595,2.8847112861788,1.25954585807468,1256.572,1294.907,3140.364,3125.045,-0.06912767,0.04780325,0.04718613,-0.608881056308746,-0.0928697511553764,0.256967395544052,-0.384296738353309,-0.165352150505452,0.237897987633041,8
0.919998168945313,-0.427395850419998,2.86974263191223,1.23834192752838,-0.196318384305134,2.8813460641717,1.26438752200817,1246.804,1310.746,3131.671,3128.331,-0.07266275,0.04693329,0.04661284,-0.6102215051651,-0.0989954918622971,0.262159436941147,-0.397661187980262,-0.171102499820431,0.246171218589148,8
0.939987182617188,-0.439630031585693,2.86762928962708,1.24368822574615,-0.204401181418416,2.87786826238106,1.26939115845832,1239.887,1326.876,3127.042,3126.079,-0.0761696,0.04595263,0.04622376,-0.611711263656616,-0.105672173202038,0.267317414283752,-0.411071375662203,-0.176872528942697,0.254472763580097,8
0.959991455078125,-0.451897472143173,2.86537170410156,1.24913692474365,-0.212759000778906,2.87427212620069,1.27456504678061,1224.926,1340.968,3127.111,3129.759,-0.07967539,0.04485178,0.04610548,-0.613371074199677,-0.11287572234869,0.272437512874603,-0.424539267042903,-0.182667386354485,0.262810029909387,8
0.979995727539063,-0.464202076196671,2.86296033859253,1.25468420982361,-0.22138664033507,2.87055989392801,1.27990596665734,1216.021,1353.157,3124.627,3132.215,-0.08314975,0.04364352,0.04627565,-0.615230441093445,-0.120568186044693,0.277364671230316,-0.438046240701377,-0.188479059778567,0.271171490030365,8
1,-0.476548850536346,2.86038589477539,1.26032865047455,-0.230284798736574,2.86673126495361,1.28541435058594,1207.345,1363.842,3124.215,3134.951,-0.08658789,0.04232874,0.04676554,-0.617339134216309,-0.128717243671417,0.28222194314003,-0.451584000205995,-0.194303979492187,0.279552008056641,8
1.01998901367188,-0.488943606615067,2.85764026641846,1.26606845855713,-0.239446912293295,2.86278906344998,1.29108613532954,1192.179,1372.59,3124.462,3145.813,-0.08997276,0.04090838,0.04759831,-0.619740188121796,-0.137283340096474,0.286988228559494,-0.46513400752272,-0.200134169097193,0.287940108062054,8
1.03999328613281,-0.501393258571625,2.8547158241272,1.27190208435059,-0.248887339851819,2.85872711120656,1.2969302096982,1176.79,1379.81,3125.447,3157.991,-0.09322662,0.0394038,0.0487311,-0.62248170375824,-0.146224796772003,0.291679948568344,-0.478708875293167,-0.205975055460915,0.29634359787259,8
1.05999755859375,-0.513905167579651,2.85160613059998,1.2778263092041,-0.258599401509697,2.85454828239877,1.30294243851408,1169.987,1387.354,3121.319,3167.154,-0.09629884,0.03784854,0.05008552,-0.625591933727264,-0.155482038855553,0.296210885047913,-0.492290296490434,-0.211818761581115,0.30475114456651,8
1.07998657226563,-0.526487112045288,2.84830594062805,1.28384160995483,-0.268575430648764,2.85025587575821,1.30911807577533,1165.436,1395.095,3119.414,3173.149,-0.0991921,0.03626166,0.05162026,-0.629101455211639,-0.165011450648308,0.300766170024872,-0.50586005237609,-0.217657448443621,0.313151469876847,8
1.09999084472656,-0.53914749622345,2.84481048583984,1.28994917869568,-0.278830554044452,2.84584338265603,1.31546648567654,1154.364,1401.782,3121.052,3183.743,-0.1019021,0.0346528,0.05333216,-0.633019268512726,-0.174770668148994,0.305380672216415,-0.519431110871131,-0.223496695782555,0.321552601564445,7
1.1199951171875,-0.55189436674118,2.84111642837524,1.29614758491516,-0.289357002179081,2.84131414609862,1.32198285851614,1153.411,1408.035,3119.222,3188.714,-0.1043906,0.03305402,0.05516144,-0.637342751026154,-0.184702411293983,0.309919536113739,-0.532985466132485,-0.229328756186667,0.329943393154705,7
1.13999938964844,-0.564736008644104,2.83722114562988,1.30243837833405,-0.300154365346813,2.83666834237095,1.3286669406667,1155.798,1413.926,3119.878,3189.662,-0.1066798,0.03147488,0.0571041,-0.642080843448639,-0.194766029715538,0.314536929130554,-0.546515580872639,-0.235150386571708,0.338319178707607,7
1.15998840332031,-0.577680647373199,2.83312273025513,1.30882287025452,-0.31121353909136,2.83190988886621,1.33551309603608,1153.072,1418.212,3122.495,3195.941,-0.1087992,0.0299136,0.05918976,-0.647228837013245,-0.204918190836906,0.319224745035172,-0.560003743914979,-0.240953966313175,0.346668994161124,7
1.17999267578125,-0.590736389160156,2.82882022857666,1.31530272960663,-0.322550701230474,2.8270318247214,1.34253133946411,1149.785,1420.447,3127.384,3202.81,-0.1107156,0.02838027,0.06140863,-0.652791440486908,-0.215119272470474,0.323991656303406,-0.573463232144024,-0.246745208083563,0.355001058539242,7
1.19999694824219,-0.603911697864532,2.82431411743164,1.32187712192535,-0.334156660511822,2.8220381046756,1.34971598112778,1154.457,1422.476,3127.254,3207.479,-0.1124174,0.02689528,0.06371837,-0.658761262893677,-0.225311502814293,0.328718304634094,-0.58687652428584,-0.252516572968185,0.36330452533874,7
1.21998596191406,-0.617214620113373,2.81960487365723,1.32854878902435,-0.34602126278068,2.81693309777792,1.35706073512159,1159.318,1423.902,3129.588,3211.242,-0.1139359,0.02546247,0.0661051,-0.665149867534637,-0.235460489988327,0.333581566810608,-0.600226348268632,-0.258260629277074,0.371568702324394,7
1.239990234375,-0.630653738975525,2.81469416618347,1.33532118797302,-0.358161486344149,2.81170949873715,1.36457611182642,1155.273,1423.67,3136.062,3221.448,-0.1152733,0.02408024,0.06857583,-0.67195200920105,-0.245535805821419,0.338620364665985,-0.613526094901141,-0.263983138701136,0.379801879044709,7
1.25999450683594,-0.64423668384552,2.80958437919617,1.34219443798065,-0.3705671011502,2.80637170925886,1.37225577835275,1160.227,1423.38,3137.74,3227.485,-0.1163903,0.02277681,0.07106089,-0.679147183895111,-0.255487263202667,0.343665450811386,-0.626758665639206,-0.269676744214496,0.387993470686331,7
1.27999877929688,-0.657971322536469,2.80427861213684,1.34917187690735,-0.383236695417198,2.80092033679326,1.3800988607405,1168.918,1423.243,3141.042,3229.005,-0.1173069,0.02156066,0.07353368,-0.686733067035675,-0.265285342931747,0.348870724439621,-0.639917282339435,-0.275338529371412,0.396139281255613,8
1.29998779296875,-0.671864986419678,2.79878067970276,1.35625660419464,-0.396158759015336,2.79536033382764,1.388098233671,1172.489,1422.219,3146.1,3234.966,-0.1180563,0.02042729,0.07600764,-0.694686472415924,-0.274899959564209,0.354238420724869,-0.652985332144132,-0.280961346123326,0.404229026602261,8
1.31999206542969,-0.685924828052521,2.79309463500977,1.36345195770264,-0.409351342777246,2.78968393359302,1.39626507146953,1175.299,1419.779,3153.371,3240.701,-0.1186145,0.01938321,0.07846632,-0.702989757061005,-0.284306257963181,0.35977041721344,-0.665976209205206,-0.286550957599616,0.412270998344359,8
1.33999633789063,-0.700156986713409,2.78722548484802,1.37075865268707,-0.422802873722428,2.78389611561957,1.40459220990988,1186.655,1418.047,3155.009,3242.956,-0.1189852,0.01844533,0.08086795,-0.711609423160553,-0.29346114397049,0.36533197760582,-0.678873453515705,-0.29210028151913,0.420255006953505,8
1.36000061035156,-0.714567840099335,2.78117847442627,1.3781806230545,-0.436511415158101,2.77799771321212,1.41307845008695,1197.853,1415.959,3159.446,3243.672,-0.1192196,0.01760717,0.08321251,-0.720538675785065,-0.302348583936691,0.37109786272049,-0.691670720740693,-0.297606588091785,0.42817712498415,8
1.37998962402344,-0.729162752628326,2.77495932579041,1.38572192192078,-0.450464156928423,2.77199423822282,1.42171586190405,1201.707,1412.626,3166.704,3249.794,-0.1193458,0.01685806,0.08552055,-0.729751586914063,-0.310955375432968,0.377064198255539,-0.704352136620515,-0.303063047067127,0.436027525513373,8
1.39999389648438,-0.743947207927704,2.76857399940491,1.393385887146,-0.464680216184654,2.76587746507559,1.43051627978847,1204.604,1408.048,3175.818,3255.523,-0.1193197,0.01620395,0.08777361,-0.739225506782532,-0.319269448518753,0.383198738098145,-0.716930938559026,-0.308475354130225,0.443814403124744,8
1.41999816894531,-0.758925676345825,2.76202893257141,1.40117263793945,-0.47914673136562,2.75965292774086,1.43947174182117,1217.397,1404.853,3177.64,3257.107,-0.1191365,0.01566148,0.08992378,-0.748920142650604,-0.327255189418793,0.389336258172989,-0.729391385793766,-0.313836736470737,0.451528013536465,8
1.43998718261719,-0.77410227060318,2.75533080101013,1.40908586978912,-0.49384995777978,2.75332654017544,1.44857373938334,1230.483,1401.671,3181.703,3256.79,-0.1188537,0.01522231,0.09196905,-0.758827686309814,-0.334905087947845,0.39566370844841,-0.741718206886022,-0.319140623215221,0.459158903000492,8
1.45999145507813,-0.789480745792389,2.74848628044128,1.41713035106659,-0.508809800712713,2.74688973769103,1.45783459479497,1232.424,1396.792,3191.094,3263.302,-0.1184936,0.01486834,0.09394194,-0.768922805786133,-0.342222273349762,0.402226775884628,-0.753924423002454,-0.324392617007921,0.466715132239272,8
1.47999572753906,-0.805063903331757,2.74150252342224,1.4253066778183,-0.524012471663969,2.74034845309416,1.46724577231745,1241.801,1392.737,3194.894,3266.258,-0.1180281,0.01461614,0.09579472,-0.77916008234024,-0.349188297986984,0.40881621837616,-0.765994882555672,-0.329586198544069,0.474187321698441,8
1.5,-0.820854485034943,2.7343864440918,1.43361794948578,-0.539455198877605,2.73370387899399,1.4768055561018,1254.052,1389.021,3199.986,3264.91,-0.1174806,0.01446327,0.09751697,-0.789526641368866,-0.355803370475769,0.41556105017662,-0.777924000354858,-0.334718964672088,0.481572013878822,8
1.51998901367188,-0.83685427904129,2.72714495658875,1.44206690788269,-0.555123050061237,2.72696244033876,1.48650470234772,1260.369,1384.658,3206.675,3267.997,-0.116884,0.01439367,0.09913698,-0.799989819526672,-0.362068951129913,0.422451049089432,-0.789697369743256,-0.339784716610053,0.488860290373601,8
1.53999328613281,-0.853064775466919,2.71978521347046,1.45065629482269,-0.571036956668503,2.72011513090874,1.49635616862212,1264.605,1379.273,3215.185,3271.438,-0.1162108,0.01440529,0.1006525,-0.810524225234985,-0.367990136146545,0.429470002651215,-0.801327600455846,-0.344788879974649,0.496059957209413,8
1.55999755859375,-0.869486451148987,2.71231412887573,1.45938527584076,-0.587181951496087,2.71316839067337,1.50635068951315,1277.009,1375.639,3216.298,3271.852,-0.1154672,0.01450786,0.1020272,-0.821086287498474,-0.373550325632095,0.436450809240341,-0.812800388649436,-0.349725300221754,0.503162159625937,8
1.57998657226563,-0.886119842529297,2.70473885536194,1.46825695037842,-0.603542258451077,2.7061290076447,1.51647849886779,1288.733,1372.016,3220.314,3270.274,-0.114705,0.01468902,0.1032653,-0.831671416759491,-0.378760874271393,0.443581700325012,-0.82410201904291,-0.354588076049064,0.510158407210813,8
1.59999084472656,-0.902964949607849,2.69706606864929,1.47727477550507,-0.620139554045575,2.69898765502515,1.52675301547962,1288.857,1366.709,3229.84,3275.357,-0.1139322,0.01492769,0.1044068,-0.842254519462585,-0.383642673492432,0.450888842344284,-0.835244706287931,-0.359382463079953,0.517056261415284,8
1.6199951171875,-0.920020759105682,2.68930220603943,1.48643743991852,-0.636958033083316,2.69175113334911,1.53716445517924,1297.112,1362.873,3232.367,3276.678,-0.1131156,0.01523971,0.1054086,-0.852787673473358,-0.388190925121307,0.458132296800613,-0.846214826007804,-0.364102599125749,0.523847288101157,8
1.63999938964844,-0.937286019325256,2.68145394325256,1.49574649333954,-0.653994195024907,2.68442094880091,1.54771065096602,1308.529,1359.576,3235.898,3273.398,-0.1122799,0.01561987,0.1062657,-0.863263785839081,-0.392417371273041,0.465451657772064,-0.857007552155828,-0.368746407673381,0.530528499715628,8
1.65998840332031,-0.954759061336517,2.67352724075317,1.5052033662796,-0.67123120513297,2.67700434489773,1.55838118133557,1312.876,1355.683,3241.226,3275.283,-0.1114602,0.01604779,0.1070155,-0.873655378818512,-0.39633697271347,0.47284334897995,-0.867610144209785,-0.373308406832068,0.537092009268528,8
1.67999267578125,-0.972437977790833,2.66552782058716,1.51480913162231,-0.688691692550512,2.66949158495151,1.56919005480539,1314.296,1350.842,3248.696,3277.749,-0.1106234,0.01651943,0.1076614,-0.883943021297455,-0.399968355894089,0.480291366577148,-0.878034183119987,-0.377793579561193,0.543544985919778,8
1.69999694824219,-0.990319728851318,2.65746164321899,1.5245612859726,-0.706358800111611,2.66188992212981,1.58012683598675,1323.979,1348.121,3248.202,3277.104,-0.109768,0.01704558,0.1081692,-0.894086480140686,-0.403306245803833,0.487610697746277,-0.888267004546665,-0.382196476749158,0.549879589839776,8
1.71998596191406,-1.00840139389038,2.649334192276,1.53446102142334,-0.724214951560321,2.65420691900456,1.59118064433996,1333.385,1345.568,3250.371,3274.085,-0.1089403,0.01761309,0.1085456,-0.904088199138641,-0.406369298696518,0.494988977909088,-0.898296635743475,-0.386511946857687,0.556088409328192,8
1.739990234375,-1.02667999267578,2.64115047454834,1.54451024532318,-0.74228345468553,2.64643254688532,1.60236590849663,1330.904,1341.376,3258.216,3277.77,-0.1081462,0.01819957,0.1088371,-0.913930892944336,-0.40918692946434,0.502458691596985,-0.908134108040217,-0.390744736359816,0.562178273303667,8
1.75999450683594,-1.04515159130096,2.63291525840759,1.55470561981201,-0.760546715064628,2.63857437616062,1.61367173667103,1336.23,1338.883,3258.657,3278.138,-0.107351,0.0188209,0.1090057,-0.923572480678558,-0.41176238656044,0.509771227836609,-0.917767514700581,-0.394889722119545,0.568141810929231,8
1.77999877929688,-1.06381189823151,2.62463307380676,1.56504714488983,-0.779000609654483,2.63063418086074,1.62509557650306,1344.733,1336.954,3260.259,3273.71,-0.1065749,0.01947182,0.109049,-0.933015286922455,-0.414113014936447,0.517073929309845,-0.927192788821983,-0.398945154262308,0.57397650459845,8
1.79998779296875,-1.08265662193298,2.61630797386169,1.57553446292877,-0.797626646773287,2.62261991743975,1.63662598076079,1345.792,1334.455,3263.804,3274.634,-0.1058495,0.02013216,0.1090094,-0.942240357398987,-0.416259199380875,0.52436363697052,-0.936399026186941,-0.402906341007953,0.579675604081262,7
1.81999206542969,-1.10168135166168,2.60794353485107,1.5861668586731,-0.816448984455027,2.61452119137054,1.64827790441807,1343.833,1331.065,3269.378,3276.278,-0.1051341,0.02079859,0.1088934,-0.951236724853516,-0.418223351240158,0.531619608402252,-0.945396434568188,-0.406777674475912,0.585245428475252,7
1.83999633789063,-1.12088096141815,2.59954357147217,1.59693992137909,-0.835449117627072,2.60634596486888,1.66003989195343,1350.586,1329.937,3266.523,3274.75,-0.1044225,0.02148321,0.1086672,-0.959972202777863,-0.420002549886703,0.53865110874176,-0.954174163352093,-0.410554485950274,0.590679260733698,7
1.86000061035156,-1.14025020599365,2.5911111831665,1.60785317420959,-0.854622615239374,2.59809614449182,1.6719092003358,1357.071,1328.997,3266.543,3270.725,-0.103761,0.0221744,0.1083394,-0.968459784984589,-0.42161625623703,0.545660972595215,-0.962728579444532,-0.414235212212131,0.595974851798267,7
1.87998962402344,-1.15978395938873,2.58264946937561,1.61890614032745,-0.873950157556149,2.58978004298193,1.6838738697284,1354.061,1327.196,3270.03,3272.672,-0.1031682,0.02285266,0.1079518,-0.976687133312225,-0.42309108376503,0.552647054195404,-0.971049893464309,-0.417815641164241,0.601126141575667,7
1.89999389648438,-1.17947673797607,2.5741605758667,1.63009715080261,-0.893456683142228,2.58138692997148,1.69594933829086,1349.018,1324.624,3275.272,3274.338,-0.1025807,0.02352149,0.1075043,-0.984644412994385,-0.42445033788681,0.559551954269409,-0.979147395688901,-0.421299770153459,0.606138881190213,7
1.91999816894531,-1.19932270050049,2.56564688682556,1.64142036437988,-0.913122862707269,2.57292512231409,1.70812364027167,1355.15,1324.579,3270.887,3271.437,-0.1019836,0.02419741,0.1069593,-0.992300570011139,-0.425686478614807,0.566163718700409,-0.987011339258123,-0.424683405378145,0.611007036871143,7
1.93998718261719,-1.21931612491608,2.55711054801941,1.65287446975708,-0.932928814964021,2.56440317437226,1.72038446820694,1361.623,1324.784,3269.073,3265.972,-0.1014339,0.02486706,0.1063315,-0.999673366546631,-0.42681348323822,0.572705388069153,-0.994632798067981,-0.427962706185118,0.615725082934877,7
1.95999145507813,-1.23945140838623,2.54855346679688,1.66445910930634,-0.952900013794853,2.55581012544606,1.73274759164336,1353.98,1323.127,3273.724,3269.076,-0.100945,0.02550545,0.10568,-1.00676119327545,-0.427859842777252,0.579233407974243,-1.00202031904361,-0.431141350077486,0.620298310335216,7
1.97999572753906,-1.2597222328186,2.53997683525085,1.67616891860962,-0.973016570682103,2.54715453300902,1.74520069864106,1353.686,1322.929,3271.221,3269.357,-0.1004725,0.02613161,0.1049651,-1.01353716850281,-0.428829073905945,0.585490822792053,-1.00916501115878,-0.434215511495054,0.624721215103391,7
2,-1.28012239933014,2.53138208389282,1.68800163269043,-0.993273599084619,2.53843849960327,1.7577407641983,1357.337,1323.291,3270.219,3263.872,-0.1000219,0.02674565,0.104181,-1.02001774311066,-0.429735094308853,0.591634035110474,-1.01606400046349,-0.437183953857422,0.628992018127441,6
2.01998901367188,-1.30064630508423,2.52277016639709,1.6999546289444,-1.01365055070775,2.52967086658596,1.77035506794184,1353.71,1323.178,3270.701,3264.122,-0.0996166,0.02733062,0.1033717,-1.02619457244873,-0.43059179186821,0.597647845745087,-1.02270954399163,-0.440043345582587,0.633105926142498,6
2.03999328613281,-1.32128775119781,2.51414179801941,1.71202504634857,-1.03417354141348,2.52084039703127,1.78305977683431,1347.764,1322.169,3273.009,3264.876,-0.09921233,0.02788782,0.1025415,-1.03206992149353,-0.431413561105728,0.603520274162292,-1.02910913225408,-0.442796909628122,0.637067576131623,6
2.05999755859375,-1.34204030036926,2.50549793243408,1.72420644760132,-1.05482201812353,2.5119559343546,1.79584216754118,1350.913,1323.235,3266.881,3262.56,-0.09880221,0.02843205,0.1016556,-1.03762447834015,-0.432189971208572,0.609067857265472,-1.03525504859546,-0.445441325732794,0.640872191117535,6
2.07998657226563,-1.36289799213409,2.49683928489685,1.73649680614471,-1.07557499515204,2.50302650811029,1.80868924892322,1353.706,1324.402,3264.219,3257.6,-0.0984315,0.02895367,0.1007235,-1.04288291931152,-0.432933032512665,0.614516973495483,-1.04114045847258,-0.4479736531836,0.644515540192423,6
2.09999084472656,-1.38385462760925,2.48816609382629,1.74889481067657,-1.09645901288412,2.49404069871208,1.82161745074311,1343.06,1323.891,3267.635,3260.756,-0.09809913,0.02943354,0.09979845,-1.04784655570984,-0.433664947748184,0.619901537895203,-1.04677201701582,-0.450396755497224,0.648001743199023,5
2.1199951171875,-1.40490472316742,2.47947859764099,1.76139390468597,-1.11745308225396,2.48500753716864,1.83461377976925,1341.778,1324.794,3263.285,3259.944,-0.09775399,0.02989553,0.09883533,-1.05249309539795,-0.434380084276199,0.624955236911774,-1.0521429102862,-0.45270770082608,0.651326581984514,5
2.13999938964844,-1.42604160308838,2.47077703475952,1.77399098873138,-1.138551967509,2.47592927627801,1.8476749948214,1344.754,1326.214,3260.386,3253.461,-0.09740938,0.03033938,0.09783113,-1.05684328079224,-0.435083895921707,0.629853665828705,-1.05725102347782,-0.454905579228273,0.654488747383304,4
2.15998840332031,-1.44725942611694,2.46206140518188,1.78668296337128,-1.15973418543027,2.46681515966915,1.86078779676364,1339.601,1327.003,3259.383,3253.495,-0.09709672,0.03074826,0.09683362,-1.06089413166046,-0.435783535242081,0.634597063064575,-1.06209075728,-0.456987981476842,0.657484773155346,4
2.17999267578125,-1.46855235099792,2.45333170890808,1.79946649074554,-1.18102676265167,2.45765355853653,1.8739689163698,1331.658,1326.678,3260.668,3254.332,-0.09676968,0.03112437,0.09584621,-1.06465280056,-0.436487823724747,0.63917738199234,-1.06666760390386,-0.458957270716794,0.660318059240953,3
2.19999694824219,-1.48991441726685,2.44458818435669,1.8123345375061,-1.20240821395574,2.44845371736898,1.88720505326679,1333.279,1328.158,3253.633,3251.849,-0.09641335,0.03148593,0.09483015,-1.06810462474823,-0.437180250883102,0.643403708934784,-1.07097597819164,-0.460811043810786,0.662985148161421,1
2.21998596191406,-1.51133990287781,2.43583083152771,1.82528460025787,-1.22385674836213,2.4392250122166,1.90048271779974,1335.222,1329.761,3249.904,3246.332,-0.09606874,0.0318257,0.09379201,-1.07127583026886,-0.437865555286407,0.647504866123199,-1.07501122224684,-0.462547296596067,0.665483156456917,0
2.239990234375,-1.53282332420349,2.42705965042114,1.83831489086151,-1.24539969505118,2.42995568409656,1.91381882803312,1323.722,1329.763,3251.993,3249.282,-0.09573904,0.03212617,0.09278463,-1.07417011260986,-0.438557595014572,0.651517629623413,-1.07877792518082,-0.464168003639063,0.667814925005999,0
2.25999450683594,-1.55435883998871,2.41827487945557,1.85141849517822,-1.26701526177039,2.4206551096063,1.92719989352455,1321.791,1330.821,3246.574,3248.3,-0.09537259,0.03241208,0.09175911,-1.07676982879639,-0.439243942499161,0.655181705951691,-1.08227143928024,-0.465671165158559,0.669977576652695,0
2.27999877929688,-1.57594072818756,2.4094762802124,1.8645920753479,-1.28869796983554,2.41132564607061,1.9406225227075,1324.329,1332.375,3242.787,3241.403,-0.09498324,0.03268517,0.09070951,-1.07909679412842,-0.43992418050766,0.65868216753006,-1.08549040888332,-0.467056197851165,0.67197027217779,0
2.29998779296875,-1.59756362438202,2.40066432952881,1.87783253192902,-1.31042570636616,2.40197680804417,1.95407302665558,1318.468,1333.28,3241.04,3241.261,-0.094604,0.03292969,0.08968296,-1.08114922046661,-0.440599769353867,0.662021636962891,-1.08843144721369,-0.468321644481621,0.673790915005368,0
2.31999206542969,-1.61922240257263,2.39183855056763,1.89113628864288,-1.33222611841886,2.3925966997709,1.96756852021384,1310.06,1332.96,3241.503,3241.947,-0.09418642,0.03314972,0.08867979,-1.08293461799622,-0.44127357006073,0.665187299251556,-1.09109790637238,-0.469468947365361,0.675441580245663,0
2.33999633789063,-1.64091122150421,2.38300037384033,1.90449619293213,-1.35407709248145,2.38319483607731,1.98109531406483,1311.839,1334.185,3233.985,3238.724,-0.09371451,0.03336453,0.08765844,-1.08444058895111,-0.441924065351486,0.667996346950531,-1.09348640563071,-0.470496651869278,0.67692017506657,0
2.36000061035156,-1.66262483596802,2.37414932250977,1.91790962219238,-1.37597305876702,2.37377361348711,1.99464996024512,1313.946,1335.55,3229.466,3232.85,-0.09323141,0.03356758,0.08662559,-1.08569097518921,-0.442550152540207,0.670672297477722,-1.09559602313537,-0.471404361345641,0.678226128796969,0
2.37998962402344,-1.68435883522034,2.36528587341309,1.93137407302856,-1.39789168475144,2.36434264106153,2.00821863385843,1306.052,1335.992,3228.442,3233.931,-0.09276163,0.03374495,0.08562222,-1.08668649196625,-0.443157136440277,0.673223495483398,-1.09742465646102,-0.47219117117957,0.679358139935436,0
2.39999389648438,-1.70610749721527,2.35641121864319,1.94488620758057,-1.41986083522252,2.35488992936084,2.02181858453579,1296.347,1335.261,3229.603,3234.884,-0.09223539,0.03390589,0.08464067,-1.08743166923523,-0.443747967481613,0.675604939460754,-1.09897439291323,-0.472857979480329,0.680317500623536,0
2.41999816894531,-1.72786569595337,2.34752535820007,1.95843827724457,-1.44185817738692,2.34542508756209,2.03543598721428,1299.313,1336.205,3221.478,3230.678,-0.09162712,0.03407331,0.08363265,-1.08790993690491,-0.444295853376389,0.677602112293243,-1.10024313330221,-0.473403883025206,0.681102911362803,0
2.43998718261719,-1.74962854385376,2.33862948417664,1.9720276594162,-1.46386128162322,2.33595776650478,2.04905695688976,1303.765,1337.399,3216.338,3222.844,-0.09099276,0.03423921,0.08260839,-1.08814418315887,-0.444796174764633,0.679470062255859,-1.10122974390336,-0.473828394004169,0.681713670323692,0
2.45999145507813,-1.77139139175415,2.32972407341003,1.98565292358398,-1.48589810917879,2.32647593524532,2.06269880290633,1292.882,1336.951,3217.122,3225.495,-0.09035839,0.03438211,0.08162914,-1.0881370306015,-0.445255547761917,0.681260824203491,-1.10193535162022,-0.474131997292339,0.68215047511319,0
2.47999572753906,-1.79314887523651,2.3208110332489,1.999307513237,-1.50794623031618,2.31698924467309,2.07634764018804,1290.824,1336.82,3211.728,3224.364,-0.0896697,0.03452641,0.08064289,-1.08787608146667,-0.445659518241882,0.682729840278625,-1.10235882472314,-0.474314205938057,0.682412625136718,0
2.5,-1.81489646434784,2.31189060211182,2.01298832893372,-1.52999999932945,2.30750012397766,2.08999997377396,1293.228,1337.179,3207.879,3217.352,-0.0889336,0.03467532,0.07963848,-1.08737945556641,-0.446004748344421,0.68404620885849,-1.10250000050292,-0.474374949932098,0.682500019669533,0
2.51998901367188,-1.83662915229797,2.30296516418457,2.02669239044189,-1.5520369476803,2.29801824074336,2.10364189456856,1288.204,1337.05,3205.669,3216.42,-0.08817833,0.03481635,0.07865621,-1.08664345741272,-0.446287781000137,0.685207724571228,-1.10235904000526,-0.474314298567936,0.682412758406603,0
2.53999328613281,-1.8583425283432,2.29403495788574,2.04041624069214,-1.57408507527774,2.28853154739156,2.11729073584934,1281.241,1335.743,3205.134,3216.333,-0.08736074,0.03495422,0.07769234,-1.0856728553772,-0.446505784988403,0.686197578907013,-1.10193578218388,-0.474132182551855,0.682150741652607,0
2.55999755859375,-1.88003182411194,2.28510212898254,2.05415344238281,-1.59612191359838,2.27904971150017,2.13093258853001,1284.639,1335.645,3197.341,3211.908,-0.08646964,0.03510655,0.07670351,-1.08445680141449,-0.446636140346527,0.686856210231781,-1.10123038958312,-0.473828671822132,0.681714070030222,0
2.57998657226563,-1.90169203281403,2.27616858482361,2.06790161132813,-1.61812503288753,2.26958238396605,2.14455356752391,1287.577,1335.709,3192.853,3205.299,-0.08555298,0.03526598,0.07569955,-1.08301317691803,-0.446676731109619,0.687408804893494,-1.1002439936861,-0.473404253224357,0.681103443981416,0
2.59999084472656,-1.92331886291504,2.26723575592041,2.0816593170166,-1.64012239440973,2.26011753383818,2.15817098218581,1277.289,1334.401,3193.599,3207.4,-0.08462088,0.0354163,0.07472763,-1.0813422203064,-0.44663342833519,0.687885642051697,-1.09897546783438,-0.47285844198887,0.680318166050934,0
2.6199951171875,-1.94490742683411,2.25830626487732,2.09542012214661,-1.66209156852628,2.2506648119635,2.17177094750084,1276.935,1333.415,3187.885,3205.002,-0.08362113,0.03558203,0.07373422,-1.07943034172058,-0.446491122245789,0.688043594360352,-1.09742594550583,-0.472191725819537,0.679358937915576,0
2.63999938964844,-1.96645331382751,2.24938106536865,2.10918140411377,-1.68402693989188,2.24122663446822,2.18534998730279,1281.034,1332.986,3183.648,3196.847,-0.08256918,0.03576401,0.07271201,-1.07729160785675,-0.446245759725571,0.68806117773056,-1.09559602313537,-0.471404361345641,0.67822612879697,0
2.65998840332031,-1.98795175552368,2.24046349525452,2.12294030189514,-1.70590622088595,2.23181259109281,2.19889430449282,1276.906,1332.051,3181.278,3195.383,-0.08150338,0.03594741,0.07170523,-1.07492113113403,-0.445895165205002,0.687943339347839,-1.09348812118877,-0.470497390025984,0.676921237078733,0
2.67999267578125,-2.0093982219696,2.23155474662781,2.13669371604919,-1.72775723139253,2.2224107117184,2.21242112090437,1270.427,1329.864,3180.777,3195.008,-0.08038113,0.0361359,0.07071007,-1.07232260704041,-0.445438861846924,0.68767124414444,-1.09109983431736,-0.469469776906228,0.675442773735451,0
2.69999694824219,-2.0307879447937,2.22265768051147,2.15043544769287,-1.74955768413056,2.21303058593937,2.22591663964878,1274.331,1328.712,3173.329,3190.078,-0.07918643,0.0363469,0.0696822,-1.06948554515839,-0.444857746362686,0.687083899974823,-1.08843358680109,-0.468322565086308,0.673792239511893,0
2.71998596191406,-2.05211639404297,2.21377468109131,2.16416335105896,-1.77128546553625,2.20368172860443,2.23936717137667,1278.145,1327.873,3168.835,3182.767,-0.0779667,0.03657265,0.0686306,-1.06642389297485,-0.444150656461716,0.686397075653076,-1.08549275912543,-0.467057209094684,0.671971727089609,0
2.739990234375,-2.07337880134583,2.20490837097168,2.17787623405457,-1.79296822271738,2.1943522439355,2.25278983096475,1268.907,1325.863,3169.217,3184.188,-0.07673685,0.03679682,0.06760227,-1.06313669681549,-0.443324029445648,0.685641169548035,-1.08227399942825,-0.465672266718727,0.669979161506271,0
2.75999450683594,-2.09457111358643,2.19606113433838,2.19156789779663,-1.81458384274179,2.18505164650952,2.26617092945464,1269.279,1323.972,3163.431,3181.355,-0.07544576,0.03704175,0.0665442,-1.05961179733276,-0.442366242408752,0.684579193592072,-1.07878069424208,-0.464169195088763,0.667816639186824,0
2.77999877929688,-2.11568832397461,2.1872353553772,2.20523571968079,-1.83612684690458,2.17578229366013,2.27950707526701,1273.905,1322.704,3159.41,3172.586,-0.07410938,0.03730793,0.0654494,-1.0558614730835,-0.4412761926651,0.683395504951477,-1.07501419914593,-0.462548577472581,0.665484999299265,0
2.79998779296875,-2.13672614097595,2.17843437194824,2.21887731552124,-1.85757544288233,2.1665535620153,2.29278477791556,1270.159,1321.077,3156.809,3170.902,-0.07276555,0.03757984,0.06436186,-1.05187845230103,-0.440053403377533,0.682078897953033,-1.07097916161324,-0.460812413548163,0.662987118851036,0
2.81999206542969,-2.15767955780029,2.16966009140015,2.23248958587646,-1.87895695992541,2.1573536925621,2.30602095550813,1264.707,1318.266,3156.071,3169.643,-0.07137378,0.03786157,0.06327499,-1.04766690731049,-0.438700079917908,0.680617451667786,-1.06667099276523,-0.458958728849171,0.660320157107579,0
2.83999633789063,-2.17854356765747,2.16091632843018,2.24606657028198,-1.90024960698239,2.14819206138118,2.31920211834584,1269.057,1316.381,3148.755,3164.149,-0.0699197,0.03816802,0.06214835,-1.04321682453156,-0.43720155954361,0.678854942321777,-1.06209435025759,-0.456989527434725,0.657486997379635,0
2.86000061035156,-2.1993145942688,2.15220499038696,2.25960659980774,-1.9214480311499,2.13907097167731,2.33232495272651,1273.405,1314.91,3144.102,3156.337,-0.0684507,0.03849134,0.060991,-1.038538813591,-0.435558557510376,0.676996409893036,-1.05725102347782,-0.454905579228273,0.654488747383304,0
2.87998962402344,-2.21998715400696,2.14352965354919,2.27310752868652,-1.94253086194772,2.12999961857111,2.34537622930486,1267.883,1312.828,3142.284,3155.721,-0.06699608,0.03881728,0.05984139,-1.03362989425659,-0.433777540922165,0.675041377544403,-1.05214690704168,-0.452709420518306,0.651329056166547,0
2.89999389648438,-2.24055695533752,2.13489246368408,2.28656649589539,-1.96352501326936,2.1209664217661,2.35837260906308,1261.238,1309.711,3142.165,3154.746,-0.06549618,0.03915314,0.05868643,-1.02849292755127,-0.431864351034164,0.672944664955139,-1.04677621342161,-0.450398561093403,0.648004340974112,0
2.91999816894531,-2.26101899147034,2.12629652023315,2.29997706413269,-1.98440911693069,2.11198057539494,2.37130086407726,1266.222,1307.583,3134.848,3148.277,-0.06392599,0.03951604,0.05748209,-1.02311682701111,-0.42980545759201,0.670532405376434,-1.04114485287423,-0.447975543971863,0.644518260536375,0
2.93998718261719,-2.28136920928955,2.1177442073822,2.3133373260498,-2.00516218376194,2.10305111051103,2.38414800105147,1272.194,1306.036,3129.726,3138.965,-0.06233981,0.03989698,0.05624176,-1.01750957965851,-0.427600234746933,0.668016195297241,-1.03525963910674,-0.445443300901551,0.640875032862689,0
2.95999145507813,-2.30160307884216,2.10923910140991,2.32664608955383,-2.02581075424974,2.0941666074844,2.39693044981124,1264.393,1303.566,3129.217,3139.26,-0.06076907,0.04027581,0.05502016,-1.01167035102844,-0.425257116556168,0.665439903736115,-1.02911391720548,-0.442798968459032,0.637070538244476,0
2.97999572753906,-2.3217146396637,2.10078358650208,2.33989763259888,-2.04633384260397,2.08533609591429,2.40963521915279,1264.321,1300.737,3123.636,3136.519,-0.05916745,0.04067075,0.05376927,-1.00559341907501,-0.42277318239212,0.662583112716675,-1.02271452148052,-0.440045487257004,0.633109007445237,0
3,-2.34170007705688,2.09238052368164,2.3530900478363,-2.06672639957428,2.07656174835205,2.42225918334961,1268.719,1298.678,3119.832,3127.333,-0.05754132,0.04108303,0.05247813,-0.999289155006409,-0.420152395963669,0.659617483615875,-1.01606400046349,-0.437183953857422,0.628992018127441,0
3.01998901367188,-2.3615550994873,2.08403253555298,2.36622047424316,-2.0869680292999,2.06785234056679,2.43478971639231,1264.941,1296.562,3116.898,3125.252,-0.05592478,0.04149828,0.05118899,-0.99275130033493,-0.417397826910019,0.656518280506134,-1.00917036754089,-0.434217816196637,0.624724530959079,0
3.03999328613281,-2.38127470016479,2.07574224472046,2.37928605079651,-2.10708469520508,2.05919670122237,2.4472428908773,1260.403,1293.428,3115.577,3122.826,-0.05427629,0.04192053,0.04989325,-0.985985040664673,-0.414514929056168,0.653276264667511,-1.00202586176059,-0.431143734953757,0.620301741541063,0
3.05999755859375,-2.40085434913635,2.06751227378845,2.39228105545044,-2.12705600675913,2.05060360379452,2.45960608409476,1264.801,1291.017,3108.185,3116.774,-0.05258571,0.0423617,0.0485561,-0.978983819484711,-0.411495536565781,0.649745464324951,-0.994638524886308,-0.427965170275055,0.615728628108227,0
3.07998657226563,-2.42028951644897,2.05934524536133,2.40520358085632,-2.14686207530873,2.04208160581513,2.47186698402085,1269.222,1289.166,3103.522,3108.155,-0.05089834,0.04281325,0.04718817,-0.971755743026733,-0.408343106508255,0.646129071712494,-0.987017247723776,-0.424685947625853,0.611010694492843,0
3.09999084472656,-2.43957567214966,2.05124402046204,2.41805243492126,-2.16652837486666,2.03361974652815,2.48404136028297,1260.918,1286.701,3102.716,3108.465,-0.04923492,0.0432592,0.04583665,-0.964300394058228,-0.405067533254623,0.64244419336319,-0.979153483542501,-0.421302389586788,0.606142649861596,0
3.1199951171875,-2.45870804786682,2.04321050643921,2.43082213401794,-2.18603502400946,2.02522658035469,2.49611690533293,1261.3,1283.82,3097.056,3104.729,-0.04754435,0.04371774,0.0444526,-0.956615686416626,-0.401668965816498,0.638482391834259,-0.971056158224178,-0.417818336715394,0.601130019760458,0
3.13999938964844,-2.47768187522888,2.03524780273438,2.44351029396057,-2.20537738341953,2.01690410346351,2.50809074721212,1265.842,1281.832,3092.939,3095.035,-0.0458378,0.04418822,0.04303097,-0.948709428310394,-0.398151159286499,0.634411334991455,-0.962728579444533,-0.414235212212131,0.595974851798267,0
3.15998840332031,-2.49649333953857,2.02735710144043,2.45611429214478,-2.22453632143911,2.00866054767245,2.51995104251302,1262.398,1279.837,3089.361,3092.604,-0.04415468,0.04465641,0.04161448,-0.940576910972595,-0.39451789855957,0.630203604698181,-0.954180774018563,-0.410557330335374,0.590683353051152,0
3.17999267578125,-2.51513814926147,2.01954174041748,2.46863174438477,-2.24353658854737,2.00048526354177,2.53171311296128,1258.025,1276.868,3087.828,3089.607,-0.04245665,0.04512526,0.04019655,-0.932226181030273,-0.390776813030243,0.625868678092957,-0.945403214201559,-0.406780591562751,0.585249625391267,0
3.19999694824219,-2.53361129760742,2.011803150177,2.48105692863464,-2.2623590635174,1.99238647840124,2.54336512160655,1261.02,1274.401,3080.67,3084.269,-0.04073305,0.04560453,0.03874736,-0.923653841018677,-0.386923730373383,0.621255934238434,-0.936405971974636,-0.402909329586355,0.579679903854719,0
3.21998596191406,-2.55190873146057,2.00414395332336,2.49338817596436,-2.280985241111,1.98437215453788,2.55489561282487,1265.206,1272.557,3076.083,3075.258,-0.03901691,0.04608854,0.03727207,-0.91486781835556,-0.382962614297867,0.616559386253357,-0.927199897745278,-0.398948213033402,0.573980905360615,0
3.239990234375,-2.5700261592865,1.99656581878662,2.50562381744385,-2.2994392795179,1.97643189735754,2.5663195416865,1257.117,1270.417,3074.497,3075.355,-0.03733326,0.04656196,0.03581779,-0.905868530273438,-0.37890213727951,0.611784875392914,-0.917774783907129,-0.394892849856044,0.568146310914365,0
3.25999450683594,-2.58795928955078,1.98907113075256,2.51775884628296,-2.31770268688992,1.96857366338589,2.57762546085652,1257.527,1267.639,3068.861,3071.131,-0.03563256,0.04704131,0.03433765,-0.896658957004547,-0.374745041131973,0.60675185918808,-0.90814153446928,-0.390747931744771,0.562182870617026,0
3.27999877929688,-2.60570406913757,1.98166108131409,2.52979111671448,-2.33577134012187,1.96079922667992,2.58881081793642,1261.273,1265.827,3064.479,3061.973,-0.03392761,0.04752542,0.03282936,-0.887245416641235,-0.370494961738586,0.601611912250519,-0.898304216251578,-0.386515208538549,0.556093102023818,0
3.29998779296875,-2.62325668334961,1.9743378162384,2.54171800613403,-2.35362764460945,1.95311615770631,2.59986472102797,1257.666,1264.066,3060.895,3059.175,-0.03225195,0.048002,0.03133222,-0.877626597881317,-0.366156578063965,0.596349120140076,-0.888274735793772,-0.382199803288803,0.549884375850026,0
3.31999206542969,-2.64061307907104,1.96710324287415,2.55353713035583,-2.37129490830989,1.94551442770222,2.61080159886703,1253.034,1261.433,3058.71,3056.5,-0.03057256,0.04847354,0.02984033,-0.867810845375061,-0.361737072467804,0.590953886508942,-0.878042061913513,-0.37779696958594,0.54354986326829,0
3.33999633789063,-2.65776896476746,1.95995855331421,2.56524324417114,-2.38875555478454,1.93800159931817,2.62161057080077,1256.042,1259.131,3051.826,3050.555,-0.02887346,0.04894978,0.0283235,-0.857799530029297,-0.357234686613083,0.585306406021118,-0.867618167158097,-0.373311858882592,0.53709697585572,0
3.3599853515625,-2.67472076416016,1.95290541648865,2.57683491706848,-2.40599272667425,1.93058492580486,2.63228120132087,1259.343,1257.565,3047.191,3042.022,-0.02719141,0.04942426,0.02679218,-0.847598195075989,-0.352652698755264,0.579580307006836,-0.857015715678588,-0.368749920209162,0.530533553325099,0
3.37998962402344,-2.69146513938904,1.9459456205368,2.5883104801178,-2.42302905329872,1.92325467039821,2.6428274990542,1251.561,1255.77,3045.167,3041.8,-0.02554717,0.04988399,0.02528879,-0.837209641933441,-0.347998678684235,0.573778092861176,-0.846223126656603,-0.364106170663035,0.523852426598178,0
3.39999389648438,-2.70799779891968,1.93907999992371,2.59966516494751,-2.43984769972619,1.91601807669906,2.65323904237604,1251.524,1253.195,3039.531,3037.812,-0.02389388,0.0503436,0.02376979,-0.826640844345093,-0.343276560306549,0.567734897136688,-0.835253140422974,-0.35938609205264,0.51706148254665,0
3.41999816894531,-2.72431564331055,1.93231022357941,2.61089730262756,-2.45644516534361,1.90887665092339,2.66351366424015,1254.878,1251.623,3035.293,3028.665,-0.02224166,0.05080308,0.02223275,-0.815897822380066,-0.338489532470703,0.561601519584656,-0.824110582941664,-0.354591760855451,0.510163708672097,0
3.43998718261719,-2.74041557312012,1.9256374835968,2.62200427055359,-2.47280564474684,1.90183719369507,2.67364158034846,1250.834,1250.18,3031.339,3026.391,-0.02062459,0.05125016,0.02071608,-0.80498081445694,-0.333641469478607,0.555347621440887,-0.812809078412023,-0.349729039183832,0.50316753900293,0
3.45999145507813,-2.75629353523254,1.91906261444092,2.63298368453979,-2.48895081463434,1.8948903781363,2.68363620960993,1246.722,1247.894,3028.836,3023.329,-0.01900858,0.05168901,0.01920978,-0.79390013217926,-0.32873871922493,0.548976242542267,-0.80133641229185,-0.344792671461508,0.496065412155666,0
3.47999572753906,-2.7719464302063,1.91258716583252,2.64383149147034,-2.50486489870395,1.88804299234919,2.69348778574196,1249.089,1245.883,3022.399,3017.508,-0.01738139,0.05212716,0.01769033,-0.782659471035004,-0.323780983686447,0.542384684085846,-0.789706299681989,-0.339788558913217,0.488865818431069,0
3.5,-2.78737163543701,1.90621161460876,2.65454578399658,-2.5205447997813,1.88129636896134,2.70319439144611,1251.586,1244.534,3017.734,3009.756,-0.01577497,0.05255932,0.01616785,-0.771263360977173,-0.318770408630371,0.535718202590942,-0.777924000354857,-0.334718964672089,0.481572013878822,0
3.51998901367188,-2.80256605148315,1.89993739128113,2.66512513160706,-2.53597583877076,1.87465682397749,2.71274693966292,1246.723,1243.125,3014.265,3008.045,-0.01421489,0.05297609,0.01467277,-0.759716153144836,-0.3137127161026,0.528961896896362,-0.766004036374581,-0.329590137176618,0.474192988348404,0
3.53999328613281,-2.8175265789032,1.89376521110535,2.67556715011597,-2.55117869390181,1.86811546013321,2.72215823120146,1241.526,1241.019,3011.989,3005.832,-0.0126596,0.05338295,0.01319294,-0.748029232025146,-0.308615207672119,0.52209746837616,-0.753933682518821,-0.324396601119134,0.466720864320997,0
3.55999755859375,-2.83225107192993,1.88769543170929,2.68586754798889,-2.56613872308604,1.86167857751006,2.73141920191151,1243.805,1239.111,3005.855,2999.886,-0.01108781,0.05378879,0.01170065,-0.736207664012909,-0.303477883338928,0.51502251625061,-0.741727567798258,-0.319144650954242,0.459164697851087,0
3.57998657226563,-2.84673595428467,1.88172960281372,2.69602513313293,-2.58084213759183,1.85535210901407,2.74052131591136,1246.734,1237.982,3001.246,2991.703,-0.009531453,0.05418869,0.01020819,-0.724253952503204,-0.298301100730896,0.507879614830017,-0.72940084364523,-0.31384080592,0.451533868397061,0
3.59999084472656,-2.86097955703735,1.87586784362793,2.70603847503662,-2.59530884290342,1.84912748987145,2.74947689564398,1240.656,1236.744,2998.228,2990.88,-0.008017712,0.05457165,0.00875243,-0.712172448635101,-0.293089181184769,0.500666797161102,-0.716940488958392,-0.308479463400265,0.4438203152769,0
3.6199951171875,-2.87497901916504,1.87011075019836,2.71590399742126,-2.60952509409627,1.84301063413925,2.75827743234631,1240.528,1234.595,2993.21,2986.816,-0.006510363,0.0549486,0.00729979,-0.699974596500397,-0.287846952676773,0.49327939748764,-0.704361775018033,-0.303067194200314,0.436033492140578,0
3.63999938964844,-2.88873243331909,1.86445927619934,2.72562050819397,-2.6234885835008,1.83700253474321,2.76692149746096,1241.943,1233.35,2989.383,2979.619,-0.005017928,0.05531793,0.005851982,-0.68766576051712,-0.282576829195023,0.485830783843994,-0.691670720740692,-0.297606588091786,0.428177124984152,0
3.65998840332031,-2.90223741531372,1.85891366004944,2.73518633842468,-2.63718676607487,1.8311085894645,2.77540132500924,1238.035,1232.18,2985.551,2977.616,-0.003560646,0.05567329,0.004434489,-0.67525053024292,-0.27728208899498,0.478286176919937,-0.678883253871145,-0.292104498338286,0.420261073840379,0
3.67999267578125,-2.91549205780029,1.85347425937653,2.74459934234619,-2.65063849381582,1.82532068681534,2.78372858527554,1234.93,1230.415,2982.789,2974.269,-0.002109756,0.05601851,0.003036519,-0.662739515304565,-0.271967142820358,0.470654606819153,-0.665986083416798,-0.286555206197011,0.41227711095171,0
3.69999694824219,-2.92849493026733,1.84814190864563,2.75385642051697,-2.66383127580226,1.81964420129024,2.79189554578451,1236.615,1228.783,2977.075,2969.118,-0.0006588661,0.05635867,0.001642437,-0.650138795375824,-0.266632258892059,0.46285954117775,-0.65299527533123,-0.280965624398954,0.404235181908735,0
3.71998596191406,-2.94124412536621,1.84291613101959,2.76295685768127,-2.67675353880252,1.81408411252746,2.79989504215442,1238.403,1227.707,2972.79,2962.473,0.0007672107,0.05668992,0.0002605609,-0.637451946735382,-0.261278122663498,0.455017954111099,-0.639927289491732,-0.275342835169479,0.396145476159594,0
3.739990234375,-2.95373773574829,1.83779811859131,2.77189970016479,-2.68942333385363,1.80863265367006,2.80773824883709,1232.693,1226.675,2970.202,2961.47,0.002150348,0.05700485,-0.001080711,-0.624685287475586,-0.255908846855164,0.447138160467148,-0.62676873176137,-0.26968107538565,0.387999702095468,0
3.75999450683594,-2.96597480773926,1.83278751373291,2.780681848526,-2.70182915057228,1.80329477731443,2.81541804035694,1232.168,1224.748,2965.464,2958.165,0.003524059,0.05731251,-0.002410161,-0.611851036548615,-0.250528961420059,0.439107209444046,-0.613536214864365,-0.263987493038594,0.379808143784027,0
3.77999877929688,-2.97795391082764,1.82788443565369,2.78930258750916,-2.7139695770734,1.79807109095524,2.82293354268985,1234.165,1223.654,2961.854,2950.949,0.004883347,0.0576131,-0.003730556,-0.598953664302826,-0.245139732956886,0.431039035320282,-0.60023651686137,-0.258265004538452,0.371574997167698,0
3.79998779296875,-2.98967385292053,1.82308971881866,2.79776072502136,-2.72583438304408,1.79296599641037,2.83027842278479,1230.789,1222.765,2958.199,2948.979,0.00620253,0.05789957,-0.0050142,-0.585997760295868,-0.239743441343307,0.422905415296555,-0.586886736182787,-0.252520966862155,0.36331084698941,0
3.81999206542969,-3.00113344192505,1.81840300559998,2.80605483055115,-2.73744054699573,1.78797218830065,2.83746319114912,1228.138,1221.185,2955.37,2946.14,0.007505392,0.05817543,-0.006270146,-0.572994351387024,-0.234344124794006,0.414707213640213,-0.573473482003301,-0.246749618311662,0.355007403690404,0
3.83999633789063,-3.01233243942261,1.81382417678833,2.8141827583313,-2.74877791451009,1.78309403578861,2.84448156171422,1229.631,1219.713,2950.493,2941.316,0.008798329,0.0584446,-0.007513843,-0.559950888156891,-0.22894312441349,0.406397104263306,-0.560014026276881,-0.240958390526246,0.346675359432959,0
3.8599853515625,-3.02327013015747,1.80935311317444,2.82214403152466,-2.75983729406747,1.77833549372837,2.85132784449154,1230.566,1218.793,2946.867,2935.752,0.01005971,0.05870369,-0.008734103,-0.54687088727951,-0.223541125655174,0.398068070411682,-0.546525890176286,-0.235154822377061,0.338325560657667,0
3.87998962402344,-3.03394532203674,1.80499041080475,2.82993817329407,-2.7706348636882,1.77368960116974,2.85801205444635,1225.779,1217.838,2944.259,2934.874,0.01127785,0.05894767,-0.009910155,-0.533761978149414,-0.218141555786133,0.389712661504745,-0.532995796775444,-0.22933320117373,0.329949788314816,0
3.89999389648438,-3.044358253479,1.80073547363281,2.83756327629089,-2.78116151864576,1.76916027562219,2.86452855531919,1225.9,1216.114,2940.061,2931.438,0.01248048,0.05918402,-0.01106916,-0.52063649892807,-0.212748870253563,0.381252825260162,-0.519441457145543,-0.223501147495394,0.321559006401168,0
3.91999816894531,-3.05450773239136,1.79658842086792,2.84501886367798,-2.79141684911929,1.7647476934202,2.87087709341145,1227.379,1215.202,2936.816,2925.417,0.01365834,0.05941196,-0.01220793,-0.507498204708099,-0.207363873720169,0.372784942388535,-0.505870408491346,-0.2176619043907,0.313157880805522,0
