t,x_s1,x_s2,x_s3,x_s_d1,x_s_d2,x_s_d3,propellers_rpms1,propellers_rpms2,propellers_rpms3,propellers_rpms4,rollRad,pitchRad,yawRad,v_s1,v_s2,v_s3,v_s_d1,v_s_d2,v_s_d3,insideCount
0,-0.0599999986588955,2.94000005722046,1.17999994754791,-0.0599999986588955,2.94000005722046,1.17999994754791,0,0,0,0,0,0,0,0,0,0,-1.06581410364015E-15,4.44089209850063E-16,4.44089209850063E-16,0
0.0200004577636719,-0.0599999986588955,2.94000005722046,1.1771354675293,-0.0600018691155303,2.93999925241522,1.18000110544967,0,0,0,0,0.0163538,-0.002474609,-2.024222E-05,3.71994488546079E-08,3.50004931704007E-08,-0.143225952982903,-0.000279999361409376,-0.000120475902936966,0.000173332942931458,5
0.0399990081787109,-0.0599999986588955,2.94000005722046,1.17048275470734,-0.0600148703014743,2.93999365836812,1.1800091538031,0,0,0,0,0.03270752,-0.004950816,-5.430172E-05,3.62924410524101E-08,3.44428769949445E-08,-0.332637369632721,-0.0011109142447864,-0.000477995364179603,0.000687708837706811,6
0.0599994659423828,-0.0600004345178604,2.94013261795044,1.16416549682617,-0.0600498904664975,2.93997859016946,1.18003083295349,3185.355,2835.759,1501.153,2767.678,0.0312804,-0.00494336,-0.01646952,-2.1778289010399E-05,0.00662220688536763,-0.315862238407135,-0.00247951833951941,-0.00106686747177115,0.00153493996800067,6
0.0799999237060547,-0.0599162206053734,2.94038772583008,1.15857708454132,-0.0601175490846357,2.93994947855624,1.18007271686115,3065.861,3067.275,2154.932,2024.019,0.01897517,-0.004311125,-0.04351499,0.00421074824407697,0.0127501338720322,-0.279418379068375,-0.00437248097278563,-0.00188135640961186,0.00270677401230774,6
0.100000381469727,-0.0596375577151775,2.94068765640259,1.15374839305878,-0.0602282016920704,2.93990186783054,1.18014121609627,2640.285,3831.796,2620.275,1134.77,-0.005854161,-0.002888465,-0.07014447,0.0139331575483084,0.0149979079142213,-0.241433531045914,-0.0067766330492767,-0.00291579588389246,0.00419505867330113,6
0.119998931884766,-0.0590849034488201,2.94089889526367,1.14957010746002,-0.0603919230601972,2.93983142309968,1.18024256742227,2092.138,4101.955,3169.411,755.9753,-0.04012052,-0.0004511395,-0.08993495,0.0276327878236771,0.010561490431428,-0.20891210436821,-0.00967861374975049,-0.00416443710735115,0.00599152296740588,5
0.139999389648438,-0.0582314878702164,2.94085621833801,1.14596664905548,-0.0606185767455666,2.93973390035084,1.18038287685052,1510.227,4074.795,3735.867,702.0078,-0.07649344,0.002388573,-0.0994973,0.0426708683371544,-0.00213056337088346,-0.180174693465233,-0.0130660253322238,-0.00562194567796536,0.00808849210174802,4
0.159999847412109,-0.057099461555481,2.94039487838745,1.14297795295715,-0.0609177249752248,2.93960518522485,1.18056806385509,1135.208,3846.972,4069.818,879.9525,-0.1062788,0.004335392,-0.09869994,0.0566014237701893,-0.0230690129101276,-0.149432376027107,-0.0169257706321904,-0.00728268625174051,0.0104778583075938,4
0.180000305175781,-0.055737741291523,2.93938803672791,1.14071106910706,-0.0612986871007165,2.9394412678651,1.18080389755851,1100.98,3565.304,4009.939,1148.933,-0.1236287,0.004492032,-0.08999993,0.0680859610438347,-0.0503406636416912,-0.113341301679611,-0.0212451141043368,-0.00914117907931815,0.0131517376757159,3
0.19999885559082,-0.0541964918375015,2.9377772808075,1.13924849033356,-0.0617704792283666,2.93923826889292,1.1810959593601,1373.332,3339.686,3594.813,1386.299,-0.1278754,0.003022926,-0.07724925,0.0770625025033951,-0.080536462366581,-0.073131650686264,-0.0260109531407025,-0.0111917864745373,0.0161020190676231,3
0.219999313354492,-0.0525142513215542,2.93557620048523,1.13858389854431,-0.0623420049171324,2.93899235735562,1.18144976098699,1790.757,3212.893,3016.967,1527.127,-0.1229752,0.0008612889,-0.06426048,0.0841120332479477,-0.110051490366459,-0.033231470733881,-0.0312116790433783,-0.0134295135389972,0.0193215161463106,3
0.239999771118164,-0.0507195927202702,2.93284702301025,1.13860690593719,-0.063021788625926,2.93869986541668,1.18187057948532,2159.311,3168.514,2517.283,1558.465,-0.1149655,-0.0009875001,-0.05362222,0.0897329077124596,-0.136453464627266,0.00115212425589561,-0.0368344480011416,-0.0158488339395432,0.022802277980796,3
0.260000228881836,-0.048837274312973,2.92966485023499,1.13913774490356,-0.0638181482056218,2.93835721413725,1.18236356400102,2351.896,3159.143,2273.903,1495.776,-0.1090517,-0.00190416,-0.04623674,0.0941158831119537,-0.159107655286789,0.0265402756631374,-0.0428669580186739,-0.0184444544712678,0.0265366890499518,3
0.279998779296875,-0.0468917526304722,2.92608761787415,1.13999605178833,-0.0647390625194898,2.93796097043536,1.18293365383054,2352.624,3152.199,2324.24,1363.69,-0.1078159,-0.001744371,-0.04152188,0.0972760617733002,-0.178862005472183,0.0429130829870701,-0.0492963837173861,-0.0212108567320638,0.030516809833474,3
0.299999237060547,-0.0449087433516979,2.92214369773865,1.14106202125549,-0.065792536715479,2.93750768991949,1.18358580454179,2229.183,3144.043,2572.789,1194.477,-0.1110879,-0.0007366303,-0.03798573,0.0991505309939384,-0.197191491723061,0.0532971248030663,-0.0561118672418845,-0.0241433688900884,0.0347359188016424,3
0.319999694824219,-0.0429169237613678,2.91783547401428,1.142294049263,-0.0669860785243584,2.93699414222283,1.18432466377777,2074.089,3132.599,2873.201,1032.529,-0.1169309,0.0006861796,-0.0339798,0.0995910987257957,-0.215406984090805,0.0615997016429901,-0.0633008373176985,-0.0272365818771378,0.0391862337367069,3
0.340000152587891,-0.0409489311277866,2.91315102577209,1.14370739459991,-0.0683270389802989,2.93641716440073,1.1851547821788,1955.277,3107.367,3109.25,921.5906,-0.1228426,0.002069777,-0.02837492,0.0983994454145432,-0.234224766492844,0.0706694573163986,-0.0708514254995047,-0.0304853890327553,0.0438604075056398,3
0.35999870300293,-0.039040170609951,2.90807723999023,1.14534342288971,-0.069822382620517,2.93577375980741,1.18608047112519,1904.653,3065.695,3222.282,880.793,-0.1267079,0.003092787,-0.02087066,0.0954381301999092,-0.253693133592606,0.0818024054169655,-0.0787511019946779,-0.0338843991372162,0.0487506835699294,3
0.379999160766602,-0.0372257009148598,2.90261030197144,1.14724349975586,-0.0714792747653362,2.93506084540571,1.18710616629155,1923.776,3021.215,3207.201,896.0434,-0.1274195,0.003642344,-0.01188462,0.0907236486673355,-0.273342698812485,0.0950032994151115,-0.0869897229117765,-0.0374292475574207,0.0538507823775527,3
0.399999618530273,-0.0355372726917267,2.89676117897034,1.14943158626556,-0.0733042289655903,2.93427561859665,1.18823589987613,1991.281,2989.136,3098.753,939.2393,-0.1250391,0.003790908,-0.002208826,0.0844212621450424,-0.292451411485672,0.109403938055038,-0.0955550080350531,-0.0411146504596022,0.0591531018899743,3
0.420000076293945,-0.0340019837021828,2.89055466651917,1.15190589427948,-0.075303664122713,2.9334153175063,1.1894736454847,2072.33,2974.568,2953.393,986.5974,-0.1205032,0.003707782,0.007337924,0.0767645239830017,-0.310325056314468,0.123716965317726,-0.104435522469179,-0.0449356877277546,0.0646505633622661,3
0.439998626708984,-0.0326425582170486,2.88402462005615,1.15464174747467,-0.0774835548069347,2.93247737144397,1.19082310166083,2136.47,2972.834,2825.233,1023.116,-0.1150773,0.003564268,0.01615,0.067971482872963,-0.326507985591888,0.136793404817581,-0.113619049702587,-0.0488871029382406,0.0703356041918149,4
0.459999084472656,-0.0314784049987793,2.8772075176239,1.15760159492493,-0.0798502821969742,2.93145903476675,1.19228821865812,2168.176,2977.661,2749.016,1039.174,-0.1098682,0.003475029,0.02394478,0.0582076534628868,-0.340850472450256,0.14799077808857,-0.123096124252221,-0.0529648233581361,0.0762023647937057,4
0.479999542236328,-0.0305267721414566,2.87013840675354,1.16074788570404,-0.0824093896672336,2.93035792231548,1.19387242808941,2168.325,2984.047,2732.463,1032.883,-0.10554,0.003481973,0.03074679,0.04758146032691,-0.353459656238556,0.157313898205757,-0.13285477482153,-0.0571636980729742,0.0822434343651008,4
0.5,-0.0298036374151707,2.86284685134888,1.16405212879181,-0.085166398670376,2.92917165836334,1.1955791479969,2146.792,2989.688,2762.988,1008.86,-0.1022691,0.003568888,0.03679708,0.036156915128231,-0.364582091569901,0.16521492600441,-0.142884000065179,-0.0614789935111996,0.0884520025491718,4
0.519998550415039,-0.0293243713676929,2.8553569316864,1.16749918460846,-0.0881263195578599,2.92789808709608,1.19741148002684,2116.692,2992.395,2816.905,978.1911,-0.09983818,0.003686277,0.04241045,0.0239632949233055,-0.374495267868042,0.172354966402054,-0.153171913786256,-0.0659055953743427,0.0948207112238116,4
0.539999008178711,-0.0291040819138288,2.84768843650818,1.17108559608459,-0.0912948022612966,2.92653477750595,1.19937292175603,2088.987,2991.985,2871.229,950.8258,-0.09782696,0.003777222,0.04785964,0.0110144773498178,-0.383423715829849,0.179321348667145,-0.163709694677519,-0.0704397081003365,0.101344099579621,4
0.559999465942383,-0.0291575901210308,2.83985829353333,1.1748161315918,-0.0946764453845371,2.92507975094219,1.20146631993932,2070.851,2988.902,2908.505,934.7578,-0.09578485,0.00379557,0.0532942,-0.00267541594803333,-0.39150482416153,0.186529144644737,-0.174485697560587,-0.0750763210942518,0.108014958696444,5
0.579999923706055,-0.0294989868998528,2.83188271522522,1.1786984205246,-0.0982759076154404,2.92353100290156,1.20369455852641,2063.966,2985.914,2922.14,930.778,-0.0933912,0.003716809,0.05873932,-0.0170701015740633,-0.398781359195709,0.194113627076149,-0.18548935464012,-0.0798108873289844,0.114826746605553,5
0.599998474121094,-0.0301412157714367,2.82377815246582,1.18273937702179,-0.102097262171133,2.92188678079254,1.20606015903275,2066.57,2984.327,2912.388,938.6661,-0.09050167,0.003538087,0.0641123,-0.0321115702390671,-0.405233114957809,0.202046692371368,-0.196709126405959,-0.0846384416756885,0.121772319800455,5
0.619998931884766,-0.0310955159366131,2.8155620098114,1.18694186210632,-0.106145477944935,2.92014494663912,1.20856619743999,2074.491,2986.58,2887.222,952.0886,-0.08717698,0.003272306,0.06929134,-0.0477145463228226,-0.410806506872177,0.210125103592873,-0.208136802817102,-0.0895554515830839,0.128846595874672,5
0.639999389648438,-0.0323712378740311,2.80725288391113,1.19130480289459,-0.110424235525481,2.91830391678686,1.21121495220784,2082.946,2991.596,2855.193,968.8572,-0.08359556,0.002940951,0.07414773,-0.0637862905859947,-0.415457934141159,0.218147963285446,-0.219761081350814,-0.0945570538913933,0.136042578028218,5
0.659999847412109,-0.0339757725596428,2.79886937141418,1.19582235813141,-0.114937365519793,2.91636204303257,1.21400879466451,2087.998,2999.393,2826.78,982.7565,-0.08000456,0.002566528,0.07860094,-0.0802268981933594,-0.419169992208481,0.225880742073059,-0.231571827761751,-0.0996388881179631,0.143353992680462,5
0.680000305175781,-0.0359148643910885,2.79043006896973,1.20048713684082,-0.119688496929273,2.91431776391831,1.21694997133476,2087.79,3007.09,2806.539,994.5995,-0.07660423,0.002168452,0.08260971,-0.0969540700316429,-0.421970933675766,0.233241483569145,-0.243559016194652,-0.104796640417365,0.150774633349401,6
0.69999885559082,-0.0381927229464054,2.7819516658783,1.20529079437256,-0.124680571585341,2.91216981365623,1.22004030335236,2083.255,3015.229,2797.598,999.8441,-0.07354692,0.001758949,0.0861953,-0.113892801105976,-0.423921138048172,0.240182533860207,-0.255711562515536,-0.1100255415964,0.15829763842809,6
0.719999313354492,-0.0408125258982182,2.77344942092896,1.21022641658783,-0.129917773765869,2.90991639186844,1.22328238098464,2074.973,3021.361,2797.85,1002.609,-0.07087843,0.001345104,0.08940326,-0.130990654230118,-0.425108671188354,0.246779173612595,-0.268021976505935,-0.115322368823317,0.165918371114489,6
0.739999771118164,-0.0437766425311565,2.76493692398071,1.21528899669647,-0.13540267613015,2.90755639161152,1.22667779683026,2066.095,3026.621,2803.943,1001.712,-0.06858492,0.0009281574,0.09229957,-0.14820596575737,-0.425629615783691,0.253128111362457,-0.280479406212952,-0.12068245280595,0.173630113532805,6
0.760000228881836,-0.0470867715775967,2.75642538070679,1.22047543525696,-0.141138122953911,2.90508858907309,1.23022831163139,2057.246,3030.189,2812.345,1000.616,-0.06660033,0.0005078008,0.09494402,-0.165506899356842,-0.425576984882355,0.259322464466095,-0.293074259331322,-0.126101666243323,0.181426927589132,6
0.779998779296875,-0.050744142383337,2.7479248046875,1.22578454017639,-0.147126184485884,2.90251209348295,1.23393520697061,2050.212,3032.707,2819.226,1000.515,-0.06483626,8.341851E-05,0.0973774,-0.182868734002113,-0.425032734870911,0.265456408262253,-0.305795832832518,-0.131575403921268,0.189302187598958,6
0.799999237060547,-0.0547494255006313,2.73944354057312,1.23121583461761,-0.153370467664426,2.8998253528763,1.23780071571459,2045.465,3035.065,2823.064,1001.291,-0.06322451,-0.0003456783,0.09962412,-0.200263917446136,-0.424062252044678,0.27156400680542,-0.318637178554805,-0.1371006762399,0.197251592319181,6
0.819999694824219,-0.0591027624905109,2.73098921775818,1.23676955699921,-0.159872691993147,2.89702762739878,1.24182590231796,2043.076,3037.481,2822.053,1004.437,-0.06171982,-0.0007781757,0.1016847,-0.217667311429977,-0.422719448804855,0.277685731649399,-0.331587821991737,-0.142672976311719,0.205268657531342,6
0.840000152587891,-0.0638035833835602,2.72256827354431,1.24244463443756,-0.166634951706069,2.89411801595997,1.24601206321137,2041.946,3040.75,2819.026,1007.232,-0.06032859,-0.001211738,0.10356,-0.235041156411171,-0.42104583978653,0.283751547336578,-0.344638604388044,-0.148288363380199,0.213347713529636,6
0.85999870300293,-0.0688507556915283,2.714186668396,1.24824023246765,-0.173658476530939,2.8910959894424,1.25035995965485,2041.023,3043.486,2813.432,1012.983,-0.05905506,-0.001640507,0.1052315,-0.252358436584473,-0.419082790613174,0.289777785539627,-0.357779218042882,-0.153942402329629,0.221482379356217,6
0.879999160766602,-0.0742423087358475,2.70584940910339,1.25415360927582,-0.180946338277887,2.88796022613197,1.25487149324521,2040.63,3047.506,2809.403,1015.252,-0.05795038,-0.002060754,0.1067043,-0.269577771425247,-0.416866928339005,0.29567015171051,-0.371003228241413,-0.159632324481982,0.229668671616073,6
0.899999618530273,-0.079975888133049,2.69756054878235,1.26018345355988,-0.188499434070438,2.88471034002151,1.25954721934464,2039.574,3050.469,2804.812,1020.151,-0.05703213,-0.002466087,0.1079677,-0.286678999662399,-0.414444237947464,0.301489442586899,-0.384300552311253,-0.165353791545005,0.237900348654692,7
0.920000076293945,-0.0860483050346375,2.68932342529297,1.26632571220398,-0.196319142784876,2.88134573781905,1.26438799154326,2038.484,3054.621,2805.182,1018.92,-0.05635941,-0.002854909,0.1090513,-0.3036208152771,-0.411856800317764,0.307112276554108,-0.397662465047122,-0.171103049306624,0.246172009154369,7
0.939998626708984,-0.0924562960863113,2.68114018440247,1.27257931232452,-0.204405885800988,2.87786623821667,1.26939407069523,2035.837,3056.023,2805.238,1022.967,-0.05590188,-0.003218696,0.1099506,-0.320400238037109,-0.409158706665039,0.312678903341293,-0.411079067636589,-0.176875838584386,0.254477525278661,7
0.959999084472656,-0.0991959422826767,2.67301225662231,1.27894043922424,-0.212762239776093,2.87427073255068,1.27456705187416,2034.749,3059.429,2810.842,1017.888,-0.05569842,-0.003560114,0.1107138,-0.336981415748596,-0.406393051147461,0.318057388067245,-0.424544411524882,-0.18266959988136,0.262813214588797,7
0.979999542236328,-0.106263533234596,2.66493988037109,1.28540992736816,-0.221388311353785,2.87055917493534,1.27990700109753,2032.556,3059.491,2813.036,1021.477,-0.05567498,-0.003872236,0.1113312,-0.353380292654037,-0.403614789247513,0.323474854230881,-0.438048819599778,-0.188480169406503,0.271173086491326,7
1,-0.113654658198357,2.65692281723022,1.29198408126831,-0.230284798736574,2.86673126495361,1.28541435058594,2032.941,3062.794,2821.354,1012.85,-0.05588004,-0.004162521,0.1118635,-0.369556307792664,-0.40085831284523,0.328707486391068,-0.451584000205995,-0.194303979492187,0.279552008056641,7
1.01999855041504,-0.121365547180176,2.64895939826965,1.29866540431976,-0.239451348187707,2.86278715480854,1.29108888135949,2031.034,3061.078,2823.213,1019,-0.05619483,-0.004419249,0.1122774,-0.385544210672379,-0.398173004388809,0.334068924188614,-0.465140476318736,-0.200136952439402,0.28794411255494,7
1.03999900817871,-0.129391402006149,2.64104795455933,1.30544996261597,-0.248890079057088,2.85872593260306,1.29693190539675,2033.636,3064.809,2832.519,1007.198,-0.05670243,-0.004655738,0.1126429,-0.40129292011261,-0.395578056573868,0.33922752737999,-0.478712759579464,-0.205976726760794,0.296346002430842,7
1.05999946594238,-0.137728542089462,2.63318562507629,1.31234240531921,-0.258600340480156,2.85454787838601,1.30294301978152,2032.879,3062.206,2831.447,1016.751,-0.05725743,-0.00485654,0.1128983,-0.416857421398163,-0.393117368221283,0.344622850418091,-0.492291591500725,-0.211819318787865,0.30475194623957,7
1.07999992370605,-0.14637179672718,2.62536978721619,1.31933689117432,-0.268582184669612,2.85025296969173,1.30912225683598,2037.728,3067.487,2842.051,1000.148,-0.05801164,-0.005040299,0.1131373,-0.432162225246429,-0.390794396400452,0.3497254550457,-0.505869113977232,-0.21766134739744,0.313157079439617,7
1.09999847412109,-0.155317589640617,2.61759662628174,1.32644021511078,-0.278834517009062,2.84584167750307,1.31546893894041,2036.03,3062.937,2838.748,1015.634,-0.05876318,-0.005183044,0.1132609,-0.447291523218155,-0.388654142618179,0.355165094137192,-0.519436284009554,-0.223498921639497,0.321555803983559,7
1.11999893188477,-0.164560422301292,2.60986304283142,1.33364403247833,-0.289359035362208,2.84131327127672,1.32198411715334,2043.01,3070.045,2852.799,991.9507,-0.05973896,-0.005312474,0.1134007,-0.462140053510666,-0.386683940887451,0.360189259052277,-0.532988048794549,-0.229329867434001,0.329944991945551,8
1.13999938964844,-0.174097120761871,2.60216426849365,1.34095859527588,-0.300154365346813,2.83666834237095,1.3286669406667,2040.444,3063.401,2846.328,1014.582,-0.06065562,-0.005395564,0.1134128,-0.476835072040558,-0.384937286376953,0.365725696086884,-0.546515580872639,-0.235150386571708,0.338319178707607,8
1.15999984741211,-0.183921560645103,2.59449672698975,1.34837162494659,-0.311219947869739,2.83190713134792,1.33551706337518,2050.018,3073.409,2865.916,980.0136,-0.06185245,-0.005472796,0.1134905,-0.491221994161606,-0.383382081985474,0.370649427175522,-0.560011455688534,-0.240957284473894,0.346673768116318,8
1.17999839782715,-0.19403138756752,2.58685493469238,1.35589814186096,-0.322553982624406,2.82703041282926,1.34253337080327,2044.428,3062.671,2855.758,1014.645,-0.06289907,-0.005494101,0.1134191,-0.505492448806763,-0.382088422775269,0.376323699951172,-0.573467075844405,-0.246746861920456,0.355003437972878,8
1.19999885559082,-0.204419851303101,2.5792350769043,1.36352062225342,-0.334157779891176,2.82203762303794,1.34971667407692,2057.767,3076.526,2882.923,964.8694,-0.06428764,-0.005521265,0.1134762,-0.519423544406891,-0.380995005369186,0.381124675273895,-0.586877800774655,-0.252517122205661,0.363305315546124,8
1.21999931335449,-0.215085834264755,2.57163119316101,1.37126171588898,-0.346029276726411,2.81692964960096,1.35706569613575,2049.165,3060.834,2865.112,1016.531,-0.06539232,-0.005480785,0.1133438,-0.533298790454865,-0.38019859790802,0.387056082487106,-0.600235245789198,-0.258264457631606,0.371574210313473,8
1.23999977111816,-0.226021498441696,2.56403923034668,1.3790956735611,-0.3581673374151,2.81170698118478,1.36457973391807,2068.106,3080.999,2902.107,944.4988,-0.06695027,-0.005465872,0.1134261,-0.546785175800323,-0.379593640565872,0.391698092222214,-0.613532419882739,-0.263985860164018,0.379805794509619,8
1.2599983215332,-0.237227514386177,2.55645275115967,1.38705539703369,-0.370569492049568,2.80637068052165,1.37225725843336,2053.279,3057.278,2873.191,1023.182,-0.06803471,-0.005365204,0.1132475,-0.560300529003143,-0.379320323467255,0.397986024618149,-0.626761182173783,-0.269677827009021,0.387995028541113,8
1.27999877929688,-0.248694598674774,2.54886865615845,1.39510297775269,-0.383236695417198,2.80092033679326,1.3800988607405,2080.234,3086.473,2924.206,919.0526,-0.06973434,-0.005315137,0.1133939,-0.573352813720703,-0.379207104444504,0.402380883693695,-0.639917282339435,-0.275338529371412,0.396139281255613,8
1.29999923706055,-0.260425716638565,2.54127931594849,1.40328705310822,-0.396166231882091,2.79535711846185,1.3881028597315,2057.357,3052.015,2877.292,1036.65,-0.07070266,-0.005154282,0.113162,-0.58655720949173,-0.379464954137802,0.409201830625534,-0.652992789539212,-0.280964554832093,0.404233643085061,8
1.31999969482422,-0.272409230470657,2.53368282318115,1.41155087947845,-0.409356423791328,2.7896817473746,1.39626821685929,2095.891,3095.151,2949.037,884.3124,-0.07256741,-0.005083442,0.1134154,-0.599176645278931,-0.379823356866837,0.413192480802536,-0.665981146317813,-0.286553081901244,0.412274054652251,8
1.33999824523926,-0.284651696681976,2.5260705947876,1.41996538639069,-0.42280416857195,2.783895558482,1.40459301148342,2058.764,3043.691,2876.84,1061.31,-0.07332801,-0.004859203,0.1131097,-0.612122654914856,-0.380607545375824,0.420727014541626,-0.678874678563316,-0.292100808622893,0.420255765316334,8
1.35999870300293,-0.297137647867203,2.51844263076782,1.42844665050507,-0.436510095902056,2.77799828085114,1.41307763340462,2114.269,3106.965,2979.802,837.6047,-0.07539835,-0.004779841,0.1135174,-0.624298870563507,-0.381397515535355,0.424062222242355,-0.691669505523675,-0.297606065217852,0.428176372706927,9
1.3799991607666,-0.30987885594368,2.51078867912292,1.43709933757782,-0.450470874182571,2.77199134797602,1.42172002020435,2057.245,3031.283,2868.875,1101.51,-0.07582445,-0.004485828,0.1130936,-0.637059211730957,-0.382698237895966,0.432635277509689,-0.704358160626625,-0.303065639028665,0.436031254660118,9
1.39999961853027,-0.322854101657867,2.50311136245728,1.44579815864563,-0.464684318506637,2.76587569996104,1.4305188193212,2138.046,3124.952,3018.291,770.8179,-0.07820266,-0.004418717,0.1137261,-0.648761391639709,-0.383860856294632,0.434941619634628,-0.716934519966859,-0.308476895109962,0.443816620186799,9
1.41999816894531,-0.336082577705383,2.49539804458618,1.45469772815704,-0.47914673136562,2.75965292774086,1.43947174182117,2049.149,3012.069,2850.784,1166.238,-0.07813129,-0.004042146,0.1131178,-0.661425292491913,-0.385670006275177,0.444979339838028,-0.729391385793766,-0.313836736470737,0.451528013536465,9
1.43999862670898,-0.349534451961517,2.48765563964844,1.4636116027832,-0.4938584461112,2.75332288788357,1.44857899406484,2167.988,3150.571,3069.638,675.9761,-0.08096116,-0.004013384,0.1140709,-0.67259556055069,-0.387125819921494,0.44569256901741,-0.741725227577294,-0.31914364402254,0.459163249142831,9
1.45999908447266,-0.363240301609039,2.47986674308777,1.47276961803436,-0.508815552717244,2.74688726276417,1.45783815555978,2032.738,2983.324,2815.873,1267.026,-0.08014357,-0.003531884,0.1131683,-0.685292780399323,-0.389445215463638,0.457901507616043,-0.753929052770513,-0.324394609067776,0.466717998286247,9
1.47999954223633,-0.377156853675842,2.47204494476318,1.48189294338226,-0.524015393706918,2.74034719582071,1.46724758120123,2208.858,3189.369,3138.768,536.8175,-0.08367758,-0.003578756,0.1145882,-0.695827007293701,-0.391087859869003,0.456168681383133,-0.76599717101811,-0.329587183205524,0.474188738365705,9
1.5,-0.391331553459167,2.46416616439819,1.49132406711578,-0.539455198877605,2.73370387899399,1.4768055561018,2001.546,2939.672,2756.327,1423.999,-0.08176384,-0.002953978,0.1132258,-0.708734810352325,-0.393938213586807,0.471557796001434,-0.777924000354858,-0.334718964672088,0.481572013878822,9
1.51999855041504,-0.405700773000717,2.45625352859497,1.50064587593079,-0.555130581228843,2.72695919988774,1.48650936449923,2264.657,3246.871,3235.678,332.6263,-0.08637857,-0.003127616,0.1153249,-0.718464255332947,-0.395627290010452,0.466091752052307,-0.789702950965343,-0.339787118053995,0.488863745415943,9
1.53999900817871,-0.420337736606598,2.44827222824097,1.51037049293518,-0.571041541911266,2.72011315800687,1.49635900710582,1948.802,2874.402,2658.818,1665.024,-0.08283869,-0.00229458,0.1132496,-0.731846213340759,-0.399064093828201,0.486229002475739,-0.801330904905084,-0.34479030178684,0.496062002820904,9
1.55999946594238,-0.435147821903229,2.44025993347168,1.51987218856812,-0.587183501790833,2.71316772362485,1.50635164921945,2343.515,3333.915,3373.99,28.9753,-0.08912481,-0.002666889,0.1163568,-0.740503013134003,-0.400611490011215,0.475084066390991,-0.812801474874933,-0.34972576759424,0.503162832051264,9
1.57999992370605,-0.450242966413498,2.43216490745544,1.52991986274719,-0.603553261450117,2.7061242733616,1.51648531024834,1862.361,2777.304,2501.567,2035.926,-0.08316626,-0.001518534,0.1131875,-0.754759252071381,-0.404751747846603,0.502384960651398,-0.824109512459656,-0.354591300256948,0.510163045992739,9
1.59999847412109,-0.46549928188324,2.42403364181519,1.53972721099854,-0.620145926473056,2.69898491314762,1.52675696031579,2120.691,3719.031,3241.686,0,-0.08924413,-0.0008026767,0.1184313,-0.762814044952393,-0.406558036804199,0.490367025136948,-0.835248923368005,-0.359384277571697,0.517058871988737,9
1.61999893188477,-0.48103591799736,2.41582083702087,1.55004572868347,-0.636961261140657,2.69174974440622,1.53716645350051,1957.028,2571.63,2433.889,2218.745,-0.08253615,0.001349944,0.1148666,-0.776832044124603,-0.410642713308334,0.515925288200378,-0.846216901179681,-0.364103492014234,0.523848572731403,9
1.63999938964844,-0.496727228164673,2.40757775306702,1.56009435653687,-0.653994195024907,2.68442094880091,1.54771065096602,2204.289,3651.561,3237.392,0,-0.08848832,0.002866491,0.1189464,-0.784565806388855,-0.412150979042053,0.502433896064758,-0.857007552155828,-0.368746407673381,0.530528499715628,9
1.65999984741211,-0.512690186500549,2.39926242828369,1.57063126564026,-0.671241134177535,2.67700007270724,1.55838732788714,2056.707,2529.764,2482.868,2125.52,-0.08251805,0.005487824,0.1140214,-0.798148155212402,-0.415763080120087,0.526847183704376,-0.867616161431205,-0.373310995874343,0.537095734215228,9
1.67999839782715,-0.528802156448364,2.39091944694519,1.58093297481537,-0.688696716710861,2.66948942319567,1.56919316499998,2180.331,3711.088,3216.042,0,-0.08901563,0.007563333,0.1171624,-0.805598378181458,-0.417145252227783,0.51508492231369,-0.878037137680598,-0.377794850826084,0.543546814933542,9
1.69999885559082,-0.545161783695221,2.38251066207886,1.59163737297058,-0.706360494347389,2.66188919314749,1.58012788479941,2129.43,2521.038,2638.381,1904.728,-0.08530531,0.01032178,0.1121124,-0.817982137203217,-0.420422613620758,0.535222113132477,-0.888267970958778,-0.382196892569292,0.54988018809491,9
1.71999931335449,-0.561664342880249,2.37407255172729,1.60213351249695,-0.724226945158621,2.65420175849427,1.59118806894864,2248.779,3553.558,3318.767,0,-0.09238612,0.01225975,0.1139934,-0.825132131576538,-0.421921133995056,0.524804532527924,-0.898303268694426,-0.386514800831178,0.556092515440802,9
1.73999977111816,-0.57839697599411,2.36556386947632,1.61299991607666,-0.74229211534941,2.6464288204436,1.60237126986013,2134.041,2589.067,2807.651,1666.216,-0.09013682,0.01461139,0.1093327,-0.836630284786224,-0.425438493490219,0.543321669101715,-0.908138749572296,-0.3907467334814,0.562181146633131,9
1.7599983215332,-0.595268368721008,2.357013463974,1.6237028837204,-0.760550216073323,2.63857286977439,1.61367390396219,2246.995,3492.57,3390.844,0,-0.09702269,0.01609616,0.1113203,-0.84356963634491,-0.427519142627716,0.535149097442627,-0.917769332013572,-0.394890504058555,0.568142935932543,9
1.77999877929688,-0.612357616424561,2.34838032722473,1.63475978374481,-0.779000609654483,2.63063418086074,1.62509557650306,2119.203,2638.567,2904.438,1533.944,-0.09490974,0.01789396,0.107834,-0.854466795921326,-0.431660175323486,0.552846848964691,-0.927192788821983,-0.398945154262308,0.57397650459845,9
1.79999923706055,-0.629582464694977,2.33969402313232,1.64566946029663,-0.79763736303951,2.62261530652977,1.63663261464007,2292.819,3396.276,3445.647,0,-0.1009104,0.01867675,0.1102946,-0.861242711544037,-0.434316903352737,0.545485436916351,-0.936404235539493,-0.402908582446823,0.579678828918647,9
1.81999969482422,-0.647024095058441,2.33091187477112,1.65696156024933,-0.816456197270346,2.61451808789761,1.64828236949435,2089.141,2685.705,2889.312,1536.098,-0.09755053,0.01987864,0.1076667,-0.872080564498901,-0.439109414815903,0.564603328704834,-0.945399824400851,-0.406779133026206,0.585247526943151,9
1.83999824523926,-0.664596974849701,2.32206988334656,1.66810584068298,-0.835450937570646,2.606345181798,1.6600410185852,2296.529,3418.728,3419.448,0,-0.1025535,0.02011861,0.1110904,-0.878645777702332,-0.442102938890457,0.557212054729462,-0.954174989692508,-0.410554841501469,0.590679772277779,9
1.85999870300293,-0.682388186454773,2.31312608718872,1.67965626716614,-0.854620778981102,2.59809693458245,1.67190806360445,2067.008,2690.1,2801.484,1645.084,-0.09770232,0.02098524,0.1089545,-0.889557421207428,-0.447190254926682,0.577520251274109,-0.962727774564036,-0.414234865894539,0.595974353538898,9
1.8799991607666,-0.700304925441742,2.30412459373474,1.69103264808655,-0.873959418228252,2.58977605837344,1.68387960252558,2307.28,3450.899,3375.772,0,-0.1021216,0.02093578,0.112979,-0.895836174488068,-0.450071424245834,0.568816542625427,-0.971053808954927,-0.417817325890467,0.60112856545088,9
1.89999961853027,-0.718442678451538,2.29502391815186,1.70283722877502,-0.8934622858751,2.58138451927205,1.6959528066494,2051.975,2675.752,2704.031,1778.459,-0.09614278,0.02172015,0.1107014,-0.906890630722046,-0.455021381378174,0.590228796005249,-0.979149678649926,-0.42130075244781,0.60614029445184,9
1.91999816894531,-0.736699998378754,2.28587412834167,1.71444129943848,-0.913122862707269,2.57292512231409,1.70812364027167,2284.116,3525.023,3325.653,0,-0.100456,0.02171139,0.1150707,-0.912867784500122,-0.457505762577057,0.580203175544739,-0.987011339258123,-0.424683405378145,0.611007036871143,9
1.93999862670898,-0.755178153514862,2.27663469314575,1.72647345066071,-0.932940197657643,2.56439827671719,1.72039151463653,2053.787,2640.515,2648.803,1872.427,-0.09407777,0.02263743,0.1124219,-0.923904776573181,-0.461972564458847,0.601609230041504,-0.99463709319481,-0.4279645542582,0.615727741822989,9
1.95999908447266,-0.773770749568939,2.26735639572144,1.73828542232513,-0.952907658613767,2.55580683609405,1.73275232415044,2271.209,3559.887,3306.718,0,-0.09853749,0.02281436,0.1166544,-0.929628849029541,-0.463916122913361,0.590598464012146,-1.00202309041976,-0.431142542523221,0.620300025949072,9
1.97999954223633,-0.792580902576447,2.25800108909607,1.75051617622375,-0.973020420343666,2.54715287660719,1.74520308176496,2067.051,2614.727,2645.339,1892.479,-0.09228439,0.02390783,0.1135547,-0.940508782863617,-0.467762529850006,0.611538529396057,-1.00916635026771,-0.434216087676217,0.62472204407561,9
1.99999809265137,-0.811501264572144,2.24861717224121,1.76252222061157,-0.993271661096953,2.53843933346522,1.75773956449162,2257.53,3575.565,3307.66,0,-0.09690764,0.024267,0.1174788,-0.946022689342499,-0.469196647405624,0.60030323266983,-1.01606335446626,-0.437183675902864,0.628991618224387,9
2.01999855041504,-0.830632925033569,2.23916816711426,1.77492952346802,-1.01366030404084,2.52966666999921,1.77036110571964,2083.688,2601.663,2676.729,1857.261,-0.09102897,0.02545081,0.1141127,-0.956581592559814,-0.472447574138641,0.620364010334015,-1.02271265493931,-0.440044684136465,0.633107851967309,9
2.03999900817871,-0.849870622158051,2.22969913482666,1.78711533546448,-1.03417943002831,2.52083786332482,1.7830634221674,2259.817,3556.23,3325.104,0,-0.09569537,0.02585127,0.1176575,-0.96188747882843,-0.473455011844635,0.609289169311523,-1.02911092662815,-0.442797681697156,0.63706868693465,9
2.05999946594238,-0.869311928749084,2.22017455101013,1.79968905448914,-1.05482399271638,2.51195508474246,1.79584338990822,2093.278,2607.527,2712.321,1802.143,-0.09011178,0.02698362,0.1141972,-0.972064733505249,-0.476227849721909,0.628685653209686,-1.03525562241752,-0.445441572632395,0.640872546340724,9
2.07999801635742,-0.888854205608368,2.21063661575317,1.81204557418823,-1.07558691007788,2.50302138145056,1.8086966248299,2261.456,3535.101,3340.595,0,-0.09469508,0.02728717,0.1175308,-0.97711306810379,-0.476901680231094,0.61782568693161,-1.04114375428791,-0.447975071280863,0.644517580459114,9
2.09999847412109,-0.908592164516449,2.20105051994324,1.82478201389313,-1.09646699912883,2.4940372624541,1.82162239460902,2091.023,2618.699,2731.175,1766.569,-0.08915198,0.02827921,0.1141232,-0.986898422241211,-0.479307949542999,0.636821866035461,-1.04677411523768,-0.450397658303471,0.648003042098304,9
2.11999893188477,-0.928424715995789,2.19145679473877,1.83730030059814,-1.11745709586255,2.485005810225,1.83461626438416,2264.029,3517.891,3346.91,0,-0.09355472,0.02840395,0.1174078,-0.99162632226944,-0.479686319828033,0.625913739204407,-1.0521439094894,-0.452708130755304,0.651327200538896,9
2.13999938964844,-0.948445916175842,2.18182134628296,1.85019743442535,-1.138551967509,2.47592927627801,1.8476749948214,2080.676,2628.786,2723.754,1764.219,-0.0877943,0.02922984,0.1140662,-1.00105667114258,-0.481775403022766,0.644859850406647,-1.05725102347782,-0.454905579228273,0.654488747383304,8
2.15999794006348,-0.968553721904755,2.17218446731567,1.86286795139313,-1.15974431432775,2.46681080148754,1.86079406703369,2259.419,3517.225,3340.404,0,-0.09201275,0.02918122,0.1174336,-1.00539577007294,-0.481840938329697,0.633526086807251,-1.06209300290918,-0.456988947708343,0.657486163306784,8
2.17999839782715,-0.988843679428101,2.16251277923584,1.87591922283173,-1.18103286617629,2.4576509323604,1.8739726947423,2066.173,2629.451,2696.446,1793.902,-0.08588641,0.02988632,0.114085,-1.01449453830719,-0.483590006828308,0.652564108371735,-1.06666887474518,-0.458957817524312,0.66031884595227,8
2.19999885559082,-1.00921177864075,2.15284705162048,1.88873016834259,-1.20241025668069,2.44845283844151,1.88720631781084,2250.291,3529.11,3323.836,0,-0.0899685,0.02972815,0.1175472,-1.01840007305145,-0.483290374279022,0.64054811000824,-1.07097637612794,-0.460811215031657,0.662985394502945,7
2.21999931335449,-1.02975475788116,2.14315438270569,1.9019228219986,-1.22387110132782,2.43921883653644,1.90049160296922,2054.42,2621.937,2660.802,1836.305,-0.08350661,0.03037905,0.1140776,-1.02715384960175,-0.484633475542068,0.659634232521057,-1.07501382704219,-0.462548417366737,0.665484768949324,7
2.23999977111816,-1.05036664009094,2.13347578048706,1.91485869884491,-1.24540998308744,2.42995125744197,1.91382519681765,2237.156,3546.224,3304.909,0,-0.08755568,0.03018663,0.1175658,-1.03059041500092,-0.483916252851486,0.646793723106384,-1.07877965586273,-0.46416874830314,0.667815996380546,5
2.2599983215332,-1.07114553451538,2.12378025054932,1.92817389965057,-1.26701939030951,2.42065333321126,1.92720244928693,2045.758,2608.748,2630.07,1875.358,-0.08088499,0.03084006,0.1138814,-1.03895008563995,-0.484793394804001,0.665763258934021,-1.08227207933222,-0.465671440555045,0.66997797287536,5
2.27999877929688,-1.09198367595673,2.11410737037659,1.94121718406677,-1.28869796983554,2.41132564607061,1.9406225227075,2222.448,3561.917,3288.339,0,-0.08497561,0.03066732,0.1173018,-1.04190027713776,-0.483638435602188,0.652167320251465,-1.08549040888332,-0.467056197851165,0.67197027217779,2
2.29999923706055,-1.11297941207886,2.10442686080933,1.95463347434998,-1.31043816248474,2.40197144852433,1.95408073758635,2041.106,2594.857,2610.32,1898.688,-0.07825646,0.03134441,0.113373,-1.04979157447815,-0.484025776386261,0.670817673206329,-1.08843305191934,-0.468322334941636,0.673791908394614,0
2.31999969482422,-1.13402438163757,2.09477758407593,1.96776592731476,-1.33223444283894,2.39259311800549,1.96757367342642,2210.108,3569.878,3276.414,0,-0.08243549,0.03119904,0.1166453,-1.0522426366806,-0.48245045542717,0.656621336936951,-1.09109887036509,-0.469469362144493,0.675442177003072,0
2.33999824523926,-1.15521597862244,2.08513045310974,1.98126149177551,-1.35407917814146,2.38319393867607,1.98109660518773,2036.802,2584.301,2602.47,1904.773,-0.07579143,0.03188396,0.1125034,-1.05958795547485,-0.482369929552078,0.674775540828705,-1.09348662008434,-0.470496744142684,0.676920307823584,0
2.35999870300293,-1.17644643783569,2.07552218437195,1.99446368217468,-1.37597096908363,2.3737745126195,1.99464866663155,2200.526,3567.662,3270.96,0,-0.08005196,0.03173402,0.1155941,-1.06152474880219,-0.480418562889099,0.660106837749481,-1.09559583531025,-0.471404280529741,0.678226012524276,0
2.3799991607666,-1.19781219959259,2.0659236907959,2.00801968574524,-1.39790215061238,2.36433813789396,2.0082251127249,2030.822,2579.235,2599.016,1901.261,-0.07349845,0.03238681,0.1112959,-1.06828141212463,-0.479929834604263,0.677805602550507,-1.09742546213314,-0.472191517837776,0.679358638684859,0
2.39999961853027,-1.21920573711395,2.05637049674988,2.02127480506897,-1.41986712360559,2.35488722364528,2.02182247734447,2191.423,3563.477,3265.657,0,-0.07781278,0.032192,0.1142506,-1.06968593597412,-0.477661281824112,0.662752687931061,-1.09897479602782,-0.472858152929276,0.680317750170671,0
2.41999816894531,-1.24072241783142,2.04683399200439,2.03487515449524,-1.44185817738692,2.34542508756209,2.03543598721428,2021.002,2576.466,2594.197,1899.276,-0.07130401,0.03278109,0.1098649,-1.07582712173462,-0.476829379796982,0.680019080638885,-1.10024313330221,-0.473403883025206,0.681102911362803,0
2.43999862670898,-1.26225602626801,2.03734827041626,2.04816579818726,-1.46387388420027,2.33595234396796,2.0490647584853,2184.089,3555.765,3260.859,0,-0.07562792,0.03250543,0.1127257,-1.07668006420135,-0.474287062883377,0.664528787136078,-1.10123022817855,-0.473828602374257,0.681713970113108,0
2.45999908447266,-1.28390049934387,2.02788496017456,2.06179690361023,-1.48590651627916,2.32647231790489,2.06270400730194,2008.176,2575.228,2581.734,1905.833,-0.06906056,0.03301135,0.1082714,-1.08221650123596,-0.47316312789917,0.681554794311523,-1.10193556692257,-0.474132089930926,0.682150608395601,0
2.47999954223633,-1.30555033683777,2.01847720146179,2.07510852813721,-1.50795043548148,2.31698743530794,2.07635024338568,2174.321,3555.467,3249.934,0,-0.07337808,0.03264921,0.1111076,-1.08250176906586,-0.470376342535019,0.665582180023193,-1.10235887855907,-0.474314229102152,0.682412658463722,0
2.49999809265137,-1.32729911804199,2.00909781455994,2.08875608444214,-1.52999789647758,2.30750102877607,2.08999867200848,1993.493,2571.163,2562.773,1922.894,-0.066701,0.03308027,0.1065912,-1.0874308347702,-0.468982934951782,0.682376980781555,-1.10250000050163,-0.474374949931546,0.682500019668738,0
2.51999855041504,-1.34904181957245,1.9997786283493,2.10207200050354,-1.5520474605947,2.29801371732999,2.10364840256337,2165.378,3554.65,3238.055,0,-0.07101372,0.03263899,0.1094021,-1.0871354341507,-0.4659563601017,0.665796279907227,-1.10235890547318,-0.474314240682543,0.682412675124841,0
2.53999900817871,-1.37087106704712,1.99049282073975,2.1157214641571,-1.5740913806044,2.28852883438564,2.11729463914691,1978.705,2565.818,2538.826,1946.369,-0.06419496,0.03300864,0.1047826,-1.0914671421051,-0.464298784732819,0.682471811771393,-1.10193562074175,-0.474132113087814,0.682150641712234,0
2.55999946594238,-1.39268279075623,1.98127198219299,2.1290271282196,-1.59612401402858,2.27904880774374,2.13093388879636,2152.966,3561.653,3221.435,0,-0.06853165,0.03251608,0.1075845,-1.09058511257172,-0.461037516593933,0.665285289287567,-1.10123030888212,-0.473828637098746,0.681714020072458,0
2.57999801635742,-1.41456878185272,1.97208988666534,2.14266133308411,-1.6181376241771,2.2695769662859,2.14456136213196,1964.716,2557.062,2515.975,1970.89,-0.06161809,0.03284786,0.1028513,-1.09429681301117,-0.459112852811813,0.681714415550232,-1.10024334841354,-0.473403975581601,0.681103044526962,0
2.59999847412109,-1.43642520904541,1.96297740936279,2.15593910217285,-1.64013077892511,2.26011392621545,2.15817617260023,2142.954,3562.911,3208.17,0,-0.06600112,0.03231759,0.1055923,-1.09282636642456,-0.455617994070053,0.66388863325119,-1.09897493039424,-0.472858210743393,0.680317833349887,0
2.61999893188477,-1.45834350585938,1.9539088010788,2.16954135894775,-1.66209575487342,2.25066301069528,2.17177353904914,1951.825,2549.493,2495.479,1990.888,-0.05902577,0.03261602,0.1007199,-1.09590995311737,-0.453432768583298,0.680116951465607,-1.09742562325992,-0.472191587166126,0.67935873843001,0
2.63999938964844,-1.48022055625916,1.9449143409729,2.18277645111084,-1.68402693989188,2.24122663446822,2.18534998730279,2130.639,3567.768,3193.543,0,-0.06347644,0.0320599,0.1034048,-1.09385359287262,-0.449723243713379,0.661753833293915,-1.09559602313537,-0.471404361345641,0.67822612879697,0
2.65999794006348,-1.50214612483978,1.93596851825714,2.19632935523987,-1.70591664919621,2.23180810408224,2.19890076011363,1939.053,2541.323,2479.615,2006.169,-0.0564947,0.03232852,0.0984209,-1.09628033638,-0.447294801473618,0.677648067474365,-1.093487048984,-0.470496928686224,0.676920573332903,0
2.67999839782715,-1.52401912212372,1.92710065841675,2.2095046043396,-1.7277634747138,2.22240802539167,2.21242498581764,2122.121,3564.085,3183.682,0,-0.06100769,0.03173539,0.1010152,-1.09364175796509,-0.443390101194382,0.658762395381927,-1.09109911135695,-0.469469465836558,0.675442326188514,0
2.69999885559082,-1.54592704772949,1.91828584671021,2.22299289703369,-1.74955976015262,2.21302969268507,2.22591792480533,1925.765,2536.406,2465.211,2017.328,-0.0540137,0.03195896,0.09592774,-1.0954110622406,-0.440746456384659,0.674417972564697,-1.08843331936148,-0.468322450014513,0.673792073954033,0
2.71999931335449,-1.56777095794678,1.90955245494843,2.23609495162964,-1.77129995841443,2.20367549272384,2.23937614315866,2111.863,3563.965,3171.782,0,-0.05858209,0.03132075,0.09846694,-1.09219551086426,-0.436675578355789,0.655100464820862,-1.08549070267236,-0.467056324260381,0.6719704540472,0
2.73999786376953,-1.58963704109192,1.90087532997131,2.24950408935547,-1.79297647980783,2.19434869114016,2.25279494249708,1911.251,2531.501,2451.336,2028.684,-0.05157691,0.03149283,0.09331756,-1.09329748153687,-0.433844327926636,0.670460820198059,-1.08227271937422,-0.465671715947234,0.669978369091845,0
2.7599983215332,-1.61142706871033,1.89228296279907,2.26251745223999,-1.81458795796224,2.18504987584512,2.26617347697213,2104.636,3557.631,3162.902,0,-0.05617991,0.03079318,0.0957964,-1.08950960636139,-0.429625183343887,0.650664031505585,-1.07878000199166,-0.464168897232749,0.667816210650842,0
2.77999877929688,-1.6332266330719,1.88375020027161,2.27583527565002,-1.83612684690458,2.17578229366013,2.27950707526701,1895.668,2528.625,2434.299,2042.517,-0.04911242,0.03090237,0.09058268,-1.08996379375458,-0.426629424095154,0.665891766548157,-1.07501419914593,-0.462548577472581,0.665484999299265,0
2.79999923706055,-1.65493869781494,1.87530469894409,2.28874826431274,-1.85758769925251,2.16654828844162,2.29279236519255,2094.381,3558.433,3149.618,0,-0.05374632,0.03014386,0.09305094,-1.08561098575592,-0.422278821468353,0.645649254322052,-1.07097677406178,-0.460811386251471,0.662985640842947,0
2.81999778747559,-1.67664694786072,1.86692214012146,2.30196189880371,-1.87896306346215,2.15735106638076,2.30602473388812,1879.304,2523.583,2415.51,2060.719,-0.04660585,0.0301979,0.08779225,-1.08541905879974,-0.419129103422165,0.660686373710632,-1.06666972196052,-0.458958182057406,0.660319370418926,0
2.83999824523926,-1.69825732707977,1.85862898826599,2.31476044654846,-1.90025163276617,2.14819118974301,2.3192033724025,2087.082,3554.559,3138.009,0,-0.05126479,0.02938002,0.09023045,-1.08051085472107,-0.414649277925491,0.639929473400116,-1.06209390114388,-0.456989334193641,0.657486719356853,0
2.85999870300293,-1.71985101699829,1.85040211677551,2.32785820960999,-1.92144601460316,2.13907183934104,2.33232370438801,1862.887,2519.399,2394.676,2080.525,-0.04402898,0.02937989,0.08490369,-1.07969045639038,-0.411348938941956,0.654882550239563,-1.05725149792792,-0.454905783370899,0.65448904109052,0
2.8799991607666,-1.74133586883545,1.84226727485657,2.34053134918213,-1.94254089599063,2.12999530120277,2.34538244085541,2077.041,3556.794,3122.978,0,-0.04872466,0.02851493,0.08733429,-1.07423794269562,-0.406744539737701,0.633652627468109,-1.05214440908742,-0.452708345718374,0.651327509813868,0
2.89999771118164,-1.76279163360596,1.83420133590698,2.35349988937378,-1.96352900640172,2.1209647036328,2.35837508100222,1846.688,2513.494,2374.477,2100.943,-0.04142174,0.02847202,0.08194929,-1.07278680801392,-0.40329384803772,0.648432731628418,-1.04677516433438,-0.450398109700476,0.648003691539142,0
2.91999816894531,-1.78412771224976,1.82622992992401,2.36603355407715,-1.98440911693069,2.11198057539494,2.37130086407726,2069.458,3553.535,3111.093,0,-0.04616057,0.02756272,0.08434145,-1.06680130958557,-0.398565500974655,0.626685619354248,-1.04114485287423,-0.447975543971863,0.644518260536375,0
2.93999862670898,-1.80542230606079,1.81833052635193,2.37886118888855,-2.00517403134858,2.10304601282548,2.38415533527198,1830.682,2508.964,2354.461,2119.975,-0.03878734,0.02747621,0.07888164,-1.06473207473755,-0.394968569278717,0.641381323337555,-1.03525619623725,-0.445441819530995,0.640872901562472,0
2.95999908447266,-1.82658672332764,1.81052827835083,2.39124488830566,-2.02581860575671,2.0941632292003,2.39693531026807,2059.402,3555.168,3096.809,0,-0.0435789,0.02653106,0.08125699,-1.05822682380676,-0.390124797821045,0.619187295436859,-1.02911152474823,-0.442797939051516,0.637069057199471,0
2.9799976348877,-1.84769761562347,1.80280029773712,2.40391898155212,-2.04633579327653,2.08533525659438,2.40963642671202,1814.604,2503.334,2336.186,2138.133,-0.0361636,0.02640794,0.07574415,-1.05553698539734,-0.386387884616852,0.63370543718338,-1.0227138993024,-0.44004521955114,0.633108622287341,0
2.99999809265137,-1.86866784095764,1.7951717376709,2.41613960266113,-2.06672446158539,2.07656258221453,2.42225798364216,2052.379,3550.311,3086.087,0,-0.04100256,0.02542258,0.0780759,-1.04852569103241,-0.38143453001976,0.611034989356995,-1.01606464645845,-0.437184231811008,0.628992418029098,0
3.01999855041504,-1.88957250118256,1.78762030601501,2.42864918708801,-2.08697765348254,2.06784819954987,2.43479567421983,1798.483,2499.723,2317.727,2154.84,-0.03353133,0.02525597,0.07250236,-1.0452299118042,-0.377566695213318,0.625480234622955,-1.00916701981882,-0.434216375765357,0.624722458559645,0
3.03999900817871,-1.91032707691193,1.78017032146454,2.44069719314575,-2.1070904288371,2.05919423420069,2.44724644026866,2043.134,3550.323,3072.674,0,-0.03841983,0.02423338,0.07481964,-1.03772675991058,-0.372513979673386,0.602398872375488,-1.00202378325828,-0.431142840632279,0.62030045484912,0
3.05999946594238,-1.93100380897522,1.7727997303009,2.45303106307983,-2.12705790388088,2.05060278751603,2.4596072585035,1781.823,2495.138,2299.856,2172.169,-0.03090332,0.02402747,0.06920948,-1.03382813930511,-0.368522942066193,0.616696059703827,-0.994637809041649,-0.427964862267096,0.615728184966283,0
3.07999801635742,-1.95152056217194,1.76553237438202,2.46489453315735,-2.14687337079936,2.04207674568107,2.47187397646763,2037.196,3544.643,3061.704,0,-0.0358355,0.02296124,0.07149038,-1.02584910392761,-0.363375961780548,0.593170762062073,-0.987012816387451,-0.424684040945629,0.611007951284564,0
3.09999847412109,-1.9719477891922,1.75834703445435,2.47704267501831,-2.16653584520328,2.033616532251,2.4840459847772,1764.613,2492.369,2281.535,2188.979,-0.02825934,0.02270972,0.06583728,-1.0213634967804,-0.359267979860306,0.607402086257935,-0.979150439632689,-0.421301079877433,0.606140765536421,0
3.11999893188477,-1.99220609664917,1.75126647949219,2.48871207237244,-2.18603872829175,2.02522498650551,2.49611919846012,2029.309,3542.828,3048.794,0,-0.03323412,0.02160179,0.06810579,-1.01292383670807,-0.354033023118973,0.583474159240723,-0.971054592046769,-0.41781766283301,0.601129050222034,0
3.13999938964844,-2.01236367225647,1.74426984786987,2.50066447257996,-2.20537738341953,2.01690410346351,2.50809074721212,1747.763,2489.096,2262.032,2206.996,-0.02560416,0.02130728,0.06242327,-1.00786185264587,-0.349812746047974,0.597625732421875,-0.962728579444533,-0.414235212212131,0.595974851798267,0
3.15999794006348,-2.03234314918518,1.737380027771,2.51212930679321,-2.22454542119638,2.00865663230111,2.51995667569625,2022.458,3538.383,3037.454,0,-0.03062901,0.02015773,0.06467421,-0.998976707458496,-0.34449303150177,0.573237717151642,-0.954176642367246,-0.410555552601238,0.590680795362169,0
3.17999839782715,-2.05221033096313,1.73057675361633,2.52387666702271,-2.24354199818069,2.00048293592768,2.53171646178199,1729.895,2485.749,2242.129,2226.801,-0.02292609,0.01982269,0.05895289,-0.993356049060822,-0.340164333581924,0.587368845939636,-0.945400671854024,-0.406779497661632,0.585248051557035,0
3.19999885559082,-2.07189130783081,1.72388160228729,2.53512811660767,-2.26236084956923,1.99238570991304,2.54336622725771,2014.576,3537.245,3023.925,0,-0.02799515,0.01863942,0.06119964,-0.984044075012207,-0.334762960672379,0.562570452690125,-0.936405103758047,-0.402908956017012,0.579679366387291,0
3.21999931335449,-2.09144854545593,1.71727538108826,2.54666090011597,-2.28099762052367,1.98436682802245,2.55490327627103,1713.295,2481.906,2221.912,2246.057,-0.02023896,0.01826989,0.05544723,-0.977874636650085,-0.330325782299042,0.576641201972961,-0.927193677444144,-0.398945536611599,0.573977054697898,0
3.23999786376953,-2.11081171035767,1.71077847480774,2.55768871307373,-2.29944628156995,1.97642888457015,2.56632387629027,2008.341,3532.721,3012.226,0,-0.02536608,0.01705475,0.05767176,-0.968152582645416,-0.324844658374786,0.551391243934631,-0.917771149318993,-0.394891285994308,0.568144060931169,0
3.2599983215332,-2.13004040718079,1.70437228679657,2.56899738311768,-2.31770615117141,1.96857217280235,2.57762760541179,1695.781,2478.659,2202.535,2265.1,-0.01755396,0.01665126,0.05187986,-0.961448431015015,-0.320302724838257,0.565438032150269,-0.908139677873146,-0.390747132903322,0.562181721295578,0
3.27999877929688,-2.14906740188599,1.69807720184326,2.57979321479797,-2.33577134012187,1.96079922667992,2.58881081793642,2000.99,3530.579,2999.454,0,-0.02273647,0.01540968,0.05409225,-0.951334178447723,-0.314747214317322,0.539791285991669,-0.898304216251578,-0.386515208538549,0.556093102023818,0
3.29999923706055,-2.16794943809509,1.69187521934509,2.59086894989014,-2.35363781007389,1.95311178379095,2.59987101393471,1679.362,2475.464,2183.355,2282.794,-0.01488973,0.01497553,0.04827331,-0.944105505943298,-0.310104966163635,0.553789377212524,-0.888268937369113,-0.38219730838866,0.549880786348944,0
3.31999778747559,-2.18662166595459,1.68578553199768,2.6014232635498,-2.37129993249841,1.94551226593426,2.61080470907906,1995.034,3525.329,2988.52,0,-0.02013776,0.0137064,0.05046298,-0.933616399765015,-0.304481238126755,0.527716159820557,-0.87803910737898,-0.377795698332271,0.54354803427067,0
3.33999824523926,-2.20513916015625,1.67979073524475,2.61225748062134,-2.38875720963391,1.93800088728271,2.62161159523137,1661.994,2472.941,2164.756,2300.504,-0.01225001,0.01324075,0.04461526,-0.925878405570984,-0.299746841192245,0.541707336902618,-0.8676171642955,-0.373311427378832,0.537096355035999,0
3.35999870300293,-2.22343969345093,1.67390954494476,2.62256264686584,-2.40600416902084,1.93058000248278,2.63228828467848,1988.244,3522.147,2976.551,0,-0.01755929,0.01194738,0.04679599,-0.915033042430878,-0.294062525033951,0.51525467634201,-0.857008572601967,-0.368746846742847,0.530529131420399,0
3.3799991607666,-2.24157571792603,1.66812467575073,2.63314723968506,-2.42303712348661,1.92325119802182,2.64283249488494,1645.453,2470.394,2145.958,2317.675,-0.009641176,0.01145215,0.04093236,-0.90679919719696,-0.289242774248123,0.529224812984467,-0.846217938763199,-0.364103938457435,0.523849215045027,0
3.39999771118164,-2.25948810577393,1.66245460510254,2.64319443702698,-2.43985088596004,1.91601670575165,2.65324101480657,1982.63,3516.533,2966.009,0,-0.01501757,0.01013399,0.04309853,-0.895616769790649,-0.283504813909531,0.502363443374634,-0.835251031898626,-0.359385184813519,0.517060177269636,0
3.41999816894531,-2.27722644805908,1.65688252449036,2.65352153778076,-2.45644516534361,1.90887665092339,2.66351366424015,1628.085,2468.194,2127.438,2335.428,-0.007059508,0.009609385,0.0372168,-0.886904716491699,-0.27860763669014,0.516351938247681,-0.824110582941664,-0.354591760855451,0.510163708672097,0
3.43999862670898,-2.29473423957825,1.65142607688904,2.66330409049988,-2.47281494657125,1.90183319137989,2.67364733862088,1976.663,3512.759,2954.257,0,-0.01249768,0.008270208,0.0393781,-0.875405311584473,-0.272822499275208,0.489126682281494,-0.812802561098952,-0.34972623496609,0.503163504475677,0
3.45999908447266,-2.31205892562866,1.64606881141663,2.67336654663086,-2.48895692832918,1.89488774758421,2.68363999427827,1611.857,2466.182,2108.641,2352.271,-0.004515123,0.007718708,0.03348835,-0.866230249404907,-0.267853319644928,0.503117918968201,-0.801332006385299,-0.344790775723006,0.496062684689628,0
3.4799976348877,-2.32914757728577,1.64082837104797,2.68287658691406,-2.50486640494811,1.88804234425441,2.69348871817885,1971.671,3506.777,2943.982,0,-0.0100268,0.006358505,0.03563857,-0.854433953762054,-0.262027889490128,0.475497484207153,-0.78970518344449,-0.339788078627405,0.488865127426884,0
3.49999809265137,-2.34604382514954,1.63568830490112,2.69266700744629,-2.52054331600794,1.88129700738756,2.70319347291972,1594.646,2464.444,2090.408,2369.713,-0.002013882,0.005781087,0.02973846,-0.844814300537109,-0.256995499134064,0.489526331424713,-0.777925130847354,-0.334719451091428,0.481572713707531,0
3.51999855041504,-2.36269855499268,1.63066565990448,2.70189809799194,-2.53598314392723,1.87465368077274,2.71275146190277,1966.279,3502.612,2932.671,0,-0.007595336,0.004404749,0.03188719,-0.832742035388947,-0.251137167215347,0.461559891700745,-0.765998315247401,-0.329587675535422,0.474189446698144,0
3.53999900817871,-2.37915277481079,1.62574458122253,2.71141028404236,-2.55118300793501,1.86811360392524,2.72216090179351,1578.558,2462.887,2072.325,2385.934,0.0004304099,0.003804103,0.02598831,-0.822694480419159,-0.246048793196678,0.475606203079224,-0.753930210209441,-0.324395107081412,0.466718714796081,0
3.55999755859375,-2.39535999298096,1.62094140052795,2.72035574913025,-2.56613872308604,1.86167857751006,2.73141920191151,1962.057,3495.883,2923.11,0,-0.005229915,0.002411558,0.02812794,-0.810367703437805,-0.240166068077087,0.447267860174179,-0.741727567798258,-0.319144650954242,0.459164697851087,0
3.57999801635742,-2.41135835647583,1.61624073982239,2.72958326339722,-2.58085048488145,1.85534851740854,2.74052648328127,1561.812,2461.928,2054.838,2402.162,0.002813594,0.001787993,0.02222956,-0.799911975860596,-0.235032334923744,0.46137335896492,-0.72939375026341,-0.313837753835969,0.451529477255809,0
3.59999847412109,-2.42710518836975,1.61165833473206,2.73823761940002,-2.59531431270705,1.84912513636775,2.74948028171299,1957.252,3491.168,2912.565,0,-0.002923086,0.0003831893,0.02437337,-0.787352025508881,-0.229134038090706,0.432712614536285,-0.716935713767317,-0.308477408768949,0.443817359206151,0
3.61999893188477,-2.44263553619385,1.60717868804932,2.74717473983765,-2.6095277810186,1.84300947803163,2.75827909567923,1545.961,2460.977,2037.513,2417.631,0.005123247,-0.0002599245,0.01848862,-0.776507437229156,-0.223964154720306,0.44685885310173,-0.704359365424783,-0.303066157419654,0.436032000487571,0
3.6399974822998,-2.45791053771973,1.6028174161911,2.75553178787231,-2.62348726424244,1.83700310238323,2.76692068077719,1953.673,3484.026,2903.666,0,-0.0006961503,-0.001676726,0.02063089,-0.763737678527832,-0.218060046434402,0.417853891849518,-0.691671935956746,-0.297607110965304,0.428177877260776,0
3.65999794006348,-2.47296047210693,1.59856033325195,2.76417326927185,-2.6371932403809,1.83110580375149,2.77540533291308,1529.535,2460.541,2020.848,2433.132,0.007360079,-0.002339321,0.01475985,-0.75252628326416,-0.212865620851517,0.432079970836639,-0.67887712865581,-0.292101862829246,0.420257282040303,0
3.67999839782715,-2.48775196075439,1.59442114830017,2.77223753929138,-2.65064230460817,1.82531904713786,2.78373094433754,1932.138,3492.122,2875.762,22.73619,0.001607335,-0.003698598,0.01695496,-0.739575624465942,-0.206961363554001,0.403209090232849,-0.665982380593835,-0.286553612975735,0.412274818727906,0
3.69999885559082,-2.50231218338013,1.59038662910461,2.78057503700256,-2.66383252129072,1.81964366539135,2.79189631680119,1525.224,2457.104,2011.258,2430.949,0.009531515,-0.004330833,0.01116664,-0.728012442588806,-0.201726824045181,0.416870981454849,-0.652994032435616,-0.280965089615694,0.404234412497143,0
3.71999740600586,-2.51661086082458,1.586470246315,2.78834557533264,-2.67676086214623,1.81408096149726,2.79989957565303,1911.334,3481.775,2839.994,72.85477,0.004002885,-0.00557879,0.01323839,-0.714920282363892,-0.195820033550262,0.388525158166885,-0.639919784131907,-0.275339605822821,0.396140829984331,0
3.73999786376953,-2.53067088127136,1.58265948295593,2.79636764526367,-2.68942811570037,1.808630596175,2.80774120902801,1531.611,2463.458,2015.747,2393.76,0.01159028,-0.006160424,0.007537107,-0.70300555229187,-0.190529957413673,0.401104032993317,-0.626763698705669,-0.269678909802388,0.38799658639423,0
3.7599983215332,-2.54446649551392,1.57896685600281,2.80384302139282,-2.70183149102237,1.80329377028414,2.81541948920704,1890.701,3460.55,2799.765,140.157,0.006341054,-0.007282148,0.009341953,-0.689778923988342,-0.184629887342453,0.373765379190445,-0.613533684877225,-0.263986404455806,0.379806577601466,0
3.77999877929688,-2.55801630020142,1.57538092136383,2.81153917312622,-2.7139695770734,1.79807109095524,2.82293354268985,1541.685,2483.081,2034.883,2324.367,0.01334592,-0.007819573,0.003805087,-0.677498698234558,-0.1793053150177,0.384804725646973,-0.60023651686137,-0.258265004538452,0.371574997167698,0
3.79999732971191,-2.57129907608032,1.57191181182861,2.81871724128723,-2.72583998000171,1.79296358819586,2.83028188756818,1865.318,3428.316,2757.786,226.6822,0.00843316,-0.008819324,0.005287506,-0.664134085178375,-0.173454612493515,0.358898848295212,-0.586880353750828,-0.252518220679987,0.363306895959991,0
3.81999778747559,-2.5843288898468,1.56854891777039,2.82607865333557,-2.73744382842632,1.78797077639275,2.83746522251097,1551.534,2513.549,2066.306,2231.697,0.01471616,-0.009324792,4.085762E-05,-0.65149337053299,-0.168151095509529,0.368065059185028,-0.573469638309223,-0.246747964477482,0.355005024260668,0
3.83999824523926,-2.59708881378174,1.56530058383942,2.83295798301697,-2.74877898265085,1.78309357619748,2.84448222294423,1837.38,3385.812,2713.797,329.6476,0.01025458,-0.01021695,0.001200833,-0.637996912002563,-0.162404119968414,0.343965083360672,-0.560012740982885,-0.240957837500146,0.346674563774748,0
3.85999870300293,-2.60958957672119,1.56215703487396,2.83997988700867,-2.75984459091511,1.77833235409867,2.85133236158783,1562.769,2552.25,2102.857,2124.301,0.01578408,-0.01070697,-0.003642139,-0.625029444694519,-0.157173231244087,0.351091831922531,-0.546516869536602,-0.235150941047811,0.338319976451988,0
3.8799991607666,-2.62181806564331,1.55912578105927,2.84656023979187,-2.77063994670143,1.77368741409115,2.85801520107368,1809.057,3335.892,2666.665,444.7699,0.01189042,-0.01151018,-0.002791525,-0.611420452594757,-0.151569038629532,0.329019010066986,-0.532989340125247,-0.229330423057526,0.32994579134077,0
3.89999771118164,-2.63378143310547,1.55619716644287,2.85324144363403,-2.78116350015273,1.7691594230351,2.8645297819664,1575.5,2595.7,2138.548,2011.902,0.01669904,-0.01199381,-0.007175088,-0.598180532455444,-0.146436721086502,0.334059119224548,-0.519438870577852,-0.223500034567577,0.321557405192552,0
3.91999816894531,-2.64547109603882,1.55337727069855,2.85952305793762,-2.79141684911929,1.7647476934202,2.87087709341145,1783.022,3282.621,2616.707,564.6305,0.01343128,-0.01272139,-0.006631271,-0.584484398365021,-0.140989109873772,0.314077466726303,-0.505870408491346,-0.2176619043907,0.313157880805522,0
