t,x_s1,x_s2,x_s3,x_s_d1,x_s_d2,x_s_d3,propellers_rpms1,propellers_rpms2,propellers_rpms3,propellers_rpms4,rollRad,pitchRad,yawRad,v_s1,v_s2,v_s3,v_s_d1,v_s_d2,v_s_d3,insideCount
0,-0.0599999986588955,2.94000005722046,1.17999994754791,-0.0599999986588955,2.94000005722046,1.17999994754791,0,0,0,0,0,45.0048027038574,0,0,0,0,-1.06581410364015E-15,4.44089209850063E-16,4.44089209850063E-16,0
0.0200042724609375,-0.0599999986588955,2.94000005722046,1.17705690860748,-0.0600018701838461,2.93999925195556,1.18000110611101,0,0,0,0,0.937003672122955,44.8630027770996,-0.00115976633969694,3.71994488546079E-08,3.50004931704007E-08,-0.147149950265884,-0.000280105751305916,-0.000120521679537258,0.00017339880334547,5
0.040008544921875,-0.0599999986588955,2.94000005722046,1.17018985748291,-0.060014880898484,2.93999365380853,1.18000916036316,0,0,0,0,1.87400352954865,44.7211418151855,-0.00311126722954214,3.70364325874561E-08,3.5142885934647E-08,-0.343349903821945,-0.00111143977225461,-0.000478221483967637,0.00068803416424398,6
0.05999755859375,-0.0599062219262123,2.94009447097778,1.16346526145935,-0.0600498857373401,2.93997859220429,1.18003083002592,3197.51,2848.855,1517.284,2782.413,1.40357756614685,44.7413597106934,0.0289044845849276,0.0046888580545783,0.0047190310433507,-0.336230665445328,-0.00247936261166862,-0.00106680046642749,0.00153484356504269,6
0.0800018310546875,-0.0597377754747868,2.94026732444763,1.15723788738251,-0.0601175574246769,2.93994947496775,1.18007272202403,2865.522,2651.769,2345.033,2562.481,0.339634984731674,44.8158531188965,0.0997257083654404,0.00842230394482613,0.0086448211222887,-0.311366707086563,-0.00437268608126799,-0.00188144466206175,0.00270690098422899,6
0.100006103515625,-0.0595562793314457,2.94046425819397,1.15152072906494,-0.0602282404704493,2.93990185114529,1.18014124010193,2240.313,2528.419,3138.079,2508.641,359.321685791016,44.9191360473633,0.178483054041862,0.00907488539814949,0.00984904542565346,-0.285856485366821,-0.00677739276378709,-0.00291612276782231,0.00419552897277328,5
0.120010375976563,-0.0594243556261063,2.94063234329224,1.14657139778137,-0.0603920338334453,2.93983137543704,1.18024263599618,2124.172,2455.065,3351.949,2464.696,358.750030517578,44.9999046325684,0.253309011459351,0.00659617083147168,0.0083983289077878,-0.247465461492538,-0.00968041450003567,-0.00416521191989172,0.00599263771761404,5
0.139999389648438,-0.0593829229474068,2.94074034690857,1.14257478713989,-0.0606185767455666,2.93973390035084,1.18038287685052,2312.547,2456.897,3069.436,2463.7,358.636138916016,45.0326957702637,0.326384514570236,0.00207169679924846,0.00539872422814369,-0.19982972741127,-0.0130660253322238,-0.00562194567796536,0.00808849210174802,5
0.160003662109375,-0.0594432726502419,2.94078588485718,1.13953077793121,-0.0609177895434042,2.93960515744296,1.18056810382587,2536.563,2486.936,2636.209,2492.376,358.757019042969,45.0250701904297,0.398101091384888,-0.00301741063594818,0.00227913120761514,-0.152201592922211,-0.0169265510445065,-0.00728302204135792,0.0104783414199936,5
0.180007934570313,-0.0595999844372272,2.94078183174133,1.1373188495636,-0.0612988491946875,2.93944119812059,1.1808039979024,2667.161,2506.563,2302.784,2513.425,358.864410400391,44.9986190795898,0.467273682355881,-0.00783566292375326,-0.000198697671294212,-0.110597878694534,-0.0212468478482708,-0.00914192506089775,0.0131528109458008,5
0.199996948242188,-0.0598475411534309,2.94073987007141,1.13577461242676,-0.0617704296168641,2.93923829023936,1.18109592864822,2654.044,2500.607,2183.603,2508.995,358.817199707031,44.9744415283203,0.532836675643921,-0.0123778972774744,-0.00209261989220977,-0.0772094130516052,-0.0260104776919234,-0.0111915819022102,0.0161017247421801,5
0.220001220703125,-0.0601894706487656,2.94066214561462,1.13476347923279,-0.0623420644491781,2.93899233174064,1.18144979784016,2540.432,2470.782,2246.562,2479.56,358.612762451172,44.9637603759766,0.59438818693161,-0.0170965194702148,-0.00388255761936307,-0.0505546107888222,-0.03121219533433,-0.0134297356845702,0.019321835755004,5
0.240005493164063,-0.0606387332081795,2.9405415058136,1.13421726226807,-0.0630219993990999,2.93869977472688,1.18187070996396,2412.645,2430.369,2374.387,2437.64,358.335113525391,44.9659652709961,0.652515590190887,-0.0224631130695343,-0.00603334326297045,-0.0273096915334463,-0.0368361158647881,-0.0158495515746756,0.0228033104678445,5
0.260009765625,-0.0612131021916866,2.94036602973938,1.13412117958069,-0.0638185570309634,2.93835703823113,1.18236381708338,2330.327,2392.571,2462.875,2399.124,358.076782226563,44.9739265441895,0.707670569419861,-0.0287184529006481,-0.00877011008560658,-0.00480496324598789,-0.0428699302682246,-0.0184457333472145,0.0265385290140116,4
0.279998779296875,-0.0619296468794346,2.94012498855591,1.13447892665863,-0.0647390625194898,2.93796097043536,1.18293365383054,2306.296,2365.658,2470.637,2371.287,357.887359619141,44.9803733825684,0.760476112365723,-0.0358273349702358,-0.0120580065995455,0.0178899317979813,-0.0492963837173861,-0.0212108567320638,0.030516809833474,4
0.300003051757813,-0.0628012120723724,2.93981075286865,1.13528311252594,-0.0657927507678135,2.93750759781875,1.18358593705038,2317.494,2348.579,2416.99,2354.28,357.765441894531,44.9818801879883,0.811035096645355,-0.043578427284956,-0.0157083086669445,0.0402084216475487,-0.0561132031658829,-0.0241439437008635,0.0347367458022363,4
0.32000732421875,-0.0638360902667046,2.93942022323608,1.13650619983673,-0.0669865614821475,2.93699393441958,1.18432496275165,2335.876,2337.367,2343.061,2341.995,357.679321289063,44.9789123535156,0.85979700088501,-0.0517437756061554,-0.0195269640535116,0.0611538626253605,-0.0633036493784043,-0.0272377918282996,0.0391879745362408,4
0.339996337890625,-0.065039798617363,2.93895196914673,1.13810443878174,-0.068326768706371,2.93641728069206,1.18515461486636,2338.696,2325.473,2287.157,2330.736,357.595123291016,44.974193572998,0.906385958194733,-0.0601852871477604,-0.0234070867300034,0.0799137204885483,-0.0708499516420146,-0.0304847548730522,0.0438594951176439,4
0.360000610351563,-0.0664173737168312,2.93840503692627,1.14003133773804,-0.0698225328270578,2.93577369517774,1.1860805641102,2322.354,2311.016,2263,2316.879,357.495391845703,44.9703788757324,0.950435698032379,-0.0688787624239922,-0.0273447260260582,0.0963431298732758,-0.0787518717320621,-0.0338847303337087,0.0487511600740379,4
0.3800048828125,-0.0679747387766838,2.9377772808075,1.14224851131439,-0.0714797725314022,2.93506063123087,1.18710647443246,2296.751,2295.331,2261.249,2300,357.380798339844,44.9686088562012,0.992404222488403,-0.0778682827949524,-0.031392514705658,0.110859140753746,-0.0869921272359981,-0.0374302820709642,0.0538522707687797,4
0.400009155273438,-0.0697187632322311,2.9370653629303,1.14472699165344,-0.0733051402689975,2.93427522648826,1.18823646401636,2269.527,2278.632,2268.981,2283.645,357.262542724609,44.9687919616699,1.03214406967163,-0.0872010961174965,-0.035600833594799,0.12392619997263,-0.0955591682828665,-0.0411164404980124,0.0591556772815509,4
0.419998168945313,-0.071656696498394,2.93626546859741,1.14744699001312,-0.0753034649285836,2.93341540321397,1.18947352217404,2249.766,2263.696,2271.759,2268.527,357.152679443359,44.9699363708496,1.06977558135986,-0.096896767616272,-0.0399915985763073,0.136002153158188,-0.104434660908044,-0.0449353170220673,0.0646500300148815,4
0.44000244140625,-0.0737953633069992,2.93537449836731,1.15039229393005,-0.077483988232608,2.93247718495301,1.19082336997196,2237.838,2250.963,2265.287,2256.13,357.057800292969,44.9711456298828,1.10519993305206,-0.106933392584324,-0.0445504188537598,0.147267371416092,-0.113620829717891,-0.048887868829098,0.0703367061060819,4
0.460006713867188,-0.0761407241225243,2.93438959121704,1.15354835987091,-0.0798512213598696,2.93145863067119,1.19228880004469,2233.669,2241.572,2249.133,2245.273,356.976806640625,44.9717559814453,1.139075756073,-0.117268227040768,-0.0492450743913651,0.157802060246468,-0.123099793815011,-0.0529664022684887,0.0762046364278779,4
0.480010986328125,-0.0786977484822273,2.93330883979797,1.15689730644226,-0.0824109101018722,2.93035726811493,1.19387336931088,2229.026,2232.829,2232.948,2237.031,356.904693603516,44.9719314575195,1.17118120193481,-0.127851396799088,-0.0540395379066467,0.16745001077652,-0.132860437136906,-0.0571661344090936,0.082246939608052,4
0.5,-0.08147082477808,2.93213057518005,1.16042172908783,-0.085166398670376,2.92917165836334,1.1955791479969,2223.379,2225.019,2220.183,2229.238,356.836791992188,44.9720306396484,1.20148944854736,-0.138653948903084,-0.0589150004088879,0.176220670342445,-0.142884000065179,-0.0614789935111996,0.0884520025491718,5
0.520004272460938,-0.0844640284776688,2.93085336685181,1.1641047000885,-0.088127196023106,2.92789770997757,1.19741202260058,2215.098,2217.262,2213.345,2222.067,356.771148681641,44.9724044799805,1.22973132133484,-0.149660244584084,-0.0638653710484505,0.184148281812668,-0.153174893518032,-0.065906877469682,0.0948225558197254,5
0.540008544921875,-0.0876814052462578,2.92947554588318,1.16793346405029,-0.0912963635428427,2.92653410573011,1.19937388826368,2208.709,2211.237,2207.666,2214.27,356.70751953125,44.9730377197266,1.25666499137878,-0.160868853330612,-0.0688945353031158,0.191438645124435,-0.163714777034477,-0.0704418948965508,0.101347245800684,5
0.55999755859375,-0.0911268293857574,2.92799544334412,1.17189574241638,-0.094676112580471,2.92507989413848,1.20146611391775,2200.849,2204.706,2205.36,2208.371,356.646881103516,44.9739875793457,1.28201425075531,-0.172271370887756,-0.0740005820989609,0.198116779327393,-0.17448465888317,-0.0750758741803766,0.108014315705644,5
0.580001831054688,-0.0948040783405304,2.92641186714172,1.1759819984436,-0.0982762614093182,2.92353085067394,1.20369477754168,2193.999,2198.724,2204.059,2203.205,356.591217041016,44.9752159118652,1.3054347038269,-0.183862507343292,-0.0791827961802483,0.204313561320305,-0.185490414529404,-0.0798113433697334,0.11482740272751,5
0.600006103515625,-0.0987167656421661,2.92472314834595,1.18018615245819,-0.102098762959148,2.92188613504538,1.20606108809202,2191.774,2195.173,2198.885,2197.768,356.540985107422,44.9763412475586,1.32775259017944,-0.195634469389915,-0.0844376459717751,0.210209116339684,-0.196713446836865,-0.0846403006364086,0.121774994352997,5
0.620010375976563,-0.10286808013916,2.92292809486389,1.1845006942749,-0.106147859919355,2.92014392174208,1.20856767199563,2188.344,2191.238,2195.181,2194.529,356.495391845703,44.9774589538574,1.34866559505463,-0.207565993070602,-0.0897521898150444,0.21572944521904,-0.20814339888717,-0.0895582896877615,0.128850679156259,5
0.639999389648438,-0.107261009514332,2.92102575302124,1.18891990184784,-0.110424235525481,2.91830391678686,1.21121495220784,2186.012,2188.2,2191.803,2191.521,356.453857421875,44.9785537719727,1.36816155910492,-0.219646528363228,-0.0951204225420952,0.220960482954979,-0.219761081350814,-0.0945570538913933,0.136042578028218,5
0.660003662109375,-0.111898258328438,2.9190149307251,1.19343817234039,-0.114938248900541,2.91636166293851,1.21400934151928,2182.912,2185.234,2190.419,2189.373,356.416198730469,44.9797401428223,1.38588500022888,-0.231862723827362,-0.100535981357098,0.225914373993874,-0.231574097577923,-0.0996398647564507,0.143355397804799,5
0.680007934570313,-0.116782456636429,2.91689491271973,1.19805312156677,-0.119690355154666,2.91431696437584,1.21695112166479,2183.251,2184.474,2186.592,2186.336,356.381713867188,44.9807815551758,1.40282082557678,-0.24420964717865,-0.105997607111931,0.230747237801552,-0.243563621239988,-0.104798621839723,0.150777484091833,5
0.699996948242188,-0.121915891766548,2.91466498374939,1.20276045799255,-0.124680083855354,2.91217002351282,1.22004000142426,2181.139,2182.554,2185.801,2185.403,356.349639892578,44.9818916320801,1.41853630542755,-0.256671696901321,-0.111496940255165,0.235368952155113,-0.255710395848158,-0.11002503961202,0.158296916205407,5
0.720001220703125,-0.127300769090652,2.91232442855835,1.20755743980408,-0.129918284978346,2.90991617190799,1.22328269744952,2178.692,2180.725,2186.996,2184.686,356.320678710938,44.9831390380859,1.43255114555359,-0.269243985414505,-0.117032766342163,0.239849150180817,-0.268023157655716,-0.11532287703907,0.16591910230247,5
0.740005493164063,-0.132939264178276,2.90987229347229,1.2124445438385,-0.13540428105644,2.90755570105657,1.22667879035609,2180.26,2181.252,2184.758,2182.835,356.294708251953,44.9842491149902,1.4458988904953,-0.281924903392792,-0.122606158256531,0.244354724884033,-0.280482990349159,-0.120683994959631,0.173632332283853,5
0.760009765625,-0.138833224773407,2.90730810165405,1.21741986274719,-0.141140917956636,2.9050873864615,1.23023004187122,2179.293,2180.542,2185.123,2183.064,356.271118164063,44.9853630065918,1.45816874504089,-0.294697970151901,-0.128208145499229,0.248768538236618,-0.293080296154222,-0.126104263719567,0.181430664670081,5
0.779998779296875,-0.144984424114227,2.90463137626648,1.22248351573944,-0.147126184485884,2.90251209348295,1.23393520697061,2179.32,2180.42,2185.632,2183.078,356.250091552734,44.9864845275879,1.46930265426636,-0.307560354471207,-0.133838057518005,0.25318244099617,-0.305795832832518,-0.131575403921268,0.189302187598958,5
0.800003051757813,-0.151394471526146,2.90184164047241,1.22763526439667,-0.153371683173492,2.89982482987671,1.2378014681726,2178.398,2180.049,2187.69,2183.719,356.232238769531,44.9876747131348,1.47886502742767,-0.320502281188965,-0.139491945505142,0.257587194442749,-0.318639638509124,-0.13710173468952,0.197253115148089,5
0.82000732421875,-0.158064916729927,2.89893817901611,1.23287808895111,-0.159875221826383,2.89702653888221,1.24182746840525,2181.699,2181.989,2185.695,2183.062,356.217041015625,44.9886245727539,1.48798394203186,-0.333522021770477,-0.145170316100121,0.262139648199081,-0.331592781842754,-0.14267511039705,0.205271727915392,5
0.839996337890625,-0.164996936917305,2.89592099189758,1.23821175098419,-0.166633637018892,2.89411858163313,1.24601124935738,2181.786,2182.328,2186.716,2184.497,356.203582763672,44.9895858764648,1.49617612361908,-0.346601963043213,-0.150863379240036,0.266684710979462,-0.344636106234817,-0.148287288494656,0.213346167053785,5
0.860000610351563,-0.172191709280014,2.89278960227966,1.24363720417023,-0.173659158941841,2.89109569582005,1.2503603820997,2181.218,2182.348,2189.637,2185.969,356.192504882813,44.9906425476074,1.50281596183777,-0.35973858833313,-0.15657052397728,0.271270602941513,-0.357780475378537,-0.153942943326036,0.221483157706883,5
0.8800048828125,-0.179650351405144,2.88954377174377,1.24915838241577,-0.180948461186242,2.88795931270381,1.25487280742661,2184.896,2184.91,2188.385,2185.704,356.183532714844,44.9914817810059,1.50913083553314,-0.372932612895966,-0.162294179201126,0.276057749986649,-0.371007022483504,-0.159633957038354,0.229671020432672,5
0.900009155273438,-0.187373712658882,2.88618326187134,1.25477600097656,-0.188503099076414,2.88470876307182,1.25954948815793,2185.188,2185.584,2190.15,2187.642,356.175994873047,44.9923248291016,1.51456606388092,-0.386167168617249,-0.168025180697441,0.280880212783813,-0.384306908919572,-0.165356526615982,0.237904283698049,5
0.919998168945313,-0.195362538099289,2.88270807266235,1.26049244403839,-0.196318384305134,2.8813460641717,1.26438752200817,2186.281,2186.734,2192.001,2188.955,356.170135498047,44.9931793212891,1.5190521478653,-0.399442136287689,-0.173764675855637,0.285822659730911,-0.397661187980262,-0.171102499820431,0.246171218589148,5
0.94000244140625,-0.203617513179779,2.87911796569824,1.2663094997406,-0.204407453948074,2.87786556348678,1.26939504145298,2186.061,2187.313,2195.437,2190.753,356.166870117188,44.9940986633301,1.52206408977509,-0.412748903036118,-0.179510086774826,0.290855467319489,-0.411081631631503,-0.176876941799768,0.254479112513653,5
0.960006713867188,-0.212139278650284,2.87541270256042,1.27223229408264,-0.212765478812529,2.87426933888379,1.27456905699201,2190.554,2190.4,2193.89,2190.79,356.165802001953,44.9947471618652,1.52492761611938,-0.426088124513626,-0.18526303768158,0.296141237020493,-0.424549556012544,-0.182671813410681,0.262816399271726,5
0.980010986328125,-0.220928102731705,2.87159252166748,1.27826189994812,-0.221393324468958,2.87055701793193,1.27991010445463,2191.193,2191.33,2195.556,2193.138,356.165893554688,44.9953842163086,1.52701890468597,-0.439440816640854,-0.191012933850288,0.301480978727341,-0.438056556301695,-0.188483498293199,0.271177875878363,5
1,-0.229984253644943,2.86765718460083,1.2844010591507,-0.230284798736574,2.86673126495361,1.28541435058594,2192.526,2192.649,2197.356,2194.719,356.167327880859,44.996021270752,1.52822721004486,-0.452807575464249,-0.19676111638546,0.306956142187119,-0.451584000205995,-0.194303979492187,0.279552008056641,5
1.02000427246094,-0.239307850599289,2.86360716819763,1.29065155982971,-0.239454009753966,2.86278600961093,1.2910905289958,2192.142,2193.316,2201.094,2196.631,356.171051025391,44.9967460632324,1.52801370620728,-0.466179966926575,-0.202505171298981,0.31252333521843,-0.465144357597929,-0.200138622445408,0.287946515251652,5
1.04000854492188,-0.248899042606354,2.85944223403931,1.2970187664032,-0.248894644448595,2.85872396824263,1.29693473159157,2196.846,2196.475,2199.392,2196.671,356.176666259766,44.9971923828125,1.52773499488831,-0.479560285806656,-0.20824784040451,0.318358898162842,-0.47871923339115,-0.205979512261105,0.296350010028666,5
1.05999755859375,-0.258757621049881,2.85516262054443,1.30350363254547,-0.258599401509697,2.85454828239877,1.30294243851408,2197.269,2197.356,2201.156,2199.022,356.183197021484,44.9976463317871,1.52674376964569,-0.492928951978683,-0.213978454470634,0.3242407143116,-0.492290296490434,-0.211818761581115,0.30475114456651,5
1.08000183105469,-0.268883287906647,2.85076856613159,1.31010770797729,-0.268583149539609,2.85025255453512,1.30912285413647,2196.694,2197.683,2204.932,2201.075,356.191711425781,44.9982147216797,1.52429699897766,-0.506284296512604,-0.219697430729866,0.330206215381622,-0.50587040849135,-0.217661904390701,0.313157880805523,5
1.10000610351563,-0.279275864362717,2.84626030921936,1.3168363571167,-0.278838480013141,2.84583997233313,1.31547139222872,2201.24,2200.837,2203.184,2200.853,356.201843261719,44.9985389709473,1.52186000347137,-0.519629418849945,-0.225408509373665,0.336432546377182,-0.519441457145546,-0.223501147495394,0.321559006401169,5
1.12001037597656,-0.289934784173965,2.8416383266449,1.32369017601013,-0.289365134970699,2.84131064678559,1.32198789310157,2201.355,2201.471,2204.992,2203.111,356.212799072266,44.9988746643066,1.51872074604034,-0.532945036888123,-0.231101095676422,0.34269043803215,-0.532995796775449,-0.22933320117373,0.329949788314817,5
1.13999938964844,-0.300859421491623,2.83690285682678,1.33067154884338,-0.300154365346813,2.83666834237095,1.3286669406667,2202.304,2202.499,2206.705,2204.411,356.224914550781,44.9992218017578,1.51476502418518,-0.546233236789703,-0.236777454614639,0.349068075418472,-0.546515580872639,-0.235150386571708,0.338319178707607,5
1.16000366210938,-0.312049150466919,2.83205413818359,1.33778178691864,-0.311222084148811,2.83190621216671,1.33551838583369,2201.396,2202.721,2210.293,2206.067,356.239379882813,44.9996681213379,1.50937330722809,-0.559485256671906,-0.24243500828743,0.355510503053665,-0.560014026276883,-0.240958390526247,0.34667535943296,6
1.18000793457031,-0.323503196239471,2.82709264755249,1.34502589702606,-0.322559451663168,2.82702805965467,1.34253675639879,2206.09,2205.76,2207.722,2205.488,356.255676269531,44.9998168945313,1.50411784648895,-0.572703719139099,-0.248076751828194,0.362203747034073,-0.573473482003304,-0.246749618311663,0.355007403690405,6
1.19999694824219,-0.335220545530319,2.82201886177063,1.35240375995636,-0.334156660511822,2.8220381046756,1.34971598112778,2206.008,2206.072,2208.903,2207.569,356.272766113281,44.9999885559082,1.49822103977203,-0.585867822170258,-0.253690630197525,0.368895292282104,-0.58687652428584,-0.252516572968185,0.36330452533874,6
1.22000122070313,-0.347200065851212,2.81683325767517,1.35991609096527,-0.346030421585499,2.81692915700008,1.35706640485806,2204.705,2205.77,2212.344,2209.224,356.291656494141,45.0002899169922,1.49084043502808,-0.598976254463196,-0.25927734375,0.375619620084763,-0.600236516861372,-0.258265004538453,0.371574997167698,6
1.24000549316406,-0.359440743923187,2.81153655052185,1.36756753921509,-0.358170848086624,2.8117054706409,1.36458190719098,2209.014,2208.587,2209.704,2208.258,356.312042236328,45.0003280639648,1.48361766338348,-0.612033009529114,-0.264841169118881,0.382569670677185,-0.613536214864368,-0.263987493038594,0.379808143784027,6
1.260009765625,-0.371941119432449,2.80612921714783,1.37535727024078,-0.37057666480527,2.80636759428526,1.37226169871082,2208.363,2208.527,2211.008,2210.065,356.333038330078,45.000415802002,1.47573435306549,-0.625018298625946,-0.270371079444885,0.389489561319351,-0.626768731761373,-0.26968107538565,0.387999702095469,6
1.27999877929688,-0.384699821472168,2.80061173439026,1.38328671455383,-0.383236695417198,2.80092033679326,1.3800988607405,2208.583,2208.95,2212.239,2210.7,356.355072021484,45.0005264282227,1.46710193157196,-0.637935042381287,-0.275869786739349,0.396474301815033,-0.639917282339435,-0.275338529371412,0.396139281255613,6
1.30000305175781,-0.397715300321579,2.79498505592346,1.39135599136353,-0.396168722856641,2.79535604666509,1.38810440176341,2206.783,2208.421,2215.476,2211.771,356.379516601563,45.0007858276367,1.45702981948853,-0.650774776935577,-0.281334936618805,0.403464198112488,-0.652995275331231,-0.280965624398954,0.404235181908735,6
1.32000732421875,-0.410986095666885,2.78924965858459,1.399569272995,-0.409361504843077,2.78967956113998,1.39627136227237,2211.25,2210.943,2211.818,2210.398,356.405853271484,45.0007286071777,1.44721114635468,-0.663540780544281,-0.286769509315491,0.410664021968842,-0.6659860834168,-0.286555206197011,0.41227711095171,6
1.33999633789063,-0.424510270357132,2.78340649604797,1.40792512893677,-0.422802873722428,2.78389611561957,1.40459220990988,2210.338,2210.524,2212.362,2211.912,356.432800292969,45.0007019042969,1.43679714202881,-0.676211059093475,-0.292160719633102,0.417790770530701,-0.678873453515705,-0.29210028151913,0.420255006953505,6
1.36000061035156,-0.438286006450653,2.77745628356934,1.41642284393311,-0.436511415158101,2.77799771321212,1.41307845008695,2208.166,2209.438,2215.313,2212.952,356.461608886719,45.0008277893066,1.42487251758575,-0.688785135746002,-0.297509461641312,0.424885958433151,-0.691670720740693,-0.297606588091785,0.42817712498415,6
1.3800048828125,-0.452311336994171,2.771399974823,1.4250659942627,-0.450474904562636,2.77198961381608,1.4217225152016,2212.104,2211.719,2211.687,2211.131,356.491851806641,45.0006790161133,1.41321694850922,-0.701267421245575,-0.302820414304733,0.432157546281815,-0.704361775018035,-0.303067194200314,0.436033492140578,6
1.40000915527344,-0.466584056615829,2.7652382850647,1.43385255336761,-0.464691155755482,2.76587275808388,1.43052305190393,2210.598,2210.925,2212.39,2212.317,356.522552490234,45.0006065368652,1.40096127986908,-0.713637888431549,-0.308081954717636,0.439327746629715,-0.716940488958393,-0.308479463400265,0.443820315276901,6
1.41999816894531,-0.481102108955383,2.75897240638733,1.44278264045715,-0.47914673136562,2.75965292774086,1.43947174182117,2210.081,2210.624,2213.009,2212.268,356.554260253906,45.0005798339844,1.38800132274628,-0.725900232791901,-0.313297241926193,0.446501851081848,-0.729391385793766,-0.313836736470737,0.451528013536465,6
1.44000244140625,-0.495862990617752,2.75260305404663,1.45185494422913,-0.493861275572861,2.75332167044526,1.4485807456364,2207.414,2209.264,2215.761,2212.769,356.588439941406,45.0007095336914,1.37353467941284,-0.73804646730423,-0.318463802337646,0.453617066144943,-0.741727567798258,-0.319144650954242,0.459164697851088,6
1.46000671386719,-0.510864615440369,2.7461314201355,1.46107280254364,-0.508821304757097,2.74688478782212,1.45784171634646,2211.522,2211.349,2211.142,2210.457,356.62451171875,45.0005111694336,1.35946822166443,-0.75007963180542,-0.323584884405136,0.460893303155899,-0.753933682518823,-0.324396601119133,0.466720864320996,6
1.48001098632813,-0.526104092597961,2.73955845832825,1.47043335437775,-0.524024159888143,2.74034342397783,1.467253007885,2209.845,2210.136,2211.033,2211.466,356.6611328125,45.000358581543,1.3448314666748,-0.761978149414063,-0.32864710688591,0.468028843402863,-0.766004036374583,-0.329590137176618,0.474192988348404,6
1.5,-0.541579008102417,2.73288536071777,1.479936003685,-0.539455198877605,2.73370387899399,1.4768055561018,2209.094,2209.509,2211.018,2211.091,356.698608398438,45.0002479553223,1.32951700687408,-0.773745536804199,-0.333653301000595,0.475130409002304,-0.777924000354858,-0.334718964672088,0.481572013878822,6
1.52000427246094,-0.557286500930786,2.72611331939697,1.48957860469818,-0.555135099954955,2.72695725560613,1.48651216180595,2205.879,2207.765,2213.562,2211.269,356.738342285156,45.000316619873,1.31269514560699,-0.785374104976654,-0.338601291179657,0.48213067650795,-0.789706299681991,-0.339788558913217,0.48886581843107,6
1.54000854492188,-0.573223829269409,2.71924352645874,1.49936389923096,-0.571049184024557,2.72010986981902,1.49636373793799,2209.734,2209.518,2208.58,2208.536,356.779754638672,45.0000686645508,1.296311378479,-0.796867847442627,-0.343494921922684,0.48926505446434,-0.801336412291853,-0.344792671461508,0.496065412155667,6
1.55999755859375,-0.589388012886047,2.71227717399597,1.50928831100464,-0.587181951496087,2.71316839067337,1.50635068951315,2207.551,2207.959,2208.327,2209.193,356.821655273438,44.999885559082,1.27939736843109,-0.808206140995026,-0.348321467638016,0.496223509311676,-0.812800388649436,-0.349725300221754,0.503162159625937,6
1.58000183105469,-0.605775773525238,2.70521545410156,1.51934945583344,-0.60355483331529,2.70612359703193,1.51648628330776,2204,2205.728,2210.774,2209.336,356.865417480469,44.9999122619629,1.26092982292175,-0.819389522075653,-0.35308238863945,0.503056108951569,-0.824110582941666,-0.354591760855452,0.510163708672098,6
1.60000610351563,-0.622384130954742,2.69805979728699,1.52954947948456,-0.620152298932711,2.69898217125626,1.52676090517188,2207.529,2207.303,2205.766,2206.23,356.91064453125,44.9996337890625,1.24293839931488,-0.830422461032867,-0.357782423496246,0.510000944137573,-0.835253140422976,-0.35938609205264,0.51706148254665,5
1.62001037597656,-0.639209926128387,2.69081163406372,1.53988444805145,-0.636970945360177,2.69174557755711,1.53717244849371,2204.913,2205.456,2205.593,2206.667,356.956237792969,44.9994506835938,1.22442483901978,-0.841285824775696,-0.362409621477127,0.516748070716858,-0.846223126656604,-0.364106170663034,0.523852426598179,5
1.63999938964844,-0.656249523162842,2.68347239494324,1.55035281181335,-0.653994195024907,2.68442094880091,1.54771065096602,2203.48,2204.16,2205.345,2205.775,357.002746582031,44.9993171691895,1.20521903038025,-0.851983964443207,-0.36696720123291,0.523418009281158,-0.857007552155828,-0.368746407673381,0.530528499715628,5
1.66000366210938,-0.673499763011932,2.67604327201843,1.56095170974731,-0.671244443874359,2.67699864863716,1.55838937674714,2199.693,2201.92,2207.462,2205.399,357.0517578125,44.999382019043,1.18451726436615,-0.862509548664093,-0.371453166007996,0.529945135116577,-0.867618167158098,-0.373311858882592,0.53709697585572,5
1.68000793457031,-0.690957009792328,2.66852593421936,1.57168316841125,-0.688705090349012,2.66948582025311,1.56919834868089,2203.425,2203.301,2201.629,2202.02,357.1025390625,44.9991073608398,1.16438019275665,-0.872865319252014,-0.37587034702301,0.536571323871613,-0.878042061913515,-0.377796969585941,0.543549863268291,5
1.69999694824219,-0.708617687225342,2.6609218120575,1.58254265785217,-0.706358800111611,2.66188992212981,1.58012683598675,2200.78,2201.217,2200.75,2202.326,357.153717041016,44.9988746643066,1.14376699924469,-0.883031606674194,-0.38020595908165,0.542972266674042,-0.888267004546665,-0.382196476749158,0.549879589839776,5
1.72000122070313,-0.726477861404419,2.65323257446289,1.59352660179138,-0.724228658537036,2.6542010212754,1.5911891296115,2196.627,2198.476,2202.831,2202.086,357.206665039063,44.9988784790039,1.12160122394562,-0.89300936460495,-0.384461492300034,0.549199342727661,-0.898304216251578,-0.386515208538549,0.556093102023817,5
1.74000549316406,-0.744533836841583,2.64545965194702,1.60463666915894,-0.742297311768984,2.64642658456943,1.60237448669139,2199.998,2199.684,2197.177,2198.408,357.260894775391,44.9985694885254,1.09999513626099,-0.902802646160126,-0.388641506433487,0.555505752563477,-0.908141534469281,-0.390747931744771,0.562182870617028,5
1.760009765625,-0.762781798839569,2.63760495185852,1.61586797237396,-0.760560719141003,2.63856835059778,1.61368040586141,2196.779,2197.411,2196.718,2198.459,357.315307617188,44.9983711242676,1.07793629169464,-0.912394344806671,-0.392735004425049,0.561567604541779,-0.91777478390713,-0.394892849856044,0.568146310914365,4
1.77999877929688,-0.781217575073242,2.62967014312744,1.62721824645996,-0.779000609654483,2.63063418086074,1.62509557650306,2194.899,2195.668,2196.18,2197.175,357.370483398438,44.9982490539551,1.05523025989532,-0.921789407730103,-0.396745473146439,0.567516565322876,-0.927192788821983,-0.398945154262308,0.57397650459845,4
1.80000305175781,-0.799837172031403,2.62165665626526,1.63868391513824,-0.797640935141499,2.62261376955408,1.63663482594136,2190.554,2192.986,2198.115,2196.474,357.428161621094,44.9983329772949,1.0310263633728,-0.930981457233429,-0.400671273469925,0.573285818099976,-0.936405971974637,-0.402909329586356,0.579679903854719,4
1.82000732421875,-0.81863659620285,2.61356639862061,1.65026652812958,-0.816463410111527,2.61451498441355,1.64828683458664,2194.252,2194.124,2191.694,2192.545,357.487548828125,44.9980430603027,1.00751316547394,-0.939972341060638,-0.404514968395233,0.579131245613098,-0.94540321420156,-0.406780591562751,0.585249625391268,3
1.83999633789063,-0.837611436843872,2.60540103912354,1.66196084022522,-0.835449117627072,2.60634596486888,1.66003989195343,2191.153,2191.639,2190.507,2192.622,357.547149658203,44.9978218078613,0.983578205108643,-0.948744535446167,-0.408264398574829,0.584712982177734,-0.954174163352093,-0.410554485950274,0.590679260733698,3
1.86000061035156,-0.856757402420044,2.59716272354126,1.67376255989075,-0.854622615239374,2.59809614449182,1.6719092003358,2186.561,2188.556,2192.372,2192.089,357.608489990234,44.9978485107422,0.95812451839447,-0.957299470901489,-0.411921143531799,0.590089023113251,-0.962728579444532,-0.414235212212131,0.595974851798267,0
1.8800048828125,-0.876070201396942,2.58885288238525,1.68567299842834,-0.873964974649439,2.58977366760063,1.68388304221498,2189.906,2189.471,2186.23,2188.014,357.670928955078,44.9975509643555,0.933307468891144,-0.965640366077423,-0.415489464998245,0.595522820949554,-0.971056158224177,-0.417818336715394,0.601130019760457,0
1.90000915527344,-0.895545303821564,2.58047366142273,1.6976865530014,-0.893471623792247,2.58138050142717,1.69595858726494,2186.246,2186.92,2185.567,2187.817,357.733367919922,44.9973640441895,0.908102452754974,-0.973752498626709,-0.4189592897892,0.600678205490112,-0.979153483542501,-0.421302389586788,0.606142649861596,0
1.91999816894531,-0.915178120136261,2.57202696800232,1.70980048179626,-0.913122862707269,2.57292512231409,1.70812364027167,2184.096,2184.911,2184.802,2186.229,357.796447753906,44.9972648620605,0.882332384586334,-0.981640994548798,-0.422334343194962,0.605696380138397,-0.987011339258123,-0.424683405378145,0.611007036871143,0
1.94000244140625,-0.934964120388031,2.56351470947266,1.72201061248779,-0.932943991899774,2.5643966441608,1.72039386345315,2179.348,2181.933,2186.612,2185.338,357.861907958984,44.997371673584,0.855099618434906,-0.989300668239594,-0.425613313913345,0.610508620738983,-0.994638524886308,-0.427965170275055,0.615728628108227,0
1.96000671386719,-0.954898774623871,2.55493879318237,1.73431825637817,-0.952915303453826,2.55580354673295,1.73275705667061,2183.094,2182.846,2179.775,2181.068,357.928955078125,44.9970932006836,0.828641414642334,-0.996732234954834,-0.428798228502274,0.615381598472595,-1.00202586176059,-0.431143734953757,0.620301741541062,0
1.97999572753906,-0.974977195262909,2.5463011264801,1.74671757221222,-0.973016570682103,2.54715453300902,1.74520069864106,2179.662,2180.155,2178.397,2180.966,357.996032714844,44.996898651123,0.80183333158493,-1.0039210319519,-0.431877940893173,0.619963884353638,-1.00916501115878,-0.434215511495054,0.624721215103391,0
2,-0.995194613933563,2.53760409355164,1.75920391082764,-0.993273599084619,2.53843849960327,1.7577407641983,2174.746,2176.827,2180.156,2180.285,358.064697265625,44.9969635009766,0.773539662361145,-1.01086890697479,-0.434854447841644,0.624318599700928,-1.01606400046349,-0.437183953857422,0.628992018127441,0
2.02000427246094,-1.01554608345032,2.52884936332703,1.77177822589874,-1.01366615605493,2.52966415204104,1.77036472839513,2178.12,2177.591,2173.719,2175.868,358.13427734375,44.9966735839844,0.745993793010712,-1.01757788658142,-0.437731564044952,0.628717005252838,-1.02271452148052,-0.440045487257004,0.633109007445237,0
2.04000854492188,-1.03602683544159,2.52003931999207,1.78443455696106,-1.03418924440916,2.52083364047092,1.78306949773667,2174.197,2174.861,2172.896,2175.549,358.203643798828,44.9965133666992,0.718150496482849,-1.02403652667999,-0.440500497817993,0.632816076278687,-1.02911391720548,-0.442798968459032,0.637070538244476,0
2.05999755859375,-1.05663180351257,2.51117610931396,1.79716980457306,-1.05482201812353,2.5119559343546,1.79584216754118,2171.847,2172.639,2172.015,2173.828,358.273498535156,44.9964370727539,0.689796447753906,-1.03024971485138,-0.443164587020874,0.636760234832764,-1.03525504859546,-0.445441325732794,0.640872191117535,0
2.08000183105469,-1.07735621929169,2.50226163864136,1.80997943878174,-1.07559088172821,2.50301967256038,1.80869908347065,2166.865,2169.492,2173.724,2172.839,358.345581054688,44.9965896606445,0.660006761550903,-1.03621351718903,-0.445723384618759,0.640482842922211,-1.04114485287423,-0.447975543971863,0.644518260536375,0
2.10000610351563,-1.09819459915161,2.49329805374146,1.8228645324707,-1.09647498538954,2.49403382618922,1.82162733848484,2170.63,2170.302,2166.707,2168.279,358.419036865234,44.9963302612305,0.631093263626099,-1.04192709922791,-0.448178172111511,0.644253730773926,-1.04677621342161,-0.450398561093403,0.648004340974112,0
2.12001037597656,-1.11914229393005,2.48428773880005,1.8358188867569,-1.11746913671118,2.48500062938421,1.83462371824305,2167.056,2167.525,2165.157,2168.057,358.492370605469,44.9961547851563,0.601950466632843,-1.04737949371338,-0.450519502162933,0.647720098495483,-1.05214690704168,-0.452709420518306,0.651329056166548,0
2.13999938964844,-1.14019381999969,2.47523260116577,1.84883916378021,-1.138551967509,2.47592927627801,1.8476749948214,2164.755,2165.258,2163.924,2166.374,358.565826416016,44.9960517883301,0.572328984737396,-1.052574634552,-0.45275005698204,0.651014804840088,-1.05725102347782,-0.454905579228273,0.654488747383304,0
2.16000366210938,-1.16134405136108,2.46613550186157,1.86192059516907,-1.15975039167652,2.46680818657414,1.86079782920208,2159.588,2162.14,2165.638,2165.294,358.641235351563,44.9961891174316,0.54135525226593,-1.0575098991394,-0.454870015382767,0.654072999954224,-1.0620943502576,-0.456989527434725,0.657486997379635,0
2.18000793457031,-1.18258774280548,2.45699787139893,1.87506401538849,-1.18104303873349,2.45764655539322,1.87397899203979,2163.365,2162.766,2158.634,2160.717,358.717620849609,44.9959335327148,0.51126629114151,-1.06218445301056,-0.456881076097488,0.657174050807953,-1.06667099276523,-0.458958728849171,0.660320157107579,0
2.19999694824219,-1.20391952991486,2.4478223323822,1.88826322555542,-1.20240821395574,2.44845371736898,1.88720505326679,2159.424,2159.987,2157.397,2160.399,358.793670654297,44.9957962036133,0.480999797582626,-1.06658983230591,-0.458775281906128,0.659958839416504,-1.07097597819164,-0.460811043810786,0.662985148161421,0
2.22000122070313,-1.22533392906189,2.43861126899719,1.9015132188797,-1.22387315175433,2.43921795429519,1.90049287228091,2154.215,2156.416,2159.167,2159.673,358.871124267578,44.9959106445313,0.449336320161819,-1.07072901725769,-0.46055480837822,0.662502706050873,-1.07501419914593,-0.462548577472581,0.665484999299265,0
2.24000549316406,-1.24682593345642,2.42936682701111,1.91481482982635,-1.24541615591711,2.42994860144581,1.91382901809327,2157.725,2157.056,2152.53,2154.915,358.94921875,44.9956665039063,0.418594270944595,-1.07460117340088,-0.462222248315811,0.665079772472382,-1.07878069424208,-0.464169195088763,0.667816639186824,0
2.260009765625,-1.26838994026184,2.42009139060974,1.92816162109375,-1.26703177594152,2.42064800401982,1.92721011658316,2153.583,2154.124,2151.573,2154.654,359.026824951172,44.9955558776855,0.387623161077499,-1.07820045948029,-0.4637710750103,0.667340874671936,-1.08227399942825,-0.465672266718726,0.669979161506271,0
2.27999877929688,-1.29002070426941,2.4107871055603,1.94155025482178,-1.28869796983554,2.41132564607061,1.9406225227075,2151.196,2151.889,2150.511,2152.733,359.104614257813,44.9955215454102,0.356289505958557,-1.08153080940247,-0.465204447507858,0.669434726238251,-1.08549040888332,-0.467056197851165,0.67197027217779,0
2.30000305175781,-1.31171250343323,2.40145683288574,1.95497608184814,-1.31044231452835,2.40196966201596,1.95408330789913,2145.984,2148.68,2152.158,2151.721,359.184417724609,44.995719909668,0.323653310537338,-1.08459043502808,-0.466522485017776,0.671291887760162,-1.08843358680109,-0.468322565086307,0.673792239511894,0
2.32000732421875,-1.33345985412598,2.39210224151611,1.96843993663788,-1.33224276726637,2.39258953623693,1.96757882664355,2150.035,2149.309,2144.895,2146.986,359.26513671875,44.9954833984375,0.292016297578812,-1.08737576007843,-0.467725455760956,0.673190534114838,-1.09109983431736,-0.469469776906228,0.675442773735451,0
2.33999633789063,-1.35525763034821,2.38272619247437,1.98193526268005,-1.35407709248145,2.38319483607731,1.98109531406483,2146.148,2146.531,2143.41,2146.725,359.345306396484,44.9953384399414,0.260295122861862,-1.08988225460052,-0.468806684017181,0.674766600131989,-1.09348640563071,-0.470496651869278,0.67692017506657,0
2.36000061035156,-1.37709975242615,2.37333083152771,1.9954571723938,-1.37597305876702,2.37377361348711,1.99464996024512,2140.88,2142.893,2145.094,2146.113,359.426574707031,44.9954681396484,0.227195098996162,-1.09211277961731,-0.469768404960632,0.67609304189682,-1.09559602313537,-0.471404361345641,0.678226128796969,0
2.3800048828125,-1.39898121356964,2.36391854286194,2.00900602340698,-1.39790843013262,2.36433543599182,2.00822900004707,2144.427,2143.583,2138.516,2141.151,359.508148193359,44.9952392578125,0.195138171315193,-1.09406471252441,-0.470612704753876,0.67744505405426,-1.09742594550583,-0.472191725819537,0.679358937915576,0
2.40000915527344,-1.42089581489563,2.35449171066284,2.02257561683655,-1.41987760424917,2.35488271411715,2.02182896536211,2140.167,2140.61,2137.643,2140.955,359.588989257813,44.9951477050781,0.16293241083622,-1.09573686122894,-0.471335142850876,0.678477346897125,-1.09897546783438,-0.472858441988871,0.680318166050934,0
2.41999816894531,-1.44283854961395,2.34505319595337,2.03616237640381,-1.44185817738692,2.34542508756209,2.03543598721428,2137.787,2138.424,2136.611,2138.963,359.669799804688,44.9951477050781,0.130495578050613,-1.09713268280029,-0.471938580274582,0.679341018199921,-1.10024313330221,-0.473403883025206,0.681102911362803,0
2.44000244140625,-1.46480345726013,2.33560466766357,2.04976177215576,-1.46387808506052,2.33595053645515,2.04906735901791,2132.603,2135.109,2138.192,2138.133,359.752349853516,44.9953765869141,0.0967668667435646,-1.09825170040131,-0.472423851490021,0.679968059062958,-1.10123038958312,-0.473828671822132,0.681714070030222,0
2.46000671386719,-1.48678529262543,2.32614874839783,2.06337428092957,-1.48591492338117,2.32646870056377,2.06270921169857,2136.583,2135.884,2131.143,2133.152,359.835601806641,44.9951591491699,0.0642057582736015,-1.09908843040466,-0.472790509462357,0.680627942085266,-1.10193578218388,-0.474132182551855,0.682150741652607,0
2.47999572753906,-1.50877809524536,2.3166880607605,2.07699370384216,-1.50794623031618,2.31698924467309,2.07634764018804,2132.736,2132.962,2129.652,2133.104,359.918182373047,44.9950408935547,0.0315832979977131,-1.09964287281036,-0.473033607006073,0.680969595909119,-1.10235882472314,-0.474314205938057,0.682412625136718,0
2.5,-1.53077638149261,2.30722498893738,2.09061503410339,-1.52999999932945,2.30750012397766,2.08999997377396,2127.596,2129.539,2131.183,2132.403,0.00163582037203014,44.9951972961426,-0.00226345146074891,-1.09991765022278,-0.473155438899994,0.681064128875732,-1.10250000050292,-0.474374949932098,0.682500019669533,0
2.52000427246094,-1.55277442932129,2.29776191711426,2.10423851013184,-1.55205376834272,2.29801100328223,2.10365230735988,2131.154,2130.063,2124.747,2127.554,0.0851162001490593,44.9949760437012,359.964965820313,-1.0999082326889,-0.47315701842308,0.681176483631134,-1.10235882472314,-0.474314205938057,0.682412625136718,0
2.54000854492188,-1.57476687431335,2.28830122947693,2.11785793304443,-1.57410188948011,2.28852431271001,2.11730114464159,2126.967,2127.252,2123.84,2127.312,0.167619481682777,44.9949035644531,359.932159423828,-1.09961760044098,-0.473035931587219,0.680973410606384,-1.10193535162022,-0.474131997292339,0.682150475113189,0
2.55999755859375,-1.59674787521362,2.27884531021118,2.13146996498108,-1.59612191359838,2.27904971150017,2.13093258853001,2124.52,2124.999,2122.948,2125.471,0.249823778867722,44.9949264526367,359.899169921875,-1.09904861450195,-0.47279480099678,0.680598020553589,-1.10123038958312,-0.473828671822132,0.681714070030222,0
2.58000183105469,-1.61871194839478,2.26939654350281,2.14506983757019,-1.61814182127198,2.26957516039323,2.14456396033363,2119.425,2121.958,2124.496,2124.511,0.333580642938614,44.995174407959,359.865051269531,-1.09820222854614,-0.472435176372528,0.67999130487442,-1.10024313330221,-0.473403883025206,0.681102911362804,0
2.60000610351563,-1.64065325260162,2.25995755195618,2.15865802764893,-1.64013916343638,2.26011031859448,2.15818136301212,2123.461,2122.497,2117.61,2119.74,0.417793095111847,44.9949760437012,359.832153320313,-1.09707117080688,-0.471955537796021,0.679414033889771,-1.09897439291323,-0.472857979480329,0.680317500623536,0
2.62001037597656,-1.66256654262543,2.25053024291992,2.17222857475281,-1.66210831390746,2.25065760689379,2.17178131368948,2119.75,2119.758,2116.067,2119.661,0.501064836978912,44.9948768615723,359.799255371094,-1.09565961360931,-0.471352934837341,0.678525447845459,-1.09742465646102,-0.47219117117957,0.679358139935436,0
2.63999938964844,-1.684445977211,2.24111795425415,2.18577766418457,-1.68402693989188,2.24122663446822,2.18534998730279,2117.431,2117.62,2114.933,2117.885,0.583737730979919,44.9948616027832,359.766265869141,-1.09396958351135,-0.47062960267067,0.677455127239227,-1.09559602313537,-0.471404361345641,0.67822612879697,0
2.66000366210938,-1.70628595352173,2.23172211647034,2.19930076599121,-1.70592290617745,2.23180541187802,2.19890463348308,2112.463,2114.546,2116.365,2117.082,0.66750168800354,44.9950790405273,359.732208251953,-1.0920033454895,-0.469787627458572,0.676151812076569,-1.09348640563071,-0.470496651869278,0.67692017506657,0
2.68000793457031,-1.72808122634888,2.22234559059143,2.21279811859131,-1.72777388024004,2.22240354818443,2.21243142733407,2116.224,2115.187,2109.911,2112.208,0.751326560974121,44.9949035644531,359.699401855469,-1.08975338935852,-0.468825936317444,0.674866914749146,-1.09109790637238,-0.469468947365361,0.675441580245664,0
2.69999694824219,-1.74982571601868,2.21299076080322,2.22626352310181,-1.74955768413056,2.21303058593937,2.22591663964878,2112.369,2112.373,2108.708,2112.239,0.834071338176727,44.9948310852051,359.666656494141,-1.08722686767578,-0.467743188142776,0.673276305198669,-1.08843358680109,-0.468322565086308,0.673792239511893,0
2.72000122070313,-1.7715140581131,2.2036600112915,2.2396924495697,-1.77130202882336,2.20367460188472,2.23937742484041,2107.392,2109.212,2110.257,2111.563,0.917398452758789,44.9950218200684,359.632904052734,-1.08442628383636,-0.466541737318039,0.671450436115265,-1.08549040888332,-0.467056197851165,0.671970272177789,0
2.74000549316406,-1.79314088821411,2.19435548782349,2.25308513641357,-1.79298473688851,2.19434513834902,2.25280005402337,2110.985,2109.641,2104.187,2106.859,1.00040423870087,44.9948501586914,359.600341796875,-1.0813444852829,-0.46522131562233,0.669639587402344,-1.08227143928024,-0.465671165158559,0.669977576652695,0
2.760009765625,-1.81470060348511,2.18507981300354,2.26643562316895,-1.81460030360772,2.18504456385877,2.26618111951479,2106.934,2107.028,2103.35,2106.729,1.08220386505127,44.994815826416,359.567901611328,-1.07799065113068,-0.463782042264938,0.66752690076828,-1.07877792518082,-0.464168003639063,0.667814925005998,0
2.77999877929688,-1.83618807792664,2.17583537101746,2.27974057197571,-1.83612684690458,2.17578229366013,2.27950707526701,2104.781,2104.917,2102.399,2105.017,1.16337502002716,44.9948654174805,359.535400390625,-1.07436609268188,-0.462225794792175,0.665251433849335,-1.07501419914593,-0.462548577472581,0.665484999299265,0
2.80000305175781,-1.85759747028351,2.16662430763245,2.29299569129944,-1.85759178470316,2.16654653058634,2.29279489428112,2099.942,2102.075,2103.822,2104.262,1.24563074111938,44.9951171875,359.501983642578,-1.07047390937805,-0.460554927587509,0.662753462791443,-1.07097597819164,-0.460811043810786,0.662985148161422,0
2.82000732421875,-1.87892353534698,2.15744876861572,2.30620121955872,-1.87897323600723,2.1573466894188,2.30603103117811,2103.942,2102.625,2097.401,2099.586,1.32783257961273,44.9949493408203,359.469879150391,-1.06630456447601,-0.458766967058182,0.660278558731079,-1.06666760390385,-0.458957270716794,0.660318059240952,0
2.83999633789063,-1.90016102790833,2.14831185340881,2.31935143470764,-1.90024960698239,2.14819206138118,2.31920211834584,2100.29,2100.113,2096.107,2099.603,1.40876471996307,44.994873046875,359.437957763672,-1.06186854839325,-0.456862211227417,0.657506942749023,-1.06209435025759,-0.456989527434725,0.657486997379635,0
2.86000061035156,-1.92130434513092,2.13921475410461,2.33244156837463,-1.9214480311499,2.13907097167731,2.33232495272651,2095.592,2096.967,2097.495,2099.203,1.48992598056793,44.995059967041,359.405120849609,-1.05716848373413,-0.454842686653137,0.654508113861084,-1.05725102347782,-0.454905579228273,0.654488747383304,0
2.8800048828125,-1.94234836101532,2.13016057014465,2.34547185897827,-1.94254691640495,2.12999271078668,2.34538616777867,2098.995,2097.559,2091.887,2094.474,1.57042503356934,44.9949073791504,359.373565673828,-1.05219614505768,-0.452707916498184,0.651516318321228,-1.0521429102862,-0.45270770082608,0.651326581984514,0
2.90000915527344,-1.96328735351563,2.12115144729614,2.35843658447266,-1.96354098577478,2.12095954924324,2.35838249680481,2095.187,2094.958,2091.102,2094.537,1.64947485923767,44.9948883056641,359.342193603516,-1.04696416854858,-0.450459629297256,0.648240804672241,-1.04677201701582,-0.450396755497224,0.648001743199023,0
2.91999816894531,-1.98411679267883,2.11218976974487,2.37133288383484,-1.98440911693069,2.11198057539494,2.37130086407726,2093.155,2093.077,2090.249,2092.843,1.72762382030487,44.994945526123,359.310913085938,-1.04147350788116,-0.44809964299202,0.644809424877167,-1.04114485287423,-0.447975543971863,0.644518260536375,0
2.94000244140625,-2.00483131408691,2.1032772064209,2.38415622711182,-2.00517798053537,2.10304431360073,2.38415778000673,2088.532,2090.378,2091.647,2092.245,1.80653345584869,44.9952087402344,359.278869628906,-1.03572857379913,-0.445630699396133,0.641166985034943,-1.03525504859546,-0.445441325732794,0.640872191117535,0
2.96000671386719,-2.02542591094971,2.09441590309143,2.39690709114075,-2.02582645724542,2.09415985092405,2.3969401707136,2092.342,2090.893,2085.736,2087.769,1.88513398170471,44.9950752258301,359.248138427734,-1.02971911430359,-0.443050116300583,0.637543797492981,-1.02910913225408,-0.442796909628122,0.637067576131623,0
2.97999572753906,-2.04589486122131,2.085608959198,2.40957999229431,-2.04633384260397,2.08533609591429,2.40963521915279,2088.897,2088.566,2084.557,2087.844,1.96234583854675,44.9950256347656,359.217712402344,-1.02345848083496,-0.440359532833099,0.633643448352814,-1.02271452148052,-0.440045487257004,0.633109007445237,0
3,-2.06623411178589,2.07685780525208,2.42217063903809,-2.06672639957428,2.07656174835205,2.42225918334961,2084.677,2085.741,2085.694,2087.438,2.03950905799866,44.9952087402344,359.186553955078,-1.01694905757904,-0.437560945749283,0.629534363746643,-1.01606400046349,-0.437183953857422,0.628992018127441,0
3.02000427246094,-2.08643746376038,2.06816482543945,2.43467903137207,-2.0869834279768,2.06784571494631,2.43479924890685,2087.865,2086.092,2080.552,2083.199,2.11571335792542,44.9950790405273,359.156616210938,-1.01018249988556,-0.434653162956238,0.625424742698669,-1.00916501115878,-0.434215511495054,0.624721215103391,0
3.04000854492188,-2.10650086402893,2.05953168869019,2.4471001625061,-2.10709998486405,2.05919012250926,2.44725235590455,2084.39,2083.957,2079.781,2083.051,2.19023084640503,44.9950714111328,359.127105712891,-1.00317358970642,-0.431639611721039,0.621053457260132,-1.00202031904361,-0.431141350077486,0.620298310335216,0
3.05999755859375,-2.12641954421997,2.0509614944458,2.45943069458008,-2.12705600675913,2.05060360379452,2.45960608409476,2082.296,2082.114,2079.222,2081.644,2.26364469528198,44.9951477050781,359.097778320313,-0.995923638343811,-0.428522020578384,0.61653059720993,-0.994638524886308,-0.427965170275055,0.615728628108227,0
3.08000183105469,-2.14618802070618,2.04245543479919,2.47166705131531,-2.14687713595163,2.04207512564123,2.47187630727625,2078.188,2079.594,2080.428,2081.165,2.33751749992371,44.9954032897949,359.067779541016,-0.988437533378601,-0.425303071737289,0.611820161342621,-0.987011339258122,-0.424683405378145,0.611007036871143,0
3.10000610351563,-2.16580200195313,2.03401589393616,2.48380947113037,-2.16654331551667,2.03361331798384,2.48405060925705,2081.877,2080.187,2074.928,2076.885,2.41074728965759,44.9952812194824,359.039154052734,-0.980704843997955,-0.421980172395706,0.60712605714798,-0.979147395688901,-0.421299770153459,0.606138881190213,0
3.12001037597656,-2.18525695800781,2.02564454078674,2.49585294723511,-2.18604984110275,2.02522020497339,2.49612607781951,2078.691,2078,2073.849,2077.112,2.48232245445251,44.9952583312988,359.010955810547,-0.972741723060608,-0.418556153774261,0.602175056934357,-0.971049893464309,-0.41781564116424,0.601126141575667,0
3.13999938964844,-2.20454788208008,2.0173442363739,2.50779438018799,-2.20537738341953,2.01690410346351,2.50809074721212,2076.947,2076.342,2073.03,2075.751,2.55253744125366,44.9953079223633,358.982971191406,-0.964548826217651,-0.41503244638443,0.5970778465271,-0.962728579444533,-0.414235212212131,0.595974851798267,0
3.16000366210938,-2.2236704826355,2.00911593437195,2.51963019371033,-2.22455088103183,2.00865428308644,2.51996005559448,2073.063,2074.074,2074.129,2075.249,2.62274384498596,44.9955215454102,358.954498291016,-0.956131875514984,-0.411412537097931,0.59179675579071,-0.954174163352092,-0.410554485950274,0.590679260733698,0
3.18000793457031,-2.24261999130249,2.00096201896667,2.5313606262207,-2.24355101420387,2.00047905658478,2.53172204312984,2076.338,2074.539,2069.233,2071.271,2.6919732093811,44.9954299926758,358.927429199219,-0.947481572628021,-0.407693952322006,0.586523175239563,-0.945396434568188,-0.406777674475913,0.585245428475253,0
3.19999694824219,-2.26139235496521,1.99288439750671,2.54298090934753,-2.2623590635174,1.99238647840124,2.54336512160655,2073.315,2072.513,2068.348,2071.437,2.75940752029419,44.9954261779785,358.900817871094,-0.938614785671234,-0.403880655765533,0.581012189388275,-0.936405971974636,-0.402909329586355,0.579679903854719,0
3.22000122070313,-2.27998304367065,1.98488473892212,2.55448722839355,-2.28099938900442,1.98436606709459,2.55490437104486,2069.398,2070.127,2069.652,2071.178,2.82638669013977,44.9956398010254,358.873748779297,-0.929534792900085,-0.399975001811981,0.575317561626434,-0.927192788821982,-0.398945154262308,0.573976504598449,0
3.24000549316406,-2.2983877658844,1.97696506977081,2.56587982177734,-2.29945328359428,1.9764258717947,2.56632821087688,2072.521,2070.486,2065.177,2067.37,2.8921000957489,44.9955596923828,358.847991943359,-0.920232653617859,-0.395975142717361,0.569632768630981,-0.91776751470058,-0.394889722119544,0.568141810929231,0
3.260009765625,-2.31660223007202,1.96912753582001,2.5771541595459,-2.31771654397337,1.96856770107001,2.57763403905129,2069.455,2068.604,2064.583,2067.507,2.95593452453613,44.9955711364746,358.822723388672,-0.910726130008698,-0.391886025667191,0.563721716403961,-0.908134108040216,-0.390744736359816,0.562178273303667,0
3.27999877929688,-2.33462238311768,1.9613733291626,2.58830785751343,-2.33577134012187,1.96079922667992,2.58881081793642,2067.994,2067.111,2063.919,2066.307,3.01827025413513,44.9956588745117,358.797790527344,-0.901015937328339,-0.387708932161331,0.557688891887665,-0.898304216251578,-0.386515208538549,0.556093102023818,0
3.30000305175781,-2.35244464874268,1.95370435714722,2.59933757781982,-2.35364119854729,1.95311032582551,2.59987311156116,2064.366,2065.286,2065.063,2065.808,3.08041262626648,44.995906829834,358.772644042969,-0.891108810901642,-0.383447557687759,0.551491379737854,-0.888267004546666,-0.382196476749158,0.549879589839776,0
3.32000732421875,-2.37006449699402,1.94612216949463,2.61024379730225,-2.37130830610839,1.94550866300381,2.61080989274252,2067.617,2065.513,2060.572,2062.422,3.14142441749573,44.9958267211914,358.748809814453,-0.880995452404022,-0.379098981618881,0.545309484004974,-0.878034183119985,-0.377793579561194,0.543544985919778,0
3.33999633789063,-2.3874785900116,1.93862903118134,2.62102222442627,-2.38875555478454,1.93800159931817,2.62161057080077,2064.987,2063.923,2059.71,2062.526,3.20049595832825,44.9958343505859,358.725555419922,-0.870693922042847,-0.374667972326279,0.538916945457458,-0.867618167158097,-0.373311858882592,0.53709697585572,0
3.36000061035156,-2.40468239784241,1.93122601509094,2.63166952133179,-2.406005803634,1.93057929915441,2.6322892965819,2061.636,2061.761,2060.788,2062.471,3.2587251663208,44.9960250854492,358.702026367188,-0.860207676887512,-0.370156645774841,0.532364010810852,-0.857007552155826,-0.36874640767338,0.530528499715627,0
3.3800048828125,-2.42167329788208,1.92391455173492,2.64218592643738,-2.42304196557559,1.92324911460621,2.64283549236868,2064.54,2062.243,2056.845,2058.969,3.31529951095581,44.9959487915039,358.679870605469,-0.849528789520264,-0.365563809871674,0.525820553302765,-0.846214826007803,-0.364102599125748,0.523847288101157,0
3.40000915527344,-2.43844676017761,1.91669678688049,2.6525673866272,-2.43986044461333,1.91601259293018,2.6532469320683,2061.599,2060.559,2056.608,2059.272,3.36978554725647,44.9959945678711,358.658264160156,-0.838676571846008,-0.360895305871964,0.519074618816376,-0.835244706287931,-0.359382463079953,0.517056261415284,0
3.41999816894531,-2.4549994468689,1.90957379341125,2.66281199455261,-2.45644516534361,1.90887665092339,2.66351366424015,2060.481,2059.333,2056.068,2058.174,3.4225697517395,44.9960823059082,358.637145996094,-0.82765132188797,-0.356152147054672,0.512231826782227,-0.824110582941664,-0.354591760855451,0.510163708672097,0
3.44000244140625,-2.47132873535156,1.90254712104797,2.67291688919067,-2.47281804716281,1.90183185728196,2.67364925803476,2057.385,2057.79,2057.072,2057.835,3.47477865219116,44.9963150024414,358.616027832031,-0.816460847854614,-0.351338326931,0.505250155925751,-0.812800388649434,-0.349725300221754,0.503162159625937,0
3.46000671386719,-2.48743057250977,1.89561796188354,2.68288254737854,-2.4889630419904,1.89488511704659,2.68364377892579,2060.289,2057.988,2053.252,2054.957,3.52556538581848,44.9962615966797,358.59619140625,-0.805097460746765,-0.34645140171051,0.498284697532654,-0.801327600455845,-0.344788879974649,0.496059957209413,0
3.47999572753906,-2.50330209732056,1.88878798484802,2.69270539283752,-2.50486489870395,1.88804299234919,2.69348778574196,2058.064,2056.727,2052.56,2055.073,3.57423877716064,44.9962844848633,358.577056884766,-0.79357922077179,-0.341496676206589,0.491142094135284,-0.789706299681989,-0.339788558913217,0.488865818431069,0
3.5,-2.51894044876099,1.8820583820343,2.70238280296326,-2.5205447997813,1.88129636896134,2.70319439144611,2055.228,2054.991,2053.544,2055.049,3.62174248695374,44.996467590332,358.557891845703,-0.781910240650177,-0.336476355791092,0.483866363763809,-0.777924000354857,-0.334718964672089,0.481572013878822,0
3.52000427246094,-2.53434205055237,1.87543058395386,2.71191477775574,-2.53598752699493,1.87465179486116,2.71275417523047,2057.777,2055.278,2050.292,2052.249,3.66737842559814,44.9964332580566,358.5400390625,-0.770084381103516,-0.331389456987381,0.476602703332901,-0.765994882555673,-0.32958619854407,0.474187321698442,0
3.54000854492188,-2.54950451850891,1.86890554428101,2.72129821777344,-2.55119019794619,1.86811051026429,2.72216535275294,2055.554,2054.072,2049.963,2052.403,3.71070218086243,44.9964828491211,358.522888183594,-0.758119940757751,-0.326242119073868,0.469177901744843,-0.753924423002452,-0.324392617007921,0.466715132239272,0
3.55999755859375,-2.56442499160767,1.86248517036438,2.7305314540863,-2.56613872308604,1.86167857751006,2.73141920191151,2054.402,2053.078,2049.772,2051.63,3.7520740032196,44.9965896606445,358.50634765625,-0.74601936340332,-0.321035981178284,0.461667865514755,-0.741727567798258,-0.319144650954242,0.459164697851087,0
3.58000183105469,-2.57910060882568,1.85616970062256,2.7396125793457,-2.58085326729328,1.85534732021446,2.74052820572674,2052,2051.701,2050.635,2051.521,3.79247069358826,44.9968070983887,358.489898681641,-0.733790040016174,-0.315774828195572,0.454053729772568,-0.729391385793765,-0.313836736470737,0.451528013536464,0
3.60000610351563,-2.59352946281433,1.84996032714844,2.74854183197021,-2.59531978247425,1.84912278287974,2.74948366775945,2054.569,2052.22,2047.481,2048.88,3.83113121986389,44.9967880249023,358.474884033203,-0.721426367759705,-0.310457229614258,0.446459501981735,-0.716930938559024,-0.308475354130224,0.443814403124743,0
3.6199951171875,-2.60770845413208,1.84385871887207,2.75731635093689,-2.60952509409627,1.84301063413925,2.75827743234631,2052.644,2051.039,2047.092,2049.313,3.86751961708069,44.9968376159668,358.460571289063,-0.708946585655212,-0.305088549852371,0.438721537590027,-0.704361775018033,-0.303067194200314,0.436033492140578,0
3.63999938964844,-2.62163543701172,1.83786535263062,2.76593399047852,-2.6234885835008,1.83700253474321,2.76692149746096,2050.547,2049.735,2047.877,2049.297,3.90239143371582,44.9970054626465,358.446472167969,-0.696354806423187,-0.299671173095703,0.430886834859848,-0.691670720740692,-0.297606588091786,0.428177124984152,0
3.66000366210938,-2.63530826568604,1.83198142051697,2.77439546585083,-2.63719712493647,1.83110413233575,2.77540773763803,2052.765,2050.151,2045.268,2046.98,3.93510723114014,44.9969940185547,358.433715820313,-0.683647453784943,-0.294204920530319,0.423068404197693,-0.678873453515702,-0.29210028151913,0.420255006953505,0
3.68000793457031,-2.6487250328064,1.82620751857758,2.78269791603088,-2.65064865588166,1.82531631436231,2.78373487607838,2050.936,2049.158,2045.171,2047.33,3.9653308391571,44.9970626831055,358.421752929688,-0.670842289924622,-0.288695782423019,0.415124654769897,-0.665976209205203,-0.286550957599616,0.412270998344358,0
3.69999694824219,-2.66188383102417,1.82054448127747,2.79084038734436,-2.66383127580226,1.81964420129024,2.79189554578451,2050.123,2048.479,2045.131,2046.75,3.99337983131409,44.9971809387207,358.410522460938,-0.657942414283752,-0.283145904541016,0.407123208045959,-0.65299527533123,-0.280965624398954,0.404235181908735,0
