t,x_s1,x_s2,x_s3,x_s_d1,x_s_d2,x_s_d3,propellers_rpms1,propellers_rpms2,propellers_rpms3,propellers_rpms4,rollRad,pitchRad,yawRad,v_s1,v_s2,v_s3,v_s_d1,v_s_d2,v_s_d3,insideCount
0,-0.0599999986588955,2.94000005722046,1.17999994754791,-0.0599999986588955,2.94000005722046,1.17999994754791,0,0,0,0,0,45.0048027038574,0,0,0,0,-1.06581410364015E-15,4.44089209850063E-16,-7.105427357601E-16,0
0.0200042724609375,-0.0599999986588955,2.94000005722046,1.1790189743042,-0.0600018701838461,2.93999925195556,1.1800010908333,0,0,0,0,0.00112506025470793,44.8630180358887,0.909283995628357,-3.60929135467813E-08,2.95208444356376E-08,-0.0490499772131443,-0.000280105751305916,-0.000120521679537258,0.000171112232507361,5
0.040008544921875,-0.0599999986588955,2.94000005722046,1.17411398887634,-0.060014880898484,2.93999365380853,1.18000903887584,0,0,0,0,0.00304076820611954,44.7212371826172,1.81856417655945,-3.62307304158094E-08,2.93641413406931E-08,-0.245249927043915,-0.00111143977225461,-0.000478221483967637,0.000678961213193342,6
0.05999755859375,-0.0600350871682167,2.94003486633301,1.16684293746948,-0.0600498857373401,2.93997859220429,1.18003042278566,2307.081,2000.241,2127.662,3382.344,-0.0021375825162977,44.8046226501465,1.28310918807983,-0.00175438763108104,0.00174321024678648,-0.363554954528809,-0.00247936261166862,-0.00106680046642749,0.00151460392977639,6
0.0800018310546875,-0.0601342283189297,2.9401330947876,1.15967178344727,-0.0601175574246769,2.93994947496775,1.18007176236346,2848.068,2759.891,2606.797,2299.138,359.914245605469,44.8777198791504,0.619929134845734,-0.00495708175003529,0.00491346325725317,-0.358558356761932,-0.00437268608126799,-0.00188144466206175,0.00267120569262453,6
0.100006103515625,-0.0602752901613712,2.94026303291321,1.1533819437027,-0.0602282404704493,2.93990185114529,1.18013937690895,2872.154,2897.606,2627.819,2213.359,359.724792480469,44.9187927246094,0.190192505717278,-0.00705304741859436,0.00649298541247845,-0.31449356675148,-0.00677739276378709,-0.00291612276782231,0.00414020348026766,5
0.120010375976563,-0.0604444444179535,2.94038772583008,1.14806056022644,-0.0603920338334453,2.93983137543704,1.18023943571846,2725.911,2926.628,2634.606,2219.339,359.427825927734,44.9351043701172,0.050273060798645,-0.00845776498317719,0.00623429194092751,-0.266068398952484,-0.00968041450003567,-0.00416521191989172,0.00591361415818106,5
0.139999389648438,-0.0606513246893883,2.94048070907593,1.1437304019928,-0.0606185767455666,2.93973390035084,1.18037782724834,2551.908,2770.03,2667.41,2379.445,359.090698242188,44.9478492736816,0.144092246890068,-0.0103439269587398,0.00464909570291638,-0.216506808996201,-0.0130660253322238,-0.00562194567796536,0.00798183098414958,5
0.160003662109375,-0.0609211772680283,2.94052791595459,1.14032304286957,-0.0609177895434042,2.93960515744296,1.18056061167741,2443.042,2553.465,2687.475,2529.479,358.804351806641,44.9652938842773,0.340556800365448,-0.0134925860911608,0.00235740118660033,-0.170368850231171,-0.0169265510445065,-0.00728302204135792,0.0103401658994673,5
0.180007934570313,-0.0612808093428612,2.94052505493164,1.13772797584534,-0.0612988491946875,2.93944119812059,1.18079339507206,2417.432,2395.122,2654.64,2596.326,358.625549316406,44.9838790893555,0.518678784370422,-0.0179816037416458,-0.000144731486216187,-0.129751190543175,-0.0212468478482708,-0.00914192506089775,0.0129793677999848,5
0.199996948242188,-0.0617485903203487,2.94047331809998,1.13583755493164,-0.0617704296168641,2.93923829023936,1.1810814761931,2450.825,2337.943,2561.745,2580.183,358.551239013672,44.9966087341309,0.617897629737854,-0.023389145731926,-0.00259083858691156,-0.0945208743214607,-0.0260104776919234,-0.0111915819022102,0.0158893949364944,5
0.220001220703125,-0.0623323284089565,2.94037485122681,1.13456833362579,-0.0623420644491781,2.93899233174064,1.18143067899198,2496.66,2359.817,2443.166,2516.345,358.525848388672,44.9992370605469,0.641171395778656,-0.0291868522763252,-0.00492179580032825,-0.0634598433971405,-0.03121219533433,-0.0134297356845702,0.0190670430730375,5
0.240005493164063,-0.0630332976579666,2.94023036956787,1.13386464118958,-0.0630219993990999,2.93869977472688,1.18184604064271,2512.073,2408.316,2348.085,2446.341,358.477020263672,44.9927024841309,0.627726018428802,-0.0350484661757946,-0.0072297272272408,-0.0351863950490952,-0.0368361158647881,-0.0158495515746756,0.0225026083655451,5
0.260009765625,-0.0638524666428566,2.94003653526306,1.13368916511536,-0.0638185570309634,2.93835703823113,1.18233264526998,2475.591,2437.221,2311.462,2397.013,358.356048583984,44.9817428588867,0.619237780570984,-0.0409585982561111,-0.0096904169768095,-0.00877133198082447,-0.0428699302682246,-0.0184457333472145,0.0261885714287875,4
0.279998779296875,-0.0647951290011406,2.93978667259216,1.13401019573212,-0.0647390625194898,2.93796097043536,1.18289496770872,2398.766,2429.052,2331.11,2372.537,358.162841796875,44.9714889526367,0.638373374938965,-0.04713299497962,-0.0124879637733102,0.016049413010478,-0.0492963837173861,-0.0212108567320638,0.0301143915580518,4
0.300003051757813,-0.0658718049526215,2.93947196006775,1.13479316234589,-0.0657927507678135,2.93750759781875,1.18353864941714,2313.175,2391.024,2376.098,2364.172,357.939788818359,44.9650039672852,0.685113430023193,-0.0538339950144291,-0.0157365035265684,0.03914924710989,-0.0561132031658829,-0.0241439437008635,0.0342786801847687,4
0.32000732421875,-0.0670957788825035,2.93908333778381,1.13599872589111,-0.0669865614821475,2.93699393441958,1.18426792975347,2254.841,2343.586,2404.349,2358.599,357.744384765625,44.9626731872559,0.745560944080353,-0.0611987449228764,-0.0194302927702665,0.0602791905403137,-0.0633036493784043,-0.0272377918282996,0.0386712115712976,4
0.339996337890625,-0.0684792697429657,2.93861436843872,1.13758587837219,-0.068326768706371,2.93641728069206,1.18508664143323,2239.626,2303.498,2392.418,2348.322,357.614776611328,44.9631958007813,0.803876996040344,-0.0691744312644005,-0.0234488248825073,0.0793570876121521,-0.0708499516420146,-0.0304847548730522,0.0432811298664125,4
0.360000610351563,-0.0700307190418243,2.93806195259094,1.13951516151428,-0.0698225328270578,2.93577369517774,1.18600038039362,2261.481,2279.083,2341.395,2330.952,357.552398681641,44.9647445678711,0.850426495075226,-0.0775726661086082,-0.0276187993586063,0.0964647904038429,-0.0787518717320621,-0.0338847303337087,0.0481082895423912,4
0.3800048828125,-0.0717544481158257,2.93742609024048,1.14175140857697,-0.0714797725314022,2.93506063123087,1.18701276226829,2297.608,2269.61,2273.12,2308.489,357.525207519531,44.9657516479492,0.884439170360565,-0.0861864984035492,-0.0317956805229187,0.111809782683849,-0.0869921272359981,-0.0374302820709642,0.0531421330430943,4
0.400009155273438,-0.073652446269989,2.93670749664307,1.14426517486572,-0.0733051402689975,2.93427522648826,1.18812785093488,2317.226,2266.268,2220.847,2286.791,357.487274169922,44.9656257629395,0.911162495613098,-0.0948997810482979,-0.0359258428215981,0.125691056251526,-0.0955591682828665,-0.0411164404980124,0.058375604732587,4
0.419998168945313,-0.0757270008325577,2.93590617179871,1.14703142642975,-0.0753034649285836,2.93341540321397,1.18934859628618,2304.964,2262.1,2203.386,2268.393,357.406890869141,44.9645576477051,0.937020123004913,-0.103727854788303,-0.0400603972375393,0.138312831521034,-0.104434660908044,-0.0449353170220673,0.0637975046779765,4
0.44000244140625,-0.077982634305954,2.93501996994019,1.1500278711319,-0.077483988232608,2.93247718495301,1.19068064394622,2263.483,2252.821,2220.308,2254.692,357.281829833984,44.9632835388184,0.966053426265717,-0.11278173327446,-0.0443131513893604,0.149824723601341,-0.113620829717891,-0.048887868829098,0.0694091918565748,4
0.460006713867188,-0.0804263055324554,2.93404412269592,1.15323352813721,-0.0798512213598696,2.93145863067119,1.19212674972372,2214.638,2240.16,2249.668,2243.708,357.137725830078,44.9624633789063,0.998961925506592,-0.122183457016945,-0.048790093511343,0.160282358527184,-0.123099793815011,-0.0529664022684887,0.0751997431071877,4
0.480010986328125,-0.0830661505460739,2.93297362327576,1.15662908554077,-0.0824109101018722,2.93035726811493,1.19369042363305,2178.022,2225.622,2270.465,2235.278,357.009033203125,44.9625625610352,1.03391337394714,-0.131991878151894,-0.05352932959795,0.169779002666473,-0.132860437136906,-0.0571661344090936,0.0811623678006979,4
0.5,-0.0859095826745033,2.93180394172668,1.16019654273987,-0.085166398670376,2.92917165836334,1.195373708601,2168.204,2213.051,2266.085,2227.392,356.921020507813,44.9636383056641,1.06806004047394,-0.142171859741211,-0.0584853179752827,0.178369969129562,-0.142884000065179,-0.0614789935111996,0.0872856059789651,5
0.520004272460938,-0.0889619812369347,2.93053269386292,1.16391956806183,-0.088127196023106,2.92789770997757,1.19718241350145,2182.108,2203.941,2238.329,2219.784,356.876098632813,44.9653816223145,1.09929692745209,-0.152620062232018,-0.0635574981570244,0.186151161789894,-0.153174893518032,-0.065906877469682,0.0935721522030874,5
0.540008544921875,-0.092226430773735,2.92915987968445,1.16778361797333,-0.0912963635428427,2.92653410573011,1.19911840848537,2208.253,2199.676,2198.282,2211.379,356.855926513672,44.9672393798828,1.1273500919342,-0.163222536444664,-0.0686457231640816,0.193200096487999,-0.163714777034477,-0.0704418948965508,0.100010802571645,5
0.55999755859375,-0.0957047492265701,2.92768597602844,1.1717768907547,-0.094676112580471,2.92507989413848,1.20118304443252,2225.178,2196.681,2168.524,2204.462,356.831359863281,44.9688377380371,1.1533727645874,-0.173915758728981,-0.0736993476748466,0.199666172266006,-0.17448465888317,-0.0750758741803766,0.106589955332319,5
0.580001831054688,-0.0993989259004593,2.92611122131348,1.17588949203491,-0.0982762614093182,2.92353085067394,1.20338231917284,2221.87,2193.441,2161.341,2198.691,356.781860351563,44.9700393676758,1.17855870723724,-0.184709146618843,-0.0787365287542343,0.20562881231308,-0.185490414529404,-0.0798113433697334,0.113313199715174,5
0.600006103515625,-0.103312216699123,2.92443466186523,1.18011212348938,-0.102098762959148,2.92188613504538,1.20571742572067,2202.691,2190.614,2172.657,2192.999,356.705718994141,44.970874786377,1.20395445823669,-0.1956647336483,-0.0838228091597557,0.211133152246475,-0.196713446836865,-0.0846403006364086,0.120169175019836,5
0.620010375976563,-0.107449308037758,2.9226541519165,1.18443787097931,-0.106147859919355,2.92014392174208,1.20819095586875,2175.129,2186.05,2195.05,2189.311,356.616333007813,44.9717025756836,1.2299085855484,-0.206854715943336,-0.0890267044305801,0.21628974378109,-0.20814339888717,-0.0895582896877615,0.127151554366483,5
0.639999389648438,-0.111815601587296,2.92076659202576,1.18886053562164,-0.110424235525481,2.91830391678686,1.21080332699501,2154.771,2181.48,2211.99,2186.365,356.535736083984,44.9728240966797,1.25571119785309,-0.218314617872238,-0.094380147755146,0.221134454011917,-0.219761081350814,-0.0945570538913933,0.134248615293163,5
0.660003662109375,-0.116416111588478,2.91876935958862,1.19337511062622,-0.114938248900541,2.91636166293851,1.21356086732604,2149.342,2177.46,2214.787,2184.4,356.480316162109,44.9743957519531,1.28024101257324,-0.23002527654171,-0.0998630374670029,0.225731492042542,-0.231574097577923,-0.0996398647564507,0.141465002567821,5
0.680007934570313,-0.121254533529282,2.91666102409363,1.19797706604004,-0.119690355154666,2.91431696437584,1.21646385488153,2162.352,2176.677,2198.824,2181.725,356.453704833984,44.9762878417969,1.30293071269989,-0.241921424865723,-0.10541608184576,0.230100274085999,-0.243563621239988,-0.104798621839723,0.14878921548015,5
0.699996948242188,-0.126333191990852,2.91444158554077,1.20266401767731,-0.124680083855354,2.91217002351282,1.2195120022816,2180.698,2176.489,2177.604,2180.517,356.443145751953,44.9782562255859,1.32397508621216,-0.253933042287827,-0.11097513884306,0.234347805380821,-0.255710395848158,-0.11002503961202,0.1562094905416,5
0.720001220703125,-0.131653547286987,2.91211152076721,1.20743417739868,-0.129918284978346,2.90991617190799,1.22271193760712,2193.392,2176.493,2162.76,2180.004,356.431243896484,44.9800758361816,1.34352743625641,-0.266018122434616,-0.116505488753319,0.238509267568588,-0.268023157655716,-0.11532287703907,0.163731164592979,5
0.740005493164063,-0.137217074632645,2.90967130661011,1.21228587627411,-0.13540428105644,2.90755570105657,1.22606324700395,2197.137,2178.139,2157.776,2178.563,356.405853271484,44.9814987182617,1.36221992969513,-0.278176218271255,-0.12201414257288,0.242584019899368,-0.280482990349159,-0.120683994959631,0.171342681953548,5
0.760009765625,-0.143025949597359,2.9071204662323,1.21721911430359,-0.141140917956636,2.9050873864615,1.22956766896782,2187.454,2178.169,2167.91,2178.628,356.363128662109,44.9826202392578,1.3807225227356,-0.290444105863571,-0.127539187669754,0.246662512421608,-0.293080296154222,-0.126104263719567,0.179038179492781,5
0.779998779296875,-0.149083241820335,2.90445804595947,1.22223401069641,-0.147126184485884,2.90251209348295,1.2332239748923,2172.739,2177.746,2184.504,2178.842,356.311798095703,44.9836311340332,1.39894509315491,-0.302864372730255,-0.133124217391014,0.250746041536331,-0.305795832832518,-0.131575403921268,0.186805902427515,5
0.800003051757813,-0.155392438173294,2.90168213844299,1.22733151912689,-0.153371683173492,2.89982482987671,1.23703925258147,2160.452,2176.59,2199.61,2179.855,356.265655517578,44.9847717285156,1.41625833511353,-0.315460205078125,-0.138792365789413,0.254873305559158,-0.318639638509124,-0.13710173468952,0.194651982891718,5
0.82000732421875,-0.161956742405891,2.89879155158997,1.2325119972229,-0.159875221826383,2.89702653888221,1.24101216285881,2161.321,2177.915,2201.229,2179.663,356.236755371094,44.986083984375,1.43224835395813,-0.328215181827545,-0.144532307982445,0.259022384881973,-0.331592781842754,-0.14267511039705,0.202564856024417,5
0.839996337890625,-0.168778523802757,2.89578533172607,1.23777759075165,-0.166633637018892,2.89411858163313,1.24514077323692,2170.169,2178.887,2194.662,2180.99,356.225402832031,44.9875793457031,1.44691252708435,-0.34108892083168,-0.15030725300312,0.263281643390656,-0.344636106234817,-0.148287288494656,0.210532819358465,5
0.860000610351563,-0.175859227776527,2.8926637172699,1.24313056468964,-0.173659158941841,2.89109569582005,1.24943255494854,2181.996,2179.972,2185.017,2182.729,356.224853515625,44.9891319274902,1.45993149280548,-0.354034572839737,-0.156076788902283,0.267651706933975,-0.357780475378537,-0.153942943326036,0.218562509354528,5
0.8800048828125,-0.183199599385262,2.88942742347717,1.24857270717621,-0.180948461186242,2.88795931270381,1.25388547594233,2194.61,2183.317,2174.201,2183.165,356.225646972656,44.9904594421387,1.4716020822525,-0.367019474506378,-0.161817461252213,0.272105604410172,-0.371007022483504,-0.159633957038354,0.226642400584755,5
0.900009155273438,-0.190800428390503,2.88607668876648,1.25410711765289,-0.188503099076414,2.88470876307182,1.25850048634164,2197.758,2185.209,2173.544,2184.957,356.217437744141,44.9915237426758,1.48258924484253,-0.380041867494583,-0.167531445622444,0.276718080043793,-0.384306908919572,-0.165356526615982,0.234767093667914,5
0.919998168945313,-0.198662847280502,2.8826117515564,1.25973641872406,-0.196318384305134,2.8813460641717,1.26327472213274,2193.245,2186.687,2181.332,2186.557,356.198577880859,44.9923324584961,1.49301791191101,-0.393120884895325,-0.173242047429085,0.281465083360672,-0.397661187980262,-0.171102499820431,0.242925014356675,5
0.94000244140625,-0.206788510084152,2.87903213500977,1.26546370983124,-0.204407453948074,2.87786556348678,1.26821620855017,2183.588,2186.893,2195.091,2188.746,356.174468994141,44.9930648803711,1.50257194042206,-0.40628308057785,-0.178977832198143,0.286366313695908,-0.411081631631503,-0.176876941799768,0.251123353961324,5
0.960006713867188,-0.215179234743118,2.87533712387085,1.27129113674164,-0.212765478812529,2.87426933888379,1.27332199551546,2180.028,2189.164,2202.46,2189.324,356.155426025391,44.9937591552734,1.5110901594162,-0.419536262750626,-0.184752702713013,0.29137334227562,-0.424549556012544,-0.182671813410681,0.259350698802886,5
0.980010986328125,-0.223836630582809,2.87152600288391,1.27722239494324,-0.221393324468958,2.87055701793193,1.27859261179209,2180.326,2190.259,2205.968,2191.332,356.146270751953,44.9945831298828,1.51867389678955,-0.432870209217072,-0.190558806061745,0.296560972929001,-0.438056556301695,-0.188483498293199,0.267601914506946,5
1,-0.232761770486832,2.86759853363037,1.28326034545898,-0.230284798736574,2.86673126495361,1.28402427467346,2186.602,2191.812,2203.069,2193.135,356.148406982422,44.9955062866211,1.52502226829529,-0.446256101131439,-0.19637306034565,0.3018998503685,-0.451584000205995,-0.194303979492187,0.275865618896484,5
1.02000427246094,-0.241955026984215,2.86355519294739,1.28940844535828,-0.239454009753966,2.86278600961093,1.28962560260127,2193.725,2192.858,2199.115,2195.472,356.157775878906,44.996467590332,1.52980506420135,-0.459663718938828,-0.202170670032501,0.307405591011047,-0.465144357597929,-0.200138622445408,0.284149429622012,5
1.04000854492188,-0.251416355371475,2.85939645767212,1.29566895961761,-0.248894644448595,2.85872396824263,1.29539273901802,2203.434,2196.36,2191.77,2196.047,356.169555664063,44.9972305297852,1.53323864936829,-0.473067313432693,-0.207935929298401,0.313023209571838,-0.47871923339115,-0.205979512261105,0.292442109412331,5
1.05999755859375,-0.26114559173584,2.8551230430603,1.30204546451569,-0.258599401509697,2.85454828239877,1.3013212236669,2206.164,2198.168,2191.737,2197.998,356.176177978516,44.997802734375,1.53598523139954,-0.486462205648422,-0.213668256998062,0.318822890520096,-0.492290296490434,-0.211818761581115,0.30073246008742,5
1.08000183105469,-0.27114275097847,2.8507354259491,1.30854105949402,-0.268583149539609,2.85025255453512,1.30742013954506,2202.291,2198.651,2198.816,2200.265,356.176452636719,44.998233795166,1.53784537315369,-0.499857783317566,-0.219381421804428,0.324779510498047,-0.50587040849135,-0.217661904390701,0.309028338595312,5
1.10000610351563,-0.2814080119133,2.8462336063385,1.31515765190125,-0.278838480013141,2.84583997233313,1.31368496090006,2200.211,2201.127,2203.742,2200.664,356.175201416016,44.9985084533691,1.53885614871979,-0.513263583183289,-0.225091814994812,0.330829977989197,-0.519441457145546,-0.223501147495394,0.317318680446121,5
1.12001037597656,-0.291941732168198,2.84161734580994,1.32189857959747,-0.289365134970699,2.84131064678559,1.32011553014842,2196.64,2201.813,2210.433,2202.486,356.175506591797,44.9987983703613,1.53928542137146,-0.526685953140259,-0.230807363986969,0.337044179439545,-0.532995796775449,-0.22933320117373,0.325598815014731,5
1.13999938964844,-0.302744060754776,2.83688688278198,1.32876622676849,-0.300154365346813,2.83666834237095,1.32670650262257,2196.449,2202.589,2213.5,2203.958,356.181884765625,44.9991683959961,1.53879332542419,-0.540116667747498,-0.236524358391762,0.343379765748978,-0.546515580872639,-0.235150386571708,0.333857840147634,5
1.16000366210938,-0.3138148188591,2.83204221725464,1.33576321601868,-0.311222084148811,2.83190621216671,1.33346759933036,2197.944,2202.561,2214.683,2205.961,356.195770263672,44.9996528625488,1.5368527173996,-0.553538858890533,-0.24223031103611,0.34984689950943,-0.560014026276883,-0.240958390526247,0.342103829805999,6
1.18000793457031,-0.325153350830078,2.82708406448364,1.34289073944092,-0.322559451663168,2.82702805965467,1.34039342022875,2206.05,2205.436,2208.14,2205.83,356.217010498047,45.0000457763672,1.53352236747742,-0.566925346851349,-0.247907936573029,0.356375366449356,-0.573473482003304,-0.246749618311663,0.350326001278605,6
1.19999694824219,-0.336758524179459,2.82201313972473,1.35015165805817,-0.334156660511822,2.8220381046756,1.34747797414352,2210.837,2206.599,2204.868,2207.306,356.239196777344,45.0003776550293,1.52939808368683,-0.580259263515472,-0.253544420003891,0.363045066595078,-0.58687652428584,-0.252516572968185,0.358513710658656,6
1.22000122070313,-0.348629176616669,2.81683039665222,1.35754811763763,-0.346030421585499,2.81692915700008,1.35473146949704,2210.809,2206.613,2206.603,2209.022,356.258728027344,45.0006065368652,1.52424466609955,-0.593533992767334,-0.259138405323029,0.369821310043335,-0.600236516861372,-0.258265004538453,0.366675121644476,6
1.24000549316406,-0.360764175653458,2.81153655052185,1.36508083343506,-0.358170848086624,2.8117054706409,1.36214786659896,2212.213,2208.929,2206.297,2208.673,356.276428222656,45.0006637573242,1.51822340488434,-0.606748878955841,-0.264697164297104,0.37663409113884,-0.613536214864368,-0.263987493038594,0.374799699616811,6
1.260009765625,-0.373162358999252,2.80613207817078,1.37275195121765,-0.37057666480527,2.80636759428526,1.36972638644343,2208.97,2209.131,2210.99,2209.898,356.291534423828,45.000659942627,1.51179242134094,-0.619911253452301,-0.270229637622833,0.38355815410614,-0.626768731761373,-0.26968107538565,0.382883237699838,6
1.27999877929688,-0.385822862386703,2.80061721801758,1.3805627822876,-0.383236695417198,2.80092033679326,1.37746020158837,2205.985,2209.208,2215.378,2210.682,356.307525634766,45.0006713867188,1.50469696521759,-0.633023262023926,-0.275742024183273,0.390542358160019,-0.639917282339435,-0.275338529371412,0.39091548206889,6
1.30000305175781,-0.398744463920593,2.79499244689941,1.38851463794708,-0.396168722856641,2.79535604666509,1.38536017535082,2202.741,2208.196,2220.051,2211.989,356.327667236328,45.0007820129395,1.49640738964081,-0.646081507205963,-0.281233906745911,0.397594928741455,-0.652995275331231,-0.280965624398954,0.398904623909522,6
1.32000732421875,-0.411925852298737,2.78925848007202,1.39660739898682,-0.409361504843077,2.78967956113998,1.39341943999703,2207.249,2210.196,2215.86,2211.01,356.355407714844,45.000846862793,1.48691880702972,-0.659067690372467,-0.286695688962936,0.404639899730682,-0.6659860834168,-0.286555206197011,0.406840505851434,6
1.33999633789063,-0.425365149974823,2.78341627120972,1.40484261512756,-0.422802873722428,2.78389611561957,1.401630562497,2210.405,2210.362,2212.939,2211.787,356.386932373047,45.0009231567383,1.47674953937531,-0.671964883804321,-0.292113721370697,0.411763221025467,-0.678873453515705,-0.29210028151913,0.41471319914141,6
1.36000061035156,-0.439060360193253,2.77746677398682,1.41322112083435,-0.436511415158101,2.77799771321212,1.41000489654248,2211.044,2209.468,2212.561,2212.843,356.419586181641,45.0010223388672,1.46551966667175,-0.684759616851807,-0.297479063272476,0.418928027153015,-0.691670720740693,-0.297606588091785,0.422530849991739,6
1.3800048828125,-0.453009158372879,2.77141094207764,1.42174232006073,-0.450474904562636,2.77198961381608,1.41853497432376,2214.837,2211.31,2208.23,2211.601,356.452911376953,45.0009498596191,1.45338988304138,-0.697441518306732,-0.302789598703384,0.426058024168015,-0.704361775018035,-0.303067194200314,0.43028361700977,6
1.40000915527344,-0.467209368944168,2.76524996757507,1.43040704727173,-0.464691155755482,2.76587275808388,1.42721946033724,2213.275,2211.002,2209.539,2212.084,356.483337402344,45.0008316040039,1.4409327507019,-0.710011839866638,-0.308048129081726,0.433237582445145,-0.716940488958393,-0.308479463400265,0.437967757068975,6
1.41999816894531,-0.48165887594223,2.75898480415344,1.43921530246735,-0.47914673136562,2.75965292774086,1.43605014590267,2210.244,2210.465,2212.334,2212.183,356.512115478516,45.000675201416,1.42797303199768,-0.722473919391632,-0.313261479139328,0.440414369106293,-0.729391385793766,-0.313836736470737,0.445573815653291,6
1.44000244140625,-0.496355533599854,2.75261616706848,1.44816720485687,-0.493861275572861,2.75332167044526,1.44503903134294,2204.861,2208.641,2217.673,2212.863,356.541809082031,45.0005950927734,1.41398537158966,-0.734831035137177,-0.318435221910477,0.447596341371536,-0.741727567798258,-0.319144650954242,0.453109796737511,6
1.46000671386719,-0.511296927928925,2.74614477157593,1.45726120471954,-0.508821304757097,2.74688478782212,1.45417787972494,2206.634,2209.974,2214.906,2211.008,356.5771484375,45.0004539489746,1.39899015426636,-0.747073352336884,-0.323567509651184,0.454700350761414,-0.753933682518823,-0.324396601119133,0.46056632174764,6
1.48001098632813,-0.526480734348297,2.73957180976868,1.46649765968323,-0.524024159888143,2.74034342397783,1.46346506668862,2207.12,2209.345,2213.428,2211.045,356.616119384766,45.0003547668457,1.38353490829468,-0.759189903736115,-0.32864910364151,0.461821854114532,-0.766004036374583,-0.329590137176618,0.467939912563966,6
1.5,-0.541904091835022,2.73289847373962,1.47587585449219,-0.539455198877605,2.73370387899399,1.47289164761066,2208.547,2208.682,2210.793,2210.761,356.657867431641,45.0002784729004,1.36747288703918,-0.771167278289795,-0.333670824766159,0.46890914440155,-0.777924000354858,-0.334718964672088,0.475221632552146,6
1.52000427246094,-0.55756402015686,2.72612595558167,1.48539531230927,-0.555135099954955,2.72695725560613,1.48247025449879,2207.017,2206.803,2211.227,2211.101,356.700592041016,45.0002479553223,1.3503760099411,-0.782997488975525,-0.338627338409424,0.475971281528473,-0.789706299681991,-0.339788558913217,0.482419255351937,6
1.54000854492188,-0.573457479476929,2.71925568580627,1.49505376815796,-0.571049184024557,2.72010986981902,1.49219192012252,2210.068,2208.087,2206.24,2208.841,356.745208740234,45.0000762939453,1.33241701126099,-0.794670641422272,-0.343516737222672,0.482923239469528,-0.801336412291853,-0.344792671461508,0.489523909660973,6
1.55999755859375,-0.589581191539764,2.71228885650635,1.50485110282898,-0.587181951496087,2.71316839067337,1.50204717602401,2208.368,2207.083,2206.223,2208.641,356.788116455078,44.999870300293,1.31422328948975,-0.806185901165009,-0.348339051008224,0.4898661673069,-0.812800388649436,-0.349725300221754,0.496527073925997,6
1.58000183105469,-0.605931997299194,2.70522689819336,1.51478624343872,-0.60355483331529,2.70612359703193,1.51204911403357,2203.296,2204.775,2209.857,2208.786,356.830078125,44.9997215270996,1.29529917240143,-0.81754457950592,-0.353098154067993,0.49675989151001,-0.824110582941666,-0.354591760855452,0.503436295127019,6
1.60000610351563,-0.62250691652298,2.69807100296021,1.5248566865921,-0.620152298932711,2.69898217125626,1.52218824678091,2204.019,2205.531,2206.982,2206.355,356.874938964844,44.9994888305664,1.27570509910583,-0.828742742538452,-0.357796400785446,0.50352144241333,-0.835253140422976,-0.35938609205264,0.510243109616171,5
1.62001037597656,-0.639302372932434,2.69082236289978,1.53506171703339,-0.636970945360177,2.69174557755711,1.53246249543365,2202.024,2204.056,2206.995,2206.015,356.921081542969,44.9993095397949,1.25590193271637,-0.839777290821075,-0.36243063211441,0.510253310203552,-0.846223126656604,-0.364106170663034,0.516944503023035,5
1.63999938964844,-0.656315207481384,2.68348240852356,1.54539966583252,-0.653994195024907,2.68442094880091,1.54286173301126,2201.016,2202.711,2205.929,2205.139,356.969451904297,44.9991607666016,1.23563408851624,-0.850641191005707,-0.366996765136719,0.516895890235901,-0.857007552155828,-0.368746407673381,0.523532540272869,5
1.66000366210938,-0.673541843891144,2.67605257034302,1.55586898326874,-0.671244443874359,2.67699864863716,1.55339964084857,2197.899,2200.12,2207.064,2205.045,357.019958496094,44.9990997314453,1.21436536312103,-0.861329078674316,-0.371490985155106,0.523468375205994,-0.867618167158098,-0.373311858882592,0.530014399402375,5
1.68000793457031,-0.690978348255157,2.66853451728821,1.56646656990051,-0.688705090349012,2.66948582025311,1.56406607731192,2201.227,2201,2200.916,2202.124,357.074493408203,44.9989204406738,1.19224619865417,-0.871828377246857,-0.375908374786377,0.529879450798035,-0.878042061913515,-0.377796969585941,0.536382194046789,5
1.69999694824219,-0.708621084690094,2.66092967987061,1.57719135284424,-0.706358800111611,2.66188992212981,1.57485045312518,2200.603,2199.642,2198.836,2201.438,357.12890625,44.9987411499023,1.16994071006775,-0.882132887840271,-0.380243569612503,0.536241769790649,-0.888267004546665,-0.382196476749158,0.542628451944297,5
1.72000122070313,-0.726465880870819,2.65323972702026,1.58804166316986,-0.724228658537036,2.6542010212754,1.58576687078363,2196.445,2196.93,2200.566,2201.218,357.182556152344,44.9986038208008,1.14696025848389,-0.892240643501282,-0.384496599435806,0.542516887187958,-0.898304216251578,-0.386515208538549,0.548760027947228,5
1.74000549316406,-0.744508802890778,2.64546632766724,1.59901392459869,-0.742297311768984,2.64642658456943,1.59680472908726,2197.679,2197.478,2196.305,2198.19,357.238006591797,44.9983787536621,1.12344789505005,-0.902147710323334,-0.388669341802597,0.548615157604218,-0.908141534469281,-0.390747931744771,0.554769492138099,5
1.760009765625,-0.76274585723877,2.63761115074158,1.61010694503784,-0.760560719141003,2.63856835059778,1.60796155965597,2194.877,2195.635,2196.278,2197.498,357.292846679688,44.998176574707,1.0999253988266,-0.911854147911072,-0.392761021852493,0.554651618003845,-0.91777478390713,-0.394892849856044,0.560654293895788,4
1.77999877929688,-0.781173050403595,2.62967562675476,1.62131822109222,-0.779000609654483,2.63063418086074,1.61922620102184,2192.288,2193.795,2196.086,2196.317,357.348297119141,44.9980125427246,1.07611012458801,-0.921358585357666,-0.396772027015686,0.560564279556274,-0.927192788821983,-0.398945154262308,0.566407606133204,4
1.80000305175781,-0.799786269664764,2.62166166305542,1.63264560699463,-0.797640935141499,2.62261376955408,1.63061328498531,2187.409,2190.75,2198.343,2195.884,357.405426025391,44.9979438781738,1.05139911174774,-0.930659890174866,-0.400701910257339,0.566371321678162,-0.936405971974637,-0.402909329586356,0.572035795952272,4
1.82000732421875,-0.818581223487854,2.61357069015503,1.6440851688385,-0.816463410111527,2.61451498441355,1.64211164122557,2190.055,2191.281,2192.334,2192.512,357.467376708984,44.9977684020996,1.02593994140625,-0.93974781036377,-0.404547125101089,0.571981191635132,-0.94540321420156,-0.406780591562751,0.577532070829503,3
1.83999633789063,-0.83755350112915,2.60540461540222,1.65563547611237,-0.835449117627072,2.60634596486888,1.6537097136807,2189.366,2189.594,2189.718,2191.507,357.530334472656,44.997615814209,1.0003856420517,-0.948614120483398,-0.40829998254776,0.577514171600342,-0.954174163352093,-0.410554485950274,0.582890106797601,3
1.86000061035156,-0.856698572635651,2.59716558456421,1.66729414463043,-0.854622615239374,2.59809614449182,1.66542250417552,2185.746,2186.572,2190.273,2191.046,357.593444824219,44.9975357055664,0.974207162857056,-0.957254707813263,-0.411957591772079,0.582932949066162,-0.962728579444532,-0.414235212212131,0.588115866099442,0
1.8800048828125,-0.876011848449707,2.58885526657104,1.67905700206757,-0.873964974649439,2.58977366760063,1.67723844970756,2187.9,2186.889,2184.561,2187.657,357.658538818359,44.9973449707031,0.947571158409119,-0.965663969516754,-0.415519505739212,0.588144659996033,-0.971056158224177,-0.417818336715394,0.593203054026622,0
1.90000915527344,-0.895488679409027,2.58047556877136,1.69092237949371,-0.893471623792247,2.58138050142717,1.68915475727365,2185.282,2184.845,2183.77,2186.711,357.72216796875,44.9971656799316,0.921010494232178,-0.973841309547424,-0.418984234333038,0.59327095746994,-0.979153483542501,-0.421302389586788,0.598149583707317,0
1.91999816894531,-0.915124356746674,2.57202839851379,1.70288729667664,-0.913122862707269,2.57292512231409,1.7011593924753,2182.172,2182.807,2183.594,2185.257,357.785125732422,44.9970321655273,0.894272327423096,-0.981788218021393,-0.422354400157928,0.598248839378357,-0.987011339258123,-0.424683405378145,0.60294982514457,0
1.94000244140625,-0.934914469718933,2.56351566314697,1.71494925022125,-0.932943991899774,2.5643966441608,1.71326781099638,2176.195,2179.51,2186.462,2184.653,357.848724365234,44.9969673156738,0.866743445396423,-0.98950719833374,-0.425632447004318,0.60310035943985,-0.994638524886308,-0.427965170275055,0.607609153824943,0
1.96000671386719,-0.954854309558868,2.55493927001953,1.72710382938385,-0.952915303453826,2.55580354673295,1.72546797357858,2178.001,2179.839,2180.983,2180.939,357.916809082031,44.9968147277832,0.838608205318451,-0.996991395950317,-0.428817391395569,0.607728958129883,-1.00202586176059,-0.431143734953757,0.612121962644322,0
1.97999572753906,-0.974938929080963,2.5463011264801,1.7393491268158,-0.973016570682103,2.54715453300902,1.73774752405424,2176.75,2177.863,2178.551,2179.824,357.986236572266,44.9966850280762,0.810479044914246,-1.00423324108124,-0.431901872158051,0.612265229225159,-1.00916501115878,-0.434215511495054,0.616483157607448,0
2,-0.99516361951828,2.5376033782959,1.75168251991272,-0.993273599084619,2.53843849960327,1.75012222660065,2173.035,2174.63,2178.831,2179.2,358.056457519531,44.9966430664063,0.781775593757629,-1.01122844219208,-0.434881925582886,0.616666913032532,-1.01606400046349,-0.437183953857422,0.620697642517089,0
2.02000427246094,-1.01552295684814,2.52884817123413,1.76409935951233,-1.01366615605493,2.52966415204104,1.76257972143423,2175.727,2174.804,2172.329,2175.524,358.129211425781,44.9964828491211,0.752695202827454,-1.01797068119049,-0.437755852937698,0.620840311050415,-1.02271452148052,-0.440045487257004,0.624760342027063,0
2.04000854492188,-1.03601205348969,2.52003765106201,1.7765976190567,-1.03418924440916,2.52083364047092,1.77511695585335,2173.595,2172.645,2170.692,2174.44,358.200500488281,44.9963607788086,0.723769783973694,-1.02445757389069,-0.440520316362381,0.624914824962616,-1.02911391720548,-0.442798968459032,0.628669633014835,0
2.05999755859375,-1.0566258430481,2.51117420196533,1.78917407989502,-1.05482201812353,2.5119559343546,1.78772119534738,2170.638,2170.458,2170.056,2172.866,358.270477294922,44.9962577819824,0.694749474525452,-1.03069138526917,-0.443177938461304,0.628825902938843,-1.03525504859546,-0.445441325732794,0.632421154350513,0
2.08000183105469,-1.0773594379425,2.50225949287415,1.80182600021362,-1.07559088172821,2.50301967256038,1.80040857003175,2164.288,2166.987,2172.973,2172.23,358.340209960938,44.9962501525879,0.664970517158508,-1.03667628765106,-0.44573250412941,0.632597982883453,-1.04114485287423,-0.447975543971863,0.636019143875825,0
2.10000610351563,-1.09820759296417,2.49329566955566,1.81454849243164,-1.09647498538954,2.49403382618922,1.81316634306845,2165.612,2167.272,2167.837,2168.204,358.413787841797,44.9961051940918,0.634675979614258,-1.04240834712982,-0.448185384273529,0.636126697063446,-1.04677621342161,-0.450398561093403,0.639459254158576,0
2.12001037597656,-1.11916506290436,2.48428511619568,1.82733952999115,-1.11746913671118,2.48500062938421,1.82599134250357,2163.738,2165.219,2165.784,2166.994,358.488342285156,44.9959907531738,0.604499399662018,-1.04788136482239,-0.450530409812927,0.639554858207703,-1.05214690704168,-0.452709420518306,0.642740127083052,0
2.13999938964844,-1.14022696018219,2.47522974014282,1.84019577503204,-1.138551967509,2.47592927627801,1.83887051484687,2162.495,2163.126,2163.264,2165.314,358.563781738281,44.995906829834,0.574281513690948,-1.05309176445007,-0.452764213085175,0.642814755439758,-1.05725102347782,-0.454905579228273,0.645858152165725,0
2.16000366210938,-1.16138756275177,2.46613192558289,1.85311436653137,-1.15975039167652,2.46680818657414,1.85182030137592,2157.948,2159.694,2164.195,2164.659,358.639556884766,44.995922088623,0.543406307697296,-1.05803847312927,-0.454885095357895,0.645932555198669,-1.0620943502576,-0.456989527434725,0.648816864916866,0
2.18000793457031,-1.18264186382294,2.45699405670166,1.86609041690826,-1.18104303873349,2.45764655539322,1.86482764719782,2160.499,2159.938,2157.766,2160.583,358.718078613281,44.9958000183105,0.512155413627625,-1.0627167224884,-0.456892967224121,0.648801565170288,-1.06667099276523,-0.458958728849171,0.651612664407683,0
2.19999694824219,-1.20398426055908,2.44781827926636,1.87912178039551,-1.20240821395574,2.44845371736898,1.8778792993441,2158.323,2157.729,2155.938,2159.474,358.79541015625,44.9957046508789,0.481101989746094,-1.06712281703949,-0.458783626556396,0.651568591594696,-1.07097597819164,-0.460811043810786,0.654242512826705,0
2.22000122070313,-1.22540950775146,2.43860721588135,1.89220547676086,-1.22387315175433,2.43921795429519,1.89099189489151,2152.776,2154.283,2157.771,2158.817,358.871673583984,44.9957046508789,0.44958221912384,-1.07125949859619,-0.4605593085289,0.654184103012085,-1.07501419914593,-0.462548577472581,0.656709398992482,0
2.24000549316406,-1.24691200256348,2.42936277389526,1.90533649921417,-1.24541615591711,2.42994860144581,1.90415217996261,2154.122,2154.271,2152.609,2154.866,358.950164794922,44.9955825805664,0.417816191911697,-1.07512664794922,-0.462223052978516,0.656549990177155,-1.07878069424208,-0.464169195088763,0.659010292071722,0
2.260009765625,-1.2684862613678,2.4200873374939,1.91851258277893,-1.26703177594152,2.42064800401982,1.91735682493042,2151.27,2152.008,2151.494,2153.707,359.027984619141,44.9955024719238,0.38629075884819,-1.0787216424942,-0.463771492242813,0.658807039260864,-1.08227399942825,-0.465672266718726,0.661144297698006,0
2.27999877929688,-1.29012727737427,2.41078329086304,1.93173027038574,-1.28869796983554,2.41132564607061,1.93059236468599,2148.783,2149.774,2150.212,2152.007,359.105895996094,44.9954528808594,0.354765057563782,-1.08204579353333,-0.465205252170563,0.660886943340302,-1.08549040888332,-0.467056197851165,0.663109152043028,0
2.30000305175781,-1.31182909011841,2.4014527797699,1.94498670101166,-1.31044231452835,2.40196966201596,1.94387564554502,2143.43,2146.269,2151.866,2151.384,359.184417724609,44.9955101013184,0.322550386190414,-1.08509969711304,-0.466524451971054,0.662819266319275,-1.08843358680109,-0.468322565086307,0.664907093505606,0
2.32000732421875,-1.33358669281006,2.39209818840027,1.95827651023865,-1.33224276726637,2.39258953623693,1.95719320193332,2146.098,2146.554,2145.394,2147.09,359.266693115234,44.9954223632813,0.289987236261368,-1.0878791809082,-0.467728763818741,0.664491415023804,-1.09109983431736,-0.469469776906228,0.666535862507326,0
2.33999633789063,-1.35539436340332,2.38272190093994,1.97159779071808,-1.35407709248145,2.38319483607731,1.97053145048929,2144.576,2144.389,2142.822,2145.981,359.3486328125,44.9953422546387,0.257669121026993,-1.09037697315216,-0.468811124563217,0.666061341762543,-1.09348640563071,-0.470496651869278,0.667993781680938,0
2.36000061035156,-1.37724614143372,2.37332653999329,1.98494732379913,-1.37597305876702,2.37377361348711,1.98390735461333,2139.915,2140.986,2143.665,2145.348,359.429809570313,44.9953765869141,0.224940031766891,-1.09259402751923,-0.469771564006805,0.667476415634155,-1.09559602313537,-0.471404361345641,0.669282514094601,0
2.3800048828125,-1.3991367816925,2.36391425132751,1.99831998348236,-1.39790843013262,2.36433543599182,1.99730733068585,2141.982,2141.026,2137.865,2141.241,359.512634277344,44.9952735900879,0.192103058099747,-1.09453070163727,-0.470612674951553,0.668633937835693,-1.09742594550583,-0.472191725819537,0.67040038511534,0
2.40000915527344,-1.42106056213379,2.354487657547,2.01171374320984,-1.41987760424917,2.35488271411715,2.01072795633145,2139.063,2138.696,2136.774,2140.217,359.593627929688,44.9952087402344,0.159610614180565,-1.09618473052979,-0.471331655979156,0.669685840606689,-1.09897546783438,-0.472858441988871,0.671346964126033,0
2.41999816894531,-1.44301176071167,2.34504890441895,2.0251247882843,-1.44185817738692,2.34542508756209,2.02415554546122,2136.02,2136.415,2136.078,2138.548,359.673645019531,44.995189666748,0.127180933952332,-1.09756124019623,-0.471931934356689,0.670555770397186,-1.10024313330221,-0.473403883025206,0.672121361178802,0
2.44000244140625,-1.46498489379883,2.33560061454773,2.03855013847351,-1.46387808506052,2.33595053645515,2.03760716344514,2129.945,2133.055,2138.428,2137.858,359.753692626953,44.9952697753906,0.0941338986158371,-1.09866344928741,-0.4724161028862,0.671273112297058,-1.10123038958312,-0.473828671822132,0.672724460634977,0
2.46000671386719,-1.48697483539581,2.32614493370056,2.0519847869873,-1.48591492338117,2.32646870056377,2.05106912409714,2132.158,2133.212,2132.554,2133.635,359.837432861328,44.9951972961426,0.0608398169279099,-1.09948968887329,-0.472785592079163,0.671731472015381,-1.10193578218388,-0.474132182551855,0.673155373967352,0
2.47999572753906,-1.50897550582886,2.31668424606323,2.06542658805847,-1.50794623031618,2.31698924467309,2.06452770571198,2130.641,2131.091,2130.016,2132.533,359.92138671875,44.9951438903809,0.0278359986841679,-1.1000314950943,-0.473032414913177,0.672084927558899,-1.10235882472314,-0.474314205938057,0.673413804053135,0
2.5,-1.53098130226135,2.30722117424011,2.0788722038269,-1.52999999932945,2.30750012397766,2.0780000090599,2126.478,2127.814,2130.365,2131.891,0.00506276404485106,44.9951972961426,-0.00551002845168114,-1.10028946399689,-0.473155468702316,0.672281920909882,-1.10250000050292,-0.474374949932098,0.673500046133994,0
2.52000427246094,-1.55298662185669,2.29775810241699,2.09231662750244,-1.55205376834272,2.29801100328223,2.09147231240783,2129.132,2127.782,2124.159,2127.815,0.0904452428221703,44.9951133728027,359.961151123047,-1.10026383399963,-0.473156571388245,0.672221839427948,-1.10235882472314,-0.474314205938057,0.673413804053136,0
2.54000854492188,-1.57498550415039,2.28829717636108,2.10575771331787,-1.57410188948011,2.28852431271001,2.10494116555652,2126.672,2125.509,2122.663,2126.834,0.173639521002769,44.9950752258301,359.928192138672,-1.09995102882385,-0.473031789064407,0.672056317329407,-1.10193535162022,-0.474131997292339,0.673155110942729,0
2.55999755859375,-1.59697294235229,2.2788417339325,2.11919188499451,-1.59612191359838,2.27904971150017,2.11839285467467,2123.666,2123.366,2122.013,2125.119,0.255069881677628,44.9950752258301,359.895416259766,-1.09935772418976,-0.47278556227684,0.671706974506378,-1.10123038958312,-0.473828671822132,0.672724460634977,0
2.58000183105469,-1.61894273757935,2.2693932056427,2.13261604309082,-1.61814182127198,2.26957516039323,2.13184447265859,2117.381,2119.915,2124.583,2124.718,0.335773229598999,44.9951972961426,359.862060546875,-1.0984890460968,-0.472422003746033,0.671213507652283,-1.10024313330221,-0.473403883025206,0.672121361178803,0
2.60000610351563,-1.64088940620422,2.25995421409607,2.14602518081665,-1.64013916343638,2.26011031859448,2.14528230572506,2119.133,2120.216,2119.409,2120.296,0.419646769762039,44.9951362609863,359.828552246094,-1.09734642505646,-0.471944749355316,0.670451402664185,-1.09897439291323,-0.472857979480329,0.671346307473476,0
2.62001037597656,-1.66280794143677,2.25052738189697,2.15941691398621,-1.66210831390746,2.25065760689379,2.15870291692601,2117.406,2118.232,2117.144,2119.248,0.503643929958344,44.9950866699219,359.795440673828,-1.09592151641846,-0.471346288919449,0.669591009616852,-1.09742465646102,-0.47219117117957,0.670399597657984,0
2.63999938964844,-1.68469226360321,2.24111485481262,2.17278790473938,-1.68402693989188,2.24122663446822,2.17209266350648,2116.146,2116.065,2114.771,2117.705,0.587527096271515,44.9950828552246,359.762542724609,-1.09421575069427,-0.470625817775726,0.668554782867432,-1.09559602313537,-0.471404361345641,0.669282514094601,0
2.66000366210938,-1.70653676986694,2.23171925544739,2.18613529205322,-1.70592290617745,2.23180541187802,2.18546856763052,2111.629,2112.937,2115.646,2117.063,0.670805811882019,44.9951820373535,359.729248046875,-1.09223020076752,-0.469783097505569,0.667366921901703,-1.09348640563071,-0.470496651869278,0.667993781680938,0
2.68000793457031,-1.72833621501923,2.22234272956848,2.19945383071899,-1.72777388024004,2.22240354818443,2.19881698670763,2114.17,2113.015,2109.824,2112.925,0.755852937698364,44.9951210021973,359.695922851563,-1.0899670124054,-0.468821376562119,0.665924191474915,-1.09109790637238,-0.469468947365361,0.666534684755819,0
2.69999694824219,-1.75008463859558,2.21298789978027,2.21274137496948,-1.74955768413056,2.21303058593937,2.21212437257479,2111.887,2110.966,2108.239,2111.974,0.838987588882446,44.9950981140137,359.6630859375,-1.08742070198059,-0.467735826969147,0.664381623268127,-1.08843358680109,-0.468322565086308,0.664907093505606,0
2.72000122070313,-1.77177655696869,2.20365738868713,2.22599506378174,-1.77130202882336,2.20367460188472,2.22540765343382,2106.56,2107.832,2109.895,2111.491,0.920518159866333,44.995174407959,359.629974365234,-1.08459782600403,-0.466530412435532,0.662687003612518,-1.08549040888332,-0.467056197851165,0.663109152043028,0
2.74000549316406,-1.79340660572052,2.19435286521912,2.2392098903656,-1.79298473688851,2.19434513834902,2.23865328143884,2108.177,2107.755,2105.125,2107.521,1.00351715087891,44.9951362609863,359.597015380859,-1.08150374889374,-0.465210348367691,0.660739123821259,-1.08227143928024,-0.465671165158559,0.661142733743536,0
2.760009765625,-1.81496930122375,2.18507766723633,2.25238370895386,-1.81460030360772,2.18504456385877,2.25185789384333,2105.537,2105.718,2104.005,2106.596,1.08517384529114,44.9951324462891,359.564575195313,-1.07813346385956,-0.4637710750103,0.658690094947815,-1.07877792518082,-0.464168003639063,0.659008600495412,0
2.77999877929688,-1.83645915985107,2.1758337020874,2.2655131816864,-1.83612684690458,2.17578229366013,2.2650081232283,2103.425,2103.568,2102.705,2105.166,1.1661571264267,44.9951705932617,359.532348632813,-1.07449281215668,-0.46221524477005,0.656468749046326,-1.07501419914593,-0.462548577472581,0.656709398992482,0
2.80000305175781,-1.85787081718445,2.16662263870239,2.2785952091217,-1.85759178470316,2.16654653058634,2.2781207187757,2098.502,2100.611,2104.116,2104.604,1.246826171875,44.9952964782715,359.499664306641,-1.07058393955231,-0.460543930530548,0.654100120067596,-1.07097597819164,-0.460811043810786,0.654242512826704,0
2.82000732421875,-1.87919878959656,2.15744733810425,2.2916247844696,-1.87897323600723,2.1573466894188,2.29118231372639,2101.041,2100.854,2098.568,2100.427,1.32996606826782,44.995246887207,359.467071533203,-1.06640923023224,-0.458760052919388,0.651479542255402,-1.06666760390385,-0.458957270716794,0.65161059420515,0
2.83999633789063,-1.90043830871582,2.14830994606018,2.30460023880005,-1.90024960698239,2.14819206138118,2.30417971674389,2099.663,2098.972,2096.245,2099.57,1.41201865673065,44.9952201843262,359.435028076172,-1.06195998191833,-0.456856280565262,0.648768186569214,-1.06209435025759,-0.456989527434725,0.648816864916866,0
2.86000061035156,-1.9215829372406,2.13921356201172,2.31751847267151,-1.9214480311499,2.13907097167731,2.31712950327294,2095.292,2095.959,2097.109,2099.238,1.49257016181946,44.9953117370605,359.402862548828,-1.05724167823792,-0.454834550619125,0.645912945270538,-1.05725102347782,-0.454905579228273,0.645858152165725,0
2.8800048828125,-1.94262838363647,2.13015961647034,2.3303747177124,-1.94254691640495,2.12999271078668,2.33001848303364,2097.556,2095.879,2092.04,2095.357,1.5739209651947,44.9952812194824,359.370941162109,-1.05226051807404,-0.452700018882751,0.642810165882111,-1.0521429102862,-0.45270770082608,0.642737685527497,0
2.90000915527344,-1.96356844902039,2.12115073204041,2.3431670665741,-1.96354098577478,2.12095954924324,2.34284343240568,2094.912,2093.897,2091.137,2094.621,1.65284705162048,44.995288848877,359.339569091797,-1.0470118522644,-0.450448662042618,0.639615476131439,-1.04677201701582,-0.450396755497224,0.639456690639761,0
2.91999816894531,-1.98439836502075,2.11218905448914,2.35589194297791,-1.98440911693069,2.11198057539494,2.35559144808806,2092.383,2092.057,2090.491,2093.105,1.73011302947998,44.9953384399414,359.308563232422,-1.0415050983429,-0.448086023330688,0.636249840259552,-1.04114485287423,-0.447975543971863,0.636019143875825,0
2.94000244140625,-2.00511336326599,2.10327672958374,2.36854696273804,-2.00517798053537,2.10304431360073,2.36827882277243,2087.025,2089.303,2092.487,2092.715,1.8065505027771,44.995475769043,359.277252197266,-1.03574430942535,-0.445615023374557,0.632750809192657,-1.03525504859546,-0.445441325732794,0.632421154350513,0
2.96000671386719,-2.02570796012878,2.09441590309143,2.38112711906433,-2.02582645724542,2.09415985092405,2.38089265498147,2089.135,2089.386,2087.683,2088.879,1.88539290428162,44.9954605102539,359.24609375,-1.02973437309265,-0.443039864301682,0.629013419151306,-1.02910913225408,-0.442796909628122,0.628666709962695,0
2.97999572753906,-2.04617714881897,2.085608959198,2.39363074302673,-2.04633384260397,2.08533609591429,2.39342029668558,2087.938,2087.709,2085.455,2088.029,1.96359765529633,44.9954414367676,359.215545654297,-1.02346587181091,-0.440352499485016,0.625186383724213,-1.02271452148052,-0.440045487257004,0.624760342027062,0
3,-2.06651592254639,2.0768575668335,2.40605521202087,-2.06672639957428,2.07656174835205,2.40587779151916,2084.409,2084.984,2085.718,2087.723,2.04071140289307,44.995532989502,359.184997558594,-1.01694333553314,-0.437553942203522,0.621224641799927,-1.01606400046349,-0.437183953857422,0.620697642517089,0
3.02000427246094,-2.08671927452087,2.06816482543945,2.41839575767517,-2.0869834279768,2.06784571494631,2.41825249406557,2086.888,2084.966,2080.763,2084.007,2.11840176582336,44.9955024719238,359.154846191406,-1.01017332077026,-0.434648364782333,0.617028951644897,-1.00916501115878,-0.434215511495054,0.616483157607448,0
3.04000854492188,-2.10678219795227,2.05953216552734,2.43065071105957,-2.10709998486405,2.05919012250926,2.43054138475531,2084.938,2083.02,2079.464,2083.493,2.19339656829834,44.9955253601074,359.125305175781,-1.00315022468567,-0.43163126707077,0.612753033638,-1.00202031904361,-0.431141350077486,0.612118576685011,0
3.05999755859375,-2.12670016288757,2.05096197128296,2.44281697273254,-2.12705600675913,2.05060360379452,2.44273220712343,2082.464,2081.328,2079.06,2082.094,2.26598477363586,44.9955902099609,359.09619140625,-0.995885372161865,-0.428508996963501,0.608314394950867,-0.994638524886308,-0.427965170275055,0.607609153824944,0
3.08000183105469,-2.14646768569946,2.04245638847351,2.45489192008972,-2.14687713595163,2.04207512564123,2.45484062564451,2077.142,2078.802,2081.271,2081.821,2.33707809448242,44.9957504272461,359.066864013672,-0.988384127616882,-0.425285875797272,0.603753328323364,-0.987011339258122,-0.424683405378145,0.60294982514457,0
3.10000610351563,-2.16608095169067,2.03401684761047,2.46687126159668,-2.16654331551667,2.03361331798384,2.46685438785611,2078.941,2079.024,2077.134,2078.096,2.40998840332031,44.9957466125488,359.037811279297,-0.980654060840607,-0.421967804431915,0.598965644836426,-0.979147395688901,-0.421299770153459,0.598145864732551,0
3.12001037597656,-2.18553447723389,2.02564597129822,2.47875332832336,-2.18604984110275,2.02522020497339,2.47877061994332,2077.463,2077.494,2075.44,2077.461,2.48210334777832,44.995735168457,359.009460449219,-0.972685813903809,-0.418547302484512,0.594102919101715,-0.971049893464309,-0.41781564116424,0.593199226982579,0
3.13999938964844,-2.20482420921326,2.0173454284668,2.49053502082825,-2.20537738341953,2.01690410346351,2.49057751394429,2076.758,2075.915,2073.445,2076.166,2.5533299446106,44.9957618713379,358.981628417969,-0.964486241340637,-0.415026158094406,0.589090287685394,-0.962728579444533,-0.414235212212131,0.588115866099442,0
3.16000366210938,-2.22394561767578,2.00911712646484,2.50221419334412,-2.22455088103183,2.00865428308644,2.50229030443911,2073.168,2073.504,2074.162,2075.925,2.62310075759888,44.9958915710449,358.953826904297,-0.956057548522949,-0.411404639482498,0.583961427211761,-0.954174163352092,-0.410554485950274,0.582890106797601,0
3.18000793457031,-2.2428936958313,2.00096368789673,2.51378655433655,-2.24355101420387,2.00047905658478,2.51389718930268,2075.432,2073.531,2069.837,2072.508,2.69330930709839,44.9958915710449,358.926452636719,-0.947407901287079,-0.407688200473785,0.578620195388794,-0.945396434568188,-0.406777674475913,0.577527929257271,0
3.19999694824219,-2.26166415214539,1.99288630485535,2.52525067329407,-2.2623590635174,1.99238647840124,2.5253867331345,2073.867,2072.003,2068.513,2071.956,2.76105809211731,44.995922088623,358.899719238281,-0.938531041145325,-0.403872221708298,0.573206901550293,-0.936405971974636,-0.402909329586355,0.572035795952272,0
3.22000122070313,-2.2802529335022,1.98488736152649,2.53660416603088,-2.28099938900442,1.98436606709459,2.53677381709797,2069.645,2069.833,2069.928,2071.669,2.82645273208618,44.9960403442383,358.873138427734,-0.929436922073364,-0.399961948394775,0.567672967910767,-0.927192788821982,-0.398945154262308,0.566407606133204,0
3.24000549316406,-2.29865574836731,1.97696781158447,2.54784297943115,-2.29945328359428,1.9764258717947,2.54804701333557,2071.044,2069.751,2066.568,2068.579,2.89197158813477,44.9960594177246,358.847106933594,-0.920135498046875,-0.395964354276657,0.561941087245941,-0.91776751470058,-0.394889722119544,0.560649853250941,0
3.260009765625,-2.3168683052063,1.96913027763367,2.5589656829834,-2.31771654397337,1.96856770107001,2.5592037541086,2068.981,2068.385,2065.882,2068.012,2.95552325248718,44.99609375,358.821807861328,-0.910621821880341,-0.391875445842743,0.556136548519135,-0.908134108040216,-0.390744736359816,0.55476495544847,0
3.27999877929688,-2.33488607406616,1.96137619018555,2.56996965408325,-2.33577134012187,1.96079922667992,2.57023314733618,2067.516,2066.905,2064.99,2067.005,3.01771259307861,44.9961547851563,358.797088623047,-0.90090537071228,-0.387699335813522,0.550201654434204,-0.898304216251578,-0.386515208538549,0.548760027947228,0
3.30000305175781,-2.35270595550537,1.95370745658875,2.5808527469635,-2.35364119854729,1.95311032582551,2.58114956499463,2064.033,2064.943,2065.946,2066.703,3.07879233360291,44.9962921142578,358.7724609375,-0.89098984003067,-0.383437514305115,0.544159054756165,-0.888267004546666,-0.382196476749158,0.542628451944297,0
3.32000732421875,-2.37032389640808,1.94612562656403,2.59161138534546,-2.37130830610839,1.94550866300381,2.59194212531393,2066.316,2064.947,2061.941,2063.748,3.14071488380432,44.9963035583496,358.748352050781,-0.880882263183594,-0.379094183444977,0.537932693958282,-0.878034183119985,-0.377793579561194,0.536377381014769,0
3.33999633789063,-2.38773536682129,1.93863260746002,2.60224413871765,-2.38875555478454,1.93800159931817,2.60260037727124,2065.426,2063.689,2060.346,2063.254,3.20071458816528,44.9963302612305,358.724945068359,-0.870575666427612,-0.374663591384888,0.531642556190491,-0.867618167158097,-0.373311858882592,0.530014399402376,0
3.36000061035156,-2.40493702888489,1.93122935295105,2.61274909973145,-2.406005803634,1.93057929915441,2.61313828510855,2062.494,2061.824,2060.903,2063.031,3.25848007202148,44.9964332580566,358.701843261719,-0.860078692436218,-0.370149493217468,0.525248467922211,-0.857007552155826,-0.36874640767338,0.523532540272868,0
3.3800048828125,-2.42192506790161,1.9239182472229,2.62312269210815,-2.42304196557559,1.92324911460621,2.6235454105946,2064.068,2061.904,2057.772,2060.181,3.31554794311523,44.9964408874512,358.679412841797,-0.849401414394379,-0.365558356046677,0.518678843975067,-0.846214826007803,-0.364102599125748,0.516939432286212,0
3.40000915527344,-2.43869590759277,1.91670036315918,2.63336372375488,-2.43986044461333,1.91601259293018,2.63381955699157,2062.337,2060.577,2057.188,2059.936,3.36984467506409,44.9964904785156,358.657836914063,-0.838540375232697,-0.360887229442596,0.51205712556839,-0.835244706287931,-0.359382463079953,0.510237957334685,0
3.41999816894531,-2.45524573326111,1.90957772731781,2.64347004890442,-2.45644516534361,1.90887665092339,2.64395090408624,2060.562,2059.399,2057.01,2059.021,3.42187571525574,44.9965782165527,358.636932373047,-0.82750791311264,-0.356142371892929,0.505318403244019,-0.824110582941664,-0.354591760855451,0.503436295127018,0
3.44000244140625,-2.47157216072083,1.90255093574524,2.65343999862671,-2.47281804716281,1.90183185728196,2.6539528420958,2057.071,2057.695,2058.366,2058.918,3.47234725952148,44.9967384338379,358.6162109375,-0.81630927324295,-0.351326793432236,0.498493492603302,-0.812800388649434,-0.349725300221754,0.496527073925997,0
3.46000671386719,-2.48767113685608,1.89562213420868,2.66327023506165,-2.4889630419904,1.89488511704659,2.6638155674983,2058.737,2057.865,2055.345,2056.268,3.52338862419128,44.9967651367188,358.596099853516,-0.804953157901764,-0.346445679664612,0.491507679224014,-0.801327600455845,-0.344788879974649,0.489518526647863,0
3.47999572753906,-2.50353956222534,1.88879227638245,2.67295980453491,-2.50486489870395,1.88804299234919,2.67352976362102,2058.259,2056.868,2053.783,2055.905,3.57293748855591,44.9967842102051,358.576843261719,-0.7934330701828,-0.341493487358093,0.484474450349808,-0.789706299681989,-0.339788558913217,0.482419255351936,0
3.5,-2.51917457580566,1.88206279277802,2.68250703811646,-2.5205447997813,1.88129636896134,2.68310837050915,2056.085,2055.326,2054.015,2055.81,3.6205198764801,44.9968910217285,358.558013916016,-0.781756818294525,-0.336472630500793,0.477357417345047,-0.777924000354857,-0.334718964672089,0.475221632552147,0
3.52000427246094,-2.53457355499268,1.87543511390686,2.69190883636475,-2.53598752699493,1.87465179486116,2.69254209158495,2058.059,2055.341,2050.941,2053.455,3.66719055175781,44.9969024658203,358.540008544922,-0.769933998584747,-0.331388413906097,0.470094799995422,-0.765994882555673,-0.32958619854407,0.467934320638837,0
3.54000854492188,-2.54973268508911,1.8689101934433,2.70116472244263,-2.55119019794619,1.86811051026429,2.70182916603607,2056.778,2054.247,2050.404,2053.339,3.71073031425476,44.9969673156738,358.522827148438,-0.757962048053741,-0.32623827457428,0.462793231010437,-0.753924423002452,-0.324392617007921,0.460560665253582,0
3.55999755859375,-2.56464982032776,1.8624894618988,2.71027255058289,-2.56613872308604,1.86167857751006,2.71096098677687,2055.352,2053.435,2050.354,2052.49,3.75146555900574,44.9970626831055,358.506408691406,-0.745854139328003,-0.321029216051102,0.45539453625679,-0.741727567798258,-0.319144650954242,0.45310979673751,0
3.58000183105469,-2.57932186126709,1.85617446899414,2.71923112869263,-2.58085326729328,1.85534732021446,2.71994987221714,2052.053,2052.073,2051.944,2052.569,3.79000377655029,44.9972267150879,358.490386962891,-0.733616292476654,-0.315765053033829,0.44793489575386,-0.729391385793765,-0.313836736470737,0.44557381565329,0
3.60000610351563,-2.59374737739563,1.84996509552002,2.72803807258606,-2.59531978247425,1.84912278287974,2.72878724059568,2053.55,2052.302,2049.541,2050.35,3.82849359512329,44.9972648620605,358.475067138672,-0.721259236335754,-0.310452103614807,0.440343886613846,-0.716930938559024,-0.308475354130224,0.437961922879033,0
3.6199951171875,-2.60792279243469,1.84386348724365,2.73669242858887,-2.60952509409627,1.84301063413925,2.73746504379605,2052.716,2051.6,2048.762,2050.184,3.86521863937378,44.9973068237305,358.460632324219,-0.708778262138367,-0.305085897445679,0.432723730802536,-0.704361775018033,-0.303067194200314,0.43028361700977,0
3.63999938964844,-2.62184643745422,1.8378701210022,2.74519324302673,-2.6234885835008,1.83700253474321,2.74599512157732,2051.234,2050.373,2048.843,2050.204,3.9002058506012,44.9974021911621,358.446838378906,-0.696181774139404,-0.299669414758682,0.425041496753693,-0.691670720740692,-0.297606588091786,0.422530849991739,0
3.66000366210938,-2.63551616668701,1.83198606967926,2.75353813171387,-2.63719712493647,1.83110413233575,2.75436945562281,2053.206,2050.496,2046.195,2048.3,3.93414044380188,44.997428894043,358.433898925781,-0.683478772640228,-0.29420679807663,0.417246013879776,-0.678873453515702,-0.29210028151913,0.414713199141411,0
3.68000793457031,-2.64892959594727,1.82621192932129,2.76172661781311,-2.65064865588166,1.82531631436231,2.76258678597022,2052.539,2049.721,2045.588,2048.279,3.96499156951904,44.9974899291992,358.421905517578,-0.67066764831543,-0.288695931434631,0.409428536891937,-0.665976209205203,-0.286550957599616,0.406834473849655,0
3.69999694824219,-2.66208457946777,1.82054924964905,2.76975750923157,-2.66383127580226,1.81964420129024,2.77063984276899,2051.55,2049.129,2045.592,2047.729,3.99278402328491,44.9975852966309,358.410797119141,-0.657761037349701,-0.283143103122711,0.401543289422989,-0.65299527533123,-0.280965624398954,0.398904623909523,0
