t,x_s1,x_s2,x_s3,x_s_d1,x_s_d2,x_s_d3,propellers_rpms1,propellers_rpms2,propellers_rpms3,propellers_rpms4,rollRad,pitchRad,yawRad,v_s1,v_s2,v_s3,v_s_d1,v_s_d2,v_s_d3,insideCount
0,-0.0599999986588955,2.94000005722046,1.17999994754791,-0.0599999986588955,2.94000005722046,1.17999994754791,0,0,0,0,0,0,0,0,0,0,-1.06581410364015E-15,4.44089209850063E-16,4.44089209850063E-16,0
0.0200042724609375,-0.0599999986588955,2.94000005722046,1.1771354675293,-0.0600018701838461,2.93999925195556,1.18000110611101,0,0,0,0,0.0163538,-0.002474609,-2.024222E-05,3.71994488546079E-08,3.50004931704007E-08,-0.143225952982903,-0.000280105751305916,-0.000120521679537258,0.00017339880334547,5
0.040008544921875,-0.0599999986588955,2.94000005722046,1.17048275470734,-0.060014880898484,2.93999365380853,1.18000916036316,0,0,0,0,0.03270752,-0.004950816,-5.430172E-05,3.62924410524101E-08,3.44428769949445E-08,-0.332637369632721,-0.00111143977225461,-0.000478221483967637,0.00068803416424398,6
0.05999755859375,-0.0600004345178604,2.94013261795044,1.16416549682617,-0.0600498857373401,2.93997859220429,1.18003083002592,3185.406,2835.785,1501.1,2767.662,0.03127991,-0.00494336,-0.01646952,-2.17784399865195E-05,0.0066222520545125,-0.315860867500305,-0.00247936261166862,-0.00106680046642749,0.00153484356504269,6
0.0800018310546875,-0.0599162206053734,2.94038772583008,1.15857696533203,-0.0601175574246769,2.93994947496775,1.18007272202403,3065.603,3067.191,2155.165,2024.121,0.01897616,-0.004310593,-0.04351445,0.00421066209673882,0.0127498498186469,-0.279423803091049,-0.00437268608126799,-0.00188144466206175,0.00270690098422899,6
0.100006103515625,-0.0596375502645969,2.94068765640259,1.15374839305878,-0.0602282404704493,2.93990185114529,1.18014124010193,2640.55,3831.823,2620.117,1134.666,-0.00585203,-0.002888465,-0.070145,0.0139334313571453,0.0149977942928672,-0.241429135203362,-0.00677739276378709,-0.00291612276782231,0.00419552897277328,6
0.120010375976563,-0.0590848885476589,2.94089889526367,1.14957022666931,-0.0603920338334453,2.93983137543704,1.18024263599618,2092.257,4101.995,3169.267,755.9441,-0.04011946,-0.0004511395,-0.08993602,0.0276331827044487,0.010561915114522,-0.208908408880234,-0.00968041450003567,-0.00416521191989172,0.00599263771761404,5
0.139999389648438,-0.0582314617931843,2.94085621833801,1.14596676826477,-0.0606185767455666,2.93973390035084,1.18038287685052,1510.274,4074.836,3735.818,701.9628,-0.07649504,0.002388302,-0.09949889,0.0426713563501835,-0.00212969444692135,-0.180173456668854,-0.0130660253322238,-0.00562194567796536,0.00808849210174802,4
0.160003662109375,-0.0570994354784489,2.94039487838745,1.14297795295715,-0.0609177895434042,2.93960515744296,1.18056810382587,1134.647,3846.994,4070.114,880.1874,-0.1062798,0.00433567,-0.09869941,0.0566012784838676,-0.023067956790328,-0.149439349770546,-0.0169265510445065,-0.00728302204135792,0.0104783414199936,4
0.180007934570313,-0.0557377189397812,2.93938803672791,1.14071118831635,-0.0612988491946875,2.93944119812059,1.1808039979024,1101.343,3565.175,4009.854,1148.824,-0.1236287,0.004492098,-0.09000047,0.0680859312415123,-0.0503411144018173,-0.113338589668274,-0.0212468478482708,-0.00914192506089775,0.0131528109458008,3
0.199996948242188,-0.0541964657604694,2.9377772808075,1.13924860954285,-0.0617704296168641,2.93923829023936,1.18109592864822,1373.443,3339.828,3594.73,1386.127,-0.127877,0.00302261,-0.07724925,0.0770627707242966,-0.0805368423461914,-0.0731290802359581,-0.0260104776919234,-0.0111915819022102,0.0161017247421801,3
0.220001220703125,-0.0525142289698124,2.93557620048523,1.13858389854431,-0.0623420644491781,2.93899233174064,1.18144979784016,1790.29,3212.833,3017.192,1527.411,-0.1229747,0.0008612399,-0.06425888,0.084111824631691,-0.110051058232784,-0.033236488699913,-0.03121219533433,-0.0134297356845702,0.019321835755004,3
0.240005493164063,-0.0507195740938187,2.93284702301025,1.13860702514648,-0.0630219993990999,2.93869977472688,1.18187070996396,2159.743,3168.378,2517.042,1558.441,-0.1149628,-0.0009880328,-0.05362222,0.0897327065467834,-0.136454343795776,0.00115860626101494,-0.0368361158647881,-0.0158495515746756,0.0228033104678445,3
0.260009765625,-0.0488372482359409,2.92966485023499,1.13913786411285,-0.0638185570309634,2.93835703823113,1.18236381708338,2352.013,3159.412,2273.765,1495.506,-0.1090522,-0.001904693,-0.04623621,0.0941163077950478,-0.159107685089111,0.0265439357608557,-0.0428699302682246,-0.0184457333472145,0.0265385290140116,3
0.279998779296875,-0.0468917116522789,2.92608761787415,1.13999617099762,-0.0647390625194898,2.93796097043536,1.18293365383054,2352.616,3152.114,2324.222,1363.801,-0.1078197,-0.001744903,-0.04152241,0.0972766205668449,-0.178861856460571,0.0429139509797096,-0.0492963837173861,-0.0212108567320638,0.030516809833474,3
0.300003051757813,-0.0449087023735046,2.92214369773865,1.1410619020462,-0.0657927507678135,2.93750759781875,1.18358593705038,2228.539,3144.003,2573.283,1194.658,-0.1110906,-0.0007360977,-0.03798413,0.0991505533456802,-0.197190672159195,0.0532859116792679,-0.0561132031658829,-0.0241439437008635,0.0347367458022363,3
0.32000732421875,-0.0429168939590454,2.91783547401428,1.142294049263,-0.0669865614821475,2.93699393441958,1.18432496275165,2074.583,3132.379,2872.953,1032.57,-0.1169293,0.0006862616,-0.03398087,0.0995904207229614,-0.21540854871273,0.0616071633994579,-0.0633036493784043,-0.0272377918282996,0.0391879745362408,3
0.339996337890625,-0.0409489125013351,2.91315102577209,1.1437075138092,-0.068326768706371,2.93641728069206,1.18515461486636,1955.467,3107.796,3109.127,921.0769,-0.1228452,0.002069636,-0.02837385,0.0983994007110596,-0.234225735068321,0.070673480629921,-0.0708499516420146,-0.0304847548730522,0.0438594951176439,3
0.360000610351563,-0.0390401557087898,2.90807723999023,1.14534330368042,-0.0698225328270578,2.93577369517774,1.1860805641102,1903.863,3065.42,3222.775,881.333,-0.1267068,0.003093272,-0.020868,0.095437578856945,-0.253692746162415,0.0817914456129074,-0.0787518717320621,-0.0338847303337087,0.0487511600740379,3
0.3800048828125,-0.0372257195413113,2.90261030197144,1.14724361896515,-0.0714797725314022,2.93506063123087,1.18710647443246,1924.528,3020.975,3206.629,896.1696,-0.1274131,0.003642173,-0.01188622,0.0907221138477325,-0.273345023393631,0.0950184091925621,-0.0869921272359981,-0.0374302820709642,0.0538522707687797,3
0.400009155273438,-0.0355372875928879,2.89676117897034,1.14943170547485,-0.0733051402689975,2.93427522648826,1.18823646401636,1991.477,2989.806,3098.674,938.3961,-0.1250413,0.003790547,-0.00220776,0.0844215303659439,-0.292451411485672,0.109406314790249,-0.0955591682828665,-0.0411164404980124,0.0591556772815509,3
0.419998168945313,-0.034001998603344,2.89055466651917,1.15190613269806,-0.0753034649285836,2.93341540321397,1.18947352217404,2072.185,2974.161,2953.307,987.2515,-0.120508,0.003707658,0.007336726,0.0767646357417107,-0.310325592756271,0.123719803988934,-0.104434660908044,-0.0449353170220673,0.0646500300148815,3
0.44000244140625,-0.0326425582170486,2.88402462005615,1.15464150905609,-0.077483988232608,2.93247718495301,1.19082336997196,2135.583,2972.881,2826.178,1022.98,-0.1150816,0.003565184,0.01615218,0.06797194480896,-0.326506614685059,0.136771738529205,-0.113620829717891,-0.048887868829098,0.0703367061060819,4
0.460006713867188,-0.0314784571528435,2.8772075176239,1.15760171413422,-0.0798512213598696,2.93145863067119,1.19228880004469,2168.962,2977.208,2748.252,1039.728,-0.1098634,0.003475352,0.02394107,0.0582051165401936,-0.340853691101074,0.148011460900307,-0.123099793815011,-0.0529664022684887,0.0762046364278779,4
0.479995727539063,-0.0305268317461014,2.87013840675354,1.16074800491333,-0.0824088828700873,2.93035814037613,1.19387211435783,2168.592,2985.123,2732.592,1031.328,-0.1055475,0.003481769,0.03074964,0.0475816465914249,-0.353460431098938,0.157311946153641,-0.132852887402757,-0.0571628859694044,0.0822422659629699,4
0.5,-0.0298037026077509,2.86284685134888,1.16405200958252,-0.085166398670376,2.92917165836334,1.1955791479969,2145.631,2988.663,2763.673,1010.354,-0.1022675,0.003569699,0.03679917,0.0361564382910728,-0.364582568407059,0.165199980139732,-0.142884000065179,-0.0614789935111996,0.0884520025491718,4
0.520004272460938,-0.0293244961649179,2.8553569316864,1.16749954223633,-0.088127196023106,2.92789770997757,1.19741202260058,2117.583,2992.458,2816.12,978.1021,-0.09982912,0.003686655,0.04240802,0.0239601731300354,-0.374498158693314,0.172375902533531,-0.153174893518032,-0.065906877469682,0.0948225558197254,4
0.540008544921875,-0.0291042122989893,2.84768843650818,1.17108607292175,-0.0912963635428427,2.92653410573011,1.19937388826368,2089.484,2992.875,2871.029,949.556,-0.09783015,0.003776457,0.04786159,0.0110139977186918,-0.383424460887909,0.179326713085175,-0.163714777034477,-0.0704418948965508,0.101347245800684,4
0.55999755859375,-0.0291577391326427,2.83985829353333,1.17481672763824,-0.094676112580471,2.92507989413848,1.20146611391775,2070.458,2988.346,2908.321,935.8978,-0.09579071,0.003795396,0.05329345,-0.00267614051699638,-0.391506373882294,0.18653416633606,-0.17448465888317,-0.0750758741803766,0.108014315705644,5
0.580001831054688,-0.0294991135597229,2.83188271522522,1.17869830131531,-0.0982762614093182,2.92353085067394,1.20369477754168,2062.965,2985.829,2923.574,930.3804,-0.09339653,0.003717794,0.05874272,-0.0170686766505241,-0.39878061413765,0.194080278277397,-0.185490414529404,-0.0798113433697334,0.11482740272751,5
0.600006103515625,-0.030141431838274,2.82377791404724,1.18273985385895,-0.102098762959148,2.92188613504538,1.20606108809202,2067.333,2983.739,2911.158,939.8973,-0.09049102,0.003539183,0.06410633,-0.032116562128067,-0.405237108469009,0.202078983187675,-0.196713446836865,-0.0846403006364086,0.121774994352997,5
0.620010375976563,-0.0310957208275795,2.81556177139282,1.18694221973419,-0.106147859919355,2.92014392174208,1.20856767199563,2075.266,2988.212,2887.587,949.178,-0.08718763,0.003271476,0.06929617,-0.0477139838039875,-0.41080704331398,0.210117265582085,-0.20814339888717,-0.0895582896877615,0.128850679156259,5
0.639999389648438,-0.0323715060949326,2.80725264549255,1.19130551815033,-0.110424235525481,2.91830391678686,1.21121495220784,2082.221,2990.322,2854.516,971.6205,-0.08359982,0.002941014,0.07414548,-0.0637892782688141,-0.415461868047714,0.218165844678879,-0.219761081350814,-0.0945570538913933,0.136042578028218,5
0.660003662109375,-0.0339759923517704,2.79886913299561,1.19582211971283,-0.114938248900541,2.91636166293851,1.21400934151928,2087.239,2999.847,2828.889,980.843,-0.08001574,0.002567118,0.07860819,-0.0802240818738937,-0.419170349836349,0.225831896066666,-0.231574097577923,-0.0996398647564507,0.143355397804799,5
0.680007934570313,-0.0359152369201183,2.79042959213257,1.20048809051514,-0.119690355154666,2.91431696437584,1.21695112166479,2088.375,3005.905,2804.441,997.5662,-0.07658666,0.002170098,0.08260137,-0.0969629287719727,-0.421977370977402,0.233295798301697,-0.243563621239988,-0.104798621839723,0.150777484091833,6
0.699996948242188,-0.0381930656731129,2.78195118904114,1.20529115200043,-0.124680083855354,2.91217002351282,1.22004000142426,2084.34,3017.647,2798.852,994.8373,-0.0735629,0.001757342,0.08620543,-0.113890871405602,-0.423922181129456,0.240153715014458,-0.255710395848158,-0.11002503961202,0.158296916205407,6
0.720001220703125,-0.040812972933054,2.7734489440918,1.21022701263428,-0.129918284978346,2.90991617190799,1.22328269744952,2072.89,3018.753,2797.467,1007.821,-0.07086459,0.001346697,0.08940066,-0.130995661020279,-0.425112903118134,0.246791198849678,-0.268023157655716,-0.11532287703907,0.16591910230247,6
0.740005493164063,-0.0437771566212177,2.76493620872498,1.21528971195221,-0.13540428105644,2.90755570105657,1.22667879035609,2067.835,3028.24,2803.809,998.4342,-0.06858119,0.0009278642,0.09230161,-0.14820896089077,-0.425631642341614,0.25313326716423,-0.280482990349159,-0.120683994959631,0.173632332283853,6
0.760009765625,-0.047087375074625,2.75642466545105,1.22047650814056,-0.141140917956636,2.9050873864615,1.23023004187122,2057.045,3029.896,2811.566,1001.895,-0.0665966,0.0005073366,0.09494317,-0.165511354804039,-0.425579369068146,0.259342461824417,-0.293080296154222,-0.126104263719567,0.181430664670081,6
0.779998779296875,-0.0507447682321072,2.74792408943176,1.22578549385071,-0.147126184485884,2.90251209348295,1.23393520697061,2050.261,3033.078,2819.474,999.7857,-0.06484585,8.235624E-05,0.09737925,-0.182870015501976,-0.425034314393997,0.265451043844223,-0.305795832832518,-0.131575403921268,0.189302187598958,6
0.800003051757813,-0.0547500438988209,2.73944282531738,1.23121619224548,-0.153371683173492,2.89982482987671,1.2378014681726,2044.102,3034.132,2824.397,1002.261,-0.06322717,-0.000344613,0.09962551,-0.200263619422913,-0.424063444137573,0.271533936262131,-0.318639638509124,-0.13710173468952,0.197253115148089,6
0.82000732421875,-0.0591035448014736,2.73098826408386,1.23677062988281,-0.159875221826383,2.89702653888221,1.24182746840525,2044.145,3037.583,2820.631,1004.851,-0.0617097,-0.0007765777,0.1016785,-0.217674612998962,-0.422722578048706,0.277722954750061,-0.331592781842754,-0.14267511039705,0.205271727915392,6
0.839996337890625,-0.0638043582439423,2.72256731987,1.24244523048401,-0.166633637018892,2.89411858163313,1.24601124935738,2042.574,3042.055,2819.927,1004.233,-0.0603435,-0.001213336,0.1035661,-0.235040426254272,-0.421046733856201,0.283731341362,-0.344636106234817,-0.148287288494656,0.213346167053785,6
0.860000610351563,-0.0688515603542328,2.71418571472168,1.24824059009552,-0.173659158941841,2.89109569582005,1.2503603820997,2038.881,3041.548,2814.03,1016.535,-0.05904654,-0.001638909,0.1052315,-0.252360612154007,-0.419084817171097,0.289766192436218,-0.357780475378537,-0.153942943326036,0.221483157706883,6
0.8800048828125,-0.0742432624101639,2.70584845542908,1.25415468215942,-0.180948461186242,2.88795931270381,1.25487280742661,2042.586,3048.512,2807.978,1013.785,-0.05793814,-0.002060222,0.1067014,-0.269584745168686,-0.416868895292282,0.29570683836937,-0.371007022483504,-0.159633957038354,0.229671020432672,6
0.900009155273438,-0.0799768567085266,2.69755959510803,1.2601842880249,-0.188503099076414,2.88470876307182,1.25954948815793,2039.755,3051.23,2805.149,1018.716,-0.05703958,-0.002467685,0.1079726,-0.286679714918137,-0.414444446563721,0.30148184299469,-0.384306908919572,-0.165356526615982,0.237904283698049,7
0.919998168945313,-0.0860493779182434,2.68932247161865,1.26632702350616,-0.196318384305134,2.8813460641717,1.26438752200817,2037.75,3053.726,2804.07,1021.752,-0.05635995,-0.002854909,0.1090478,-0.303626626729965,-0.411859422922134,0.307139813899994,-0.397661187980262,-0.171102499820431,0.246171218589148,7
0.94000244140625,-0.0924572646617889,2.68113923072815,1.27257895469666,-0.204407453948074,2.87786556348678,1.26939504145298,2034.993,3056.174,2808.675,1020.044,-0.05591573,-0.003218696,0.1099596,-0.320393294095993,-0.4091577231884,0.312597811222076,-0.411081631631503,-0.176876941799768,0.254479112513653,7
0.960006713867188,-0.0991972088813782,2.673011302948,1.27894222736359,-0.212765478812529,2.87426933888379,1.27456905699201,2035.352,3058.191,2806.546,1023.254,-0.05566699,-0.003556385,0.1106968,-0.336998105049133,-0.40639740228653,0.318164378404617,-0.424549556012544,-0.182671813410681,0.262816399271726,7
0.979995727539063,-0.106264591217041,2.66493916511536,1.28540980815887,-0.22138664033507,2.87055989392801,1.27990596665734,2034.517,3062.957,2816.985,1011.583,-0.05571439,-0.00387703,0.1113499,-0.353369146585464,-0.403611987829208,0.323380082845688,-0.438046240701377,-0.188479059778567,0.271171490030365,7
1,-0.113655984401703,2.65692186355591,1.2919853925705,-0.230284798736574,2.86673126495361,1.28541435058594,2028.639,3058.045,2818.591,1025.115,-0.05584436,-0.004157194,0.1118484,-0.369569480419159,-0.400862693786621,0.328777492046356,-0.451584000205995,-0.194303979492187,0.279552008056641,7
1.02000427246094,-0.121366694569588,2.64895844459534,1.29866540431976,-0.239454009753966,2.86278600961093,1.2910905289958,2035.192,3065.133,2826.024,1007.605,-0.05621187,-0.004422445,0.1122905,-0.385537058115005,-0.398169606924057,0.334002286195755,-0.465144357597929,-0.200138622445408,0.287946515251652,7
1.04000854492188,-0.129392951726913,2.64104676246643,1.30545234680176,-0.248894644448595,2.85872396824263,1.29693473159157,2031.716,3062.194,2827.52,1017.121,-0.05667153,-0.004653075,0.1126262,-0.401310622692108,-0.395581632852554,0.339349031448364,-0.47871923339115,-0.205979512261105,0.296350010028666,7
1.05999755859375,-0.13772976398468,2.6331844329834,1.31234240531921,-0.258599401509697,2.85454828239877,1.30294243851408,2034.909,3065.647,2836.444,1005.701,-0.05730696,-0.004862399,0.1129197,-0.4168421626091,-0.393113076686859,0.34450089931488,-0.492290296490434,-0.211818761581115,0.30475114456651,7
1.08000183105469,-0.146373301744461,2.62536835670471,1.31933856010437,-0.268583149539609,2.85025255453512,1.30912285413647,2032.973,3062.242,2838.739,1014.05,-0.05797382,-0.005033907,0.1131177,-0.432177364826202,-0.390799254179001,0.349808245897293,-0.50587040849135,-0.217661904390701,0.313157880805523,7
1.10000610351563,-0.155318915843964,2.61759543418884,1.3264399766922,-0.278838480013141,2.84583997233313,1.31547139222872,2040.973,3067.692,2842.78,1001.469,-0.05879301,-0.005186772,0.1132774,-0.447280257940292,-0.388649582862854,0.35506933927536,-0.519441457145546,-0.223501147495394,0.321559006401169,7
1.12001037597656,-0.164562150835991,2.60986161231995,1.33364689350128,-0.289365134970699,2.84131064678559,1.32198789310157,2040.409,3066.674,2846.501,1004.766,-0.05970328,-0.005308745,0.113379,-0.462162435054779,-0.386689990758896,0.360343247652054,-0.532995796775449,-0.22933320117373,0.329949788314817,8
1.13999938964844,-0.174098446965218,2.60216307640076,1.34095811843872,-0.300154365346813,2.83666834237095,1.3286669406667,2043.329,3067.833,2853.037,999.8182,-0.0607222,-0.005403021,0.1134418,-0.476814270019531,-0.384932607412338,0.36556339263916,-0.546515580872639,-0.235150386571708,0.338319178707607,8
1.16000366210938,-0.183923318982124,2.59449529647827,1.34837377071381,-0.311222084148811,2.83190621216671,1.33551838583369,2044.082,3066.808,2860.621,998.6579,-0.06180078,-0.005464274,0.1134643,-0.491244792938232,-0.383391559123993,0.370781779289246,-0.560014026276883,-0.240958390526247,0.34667535943296,8
1.18000793457031,-0.194032803177834,2.58685374259949,1.35589718818665,-0.322559451663168,2.82702805965467,1.34253675639879,2050.849,3069.018,2862.114,994.8449,-0.06294701,-0.005499428,0.1134462,-0.505474209785461,-0.382083505392075,0.376172989606857,-0.573473482003304,-0.246749618311663,0.355007403690405,8
1.19999694824219,-0.20442196726799,2.57923364639282,1.36352431774139,-0.334156660511822,2.8220381046756,1.34971598112778,2053.661,3071.319,2873.566,984.3963,-0.06422906,-0.005514341,0.1134437,-0.519457638263702,-0.381007671356201,0.381354361772537,-0.58687652428584,-0.252516572968185,0.36330452533874,8
1.22000122070313,-0.215087130665779,2.57163000106812,1.37125909328461,-0.346030421585499,2.81692915700008,1.35706640485806,2052.296,3066.67,2878.294,993.1503,-0.06547541,-0.005490373,0.113394,-0.533259034156799,-0.380187392234802,0.386739611625671,-0.600236516861372,-0.258265004538453,0.371574997167698,8
1.24000549316406,-0.226024031639099,2.56403779983521,1.37910115718842,-0.358170848086624,2.8117054706409,1.36458190719098,2062.754,3072.088,2885.585,976.9492,-0.06681978,-0.005450958,0.1133625,-0.546844720840454,-0.37961333990097,0.392102301120758,-0.613536214864368,-0.263987493038594,0.379808143784027,8
1.260009765625,-0.237228840589523,2.55645179748535,1.38705193996429,-0.37057666480527,2.80636759428526,1.37226169871082,2063.26,3070.263,2891.522,979.8206,-0.06817799,-0.005383846,0.1133237,-0.560239672660828,-0.379298716783524,0.397542208433151,-0.626768731761373,-0.26968107538565,0.387999702095469,8
1.27999877929688,-0.248697549104691,2.54886698722839,1.39511108398438,-0.383236695417198,2.80092033679326,1.3800988607405,2068.049,3071.261,2900.542,972.5094,-0.06957135,-0.005295429,0.1133007,-0.573435425758362,-0.379237234592438,0.402956128120422,-0.639917282339435,-0.275338529371412,0.396139281255613,8
1.30000305175781,-0.260426610708237,2.54127836227417,1.40327978134155,-0.396168722856641,2.79535604666509,1.38810440176341,2069.998,3069.474,2908.965,971.8283,-0.07093117,-0.005180381,0.1132802,-0.586452782154083,-0.379428714513779,0.408436715602875,-0.652995275331231,-0.280965624398954,0.404235181908735,8
1.32000732421875,-0.272412776947021,2.53368091583252,1.41156220436096,-0.409361504843077,2.78967956113998,1.39627136227237,2079.05,3071.993,2910.988,966.3545,-0.07228032,-0.005047755,0.1132618,-0.599310338497162,-0.379872500896454,0.414120048284531,-0.6659860834168,-0.286555206197011,0.41227711095171,8
1.33999633789063,-0.28465211391449,2.52606987953186,1.41995489597321,-0.422802873722428,2.78389611561957,1.40459220990988,2083.094,3074,2922.099,956.6097,-0.07368434,-0.004903412,0.1132906,-0.611966967582703,-0.380549639463425,0.419632017612457,-0.678873453515705,-0.29210028151913,0.420255006953505,8
1.36000061035156,-0.297141790390015,2.51844048500061,1.42846190929413,-0.436511415158101,2.77799771321212,1.41307845008695,2082.891,3069.549,2926.859,965.0005,-0.0749829,-0.004729242,0.1133011,-0.624485194683075,-0.381469905376434,0.425350934267044,-0.691670720740693,-0.297606588091785,0.42817712498415,9
1.3800048828125,-0.309878498315811,2.51078820228577,1.4370836019516,-0.450474904562636,2.77198961381608,1.4217225152016,2094.61,3074.911,2932.843,949.8195,-0.07631022,-0.004548679,0.113347,-0.636836051940918,-0.38261017203331,0.431087285280228,-0.704361775018035,-0.303067194200314,0.436033492140578,9
1.40000915527344,-0.322859227657318,2.50310873985291,1.44582092761993,-0.464691155755482,2.76587275808388,1.43052305190393,2096.062,3073.741,2939.105,951.3101,-0.07760877,-0.004351072,0.1134087,-0.649034738540649,-0.383968949317932,0.436864167451859,-0.716940488958393,-0.308479463400265,0.443820315276901,9
1.41999816894531,-0.33608090877533,2.49539804458618,1.45467400550842,-0.47914673136562,2.75965292774086,1.43947174182117,2100.782,3074.178,2946.698,946.5878,-0.07888123,-0.00414015,0.1134926,-0.661083817481995,-0.385533034801483,0.442656219005585,-0.729391385793766,-0.313836736470737,0.451528013536465,9
1.44000244140625,-0.349540710449219,2.48765230178833,1.46364295482635,-0.493861275572861,2.75332167044526,1.4485807456364,2103.5,3073.233,2956.156,943.3384,-0.08009084,-0.003913782,0.1135996,-0.672988772392273,-0.387287855148315,0.448449373245239,-0.741727567798258,-0.319144650954242,0.459164697851088,9
1.46000671386719,-0.363236427307129,2.47986769676208,1.47273337841034,-0.508821304757097,2.74688478782212,1.45784171634646,2112.044,3074.882,2955.71,941.8884,-0.08122429,-0.003677293,0.1137053,-0.684786975383759,-0.389234334230423,0.454519540071487,-0.753933682518823,-0.324396601119133,0.466720864320996,9
1.47999572753906,-0.377164602279663,2.47204113006592,1.48193943500519,-0.524012471663969,2.74034845309416,1.46724577231745,2117.135,3078.365,2968.588,927.3666,-0.08240672,-0.003442935,0.1138829,-0.696407735347748,-0.391332745552063,0.460300981998444,-0.765994882555672,-0.329586198544069,0.474187321698441,9
1.5,-0.391323506832123,2.46416902542114,1.49126744270325,-0.539455198877605,2.73370387899399,1.4768055561018,2114.895,3072.006,2969.818,943.0543,-0.08340381,-0.003184608,0.1140267,-0.707946956157684,-0.39360323548317,0.466398000717163,-0.777924000354858,-0.334718964672088,0.481572013878822,9
1.52000427246094,-0.405710220336914,2.45624899864197,1.50071454048157,-0.555135099954955,2.72695725560613,1.48651216180595,2128.525,3079.705,2977.887,920.5015,-0.08444031,-0.002935869,0.114233,-0.719332933425903,-0.395998984575272,0.472352594137192,-0.789706299681991,-0.339788558913217,0.48886581843107,9
1.54000854492188,-0.420322686433792,2.44827842712402,1.51028454303741,-0.571049184024557,2.72010986981902,1.49636373793799,2127.169,3075.972,2978.859,932.1276,-0.08536017,-0.002673814,0.1144268,-0.730624735355377,-0.398533791303635,0.478498309850693,-0.801336412291853,-0.344792671461508,0.496065412155667,9
1.55999755859375,-0.435157954692841,2.4402551651001,1.51997292041779,-0.587181951496087,2.71316839067337,1.50635068951315,2134.005,3079.555,2989.689,917.2574,-0.08628961,-0.002417085,0.1146749,-0.741765141487122,-0.401165425777435,0.484420865774155,-0.812800388649436,-0.349725300221754,0.503162159625937,9
1.58000183105469,-0.450214445590973,2.43217706680298,1.52978420257568,-0.60355483331529,2.70612359703193,1.51648628330776,2132.626,3074.823,2991.768,928.4988,-0.08704861,-0.00214491,0.1148993,-0.752825200557709,-0.403905421495438,0.490566402673721,-0.824110582941666,-0.354591760855452,0.510163708672098,9
1.60000610351563,-0.465489566326141,2.42404270172119,1.5397173166275,-0.620152298932711,2.69898217125626,1.52676090517188,2144.453,3081.147,2996.213,911.9179,-0.08780602,-0.001884985,0.1151654,-0.763756453990936,-0.406717270612717,0.496653079986572,-0.835253140422976,-0.35938609205264,0.51706148254665,9
1.6199951171875,-0.480981230735779,2.41585063934326,1.54977285861969,-0.636958033083316,2.69175113334911,1.53716445517924,2143.821,3079.235,2998.834,917.8629,-0.08847979,-0.00162293,0.1154342,-0.774582028388977,-0.409600287675858,0.502776682376862,-0.846214826007804,-0.364102599125749,0.523847288101157,9
1.63999938964844,-0.49668675661087,2.40760016441345,1.55994725227356,-0.653994195024907,2.68442094880091,1.54771065096602,2145.906,3079.371,3008.446,911.3431,-0.08909392,-0.001363006,0.1157327,-0.7852743268013,-0.412522405385971,0.508720755577087,-0.857007552155828,-0.368746407673381,0.530528499715628,9
1.66000366210938,-0.512604832649231,2.39929008483887,1.57024812698364,-0.671244443874359,2.67699864863716,1.55838937674714,2151.535,3079.077,3001.499,919.0065,-0.08955998,-0.001099886,0.1159895,-0.795907974243164,-0.415502279996872,0.515042722225189,-0.867618167158098,-0.373311858882592,0.53709697585572,9
1.68000793457031,-0.528731822967529,2.39092063903809,1.58066427707672,-0.688705090349012,2.66948582025311,1.56919834868089,2157.471,3085.348,3016.26,895.6362,-0.09012244,-0.0008607337,0.1163358,-0.806349992752075,-0.418470770120621,0.520810425281525,-0.878042061913515,-0.377796969585941,0.543549863268291,9
1.69999694824219,-0.545067250728607,2.38249087333679,1.59120750427246,-0.706358800111611,2.66188992212981,1.58012683598675,2151.84,3076.43,3005.413,927.0067,-0.09041698,-0.0006002765,0.1165818,-0.816772699356079,-0.421490371227264,0.527163684368134,-0.888267004546665,-0.382196476749158,0.549879589839776,9
1.72000122070313,-0.561606407165527,2.37400197982788,1.60186004638672,-0.724228658537036,2.6542010212754,1.5911891296115,2162.368,3086.781,3029.638,884.0782,-0.09087132,-0.0003749731,0.1169641,-0.826955258846283,-0.424444913864136,0.532628536224365,-0.898304216251578,-0.386515208538549,0.556093102023817,9
1.74000549316406,-0.578350424766541,2.36545276641846,1.61264622211456,-0.742297311768984,2.64642658456943,1.60237448669139,2155.966,3074.319,3001.443,937.562,-0.09090434,-0.0001171791,0.1171569,-0.837205469608307,-0.427462041378021,0.539307236671448,-0.908141534469281,-0.390747931744771,0.562182870617028,9
1.760009765625,-0.595292270183563,2.35684585571289,1.62353277206421,-0.760560719141003,2.63856835059778,1.61368040586141,2174.542,3095.579,3039.323,859.2407,-0.09137519,7.074783E-05,0.1176065,-0.847093045711517,-0.430340677499771,0.544327318668365,-0.91777478390713,-0.394892849856044,0.568146310914365,9
1.77999877929688,-0.612435400485992,2.34817957878113,1.63455760478973,-0.779000609654483,2.63063418086074,1.62509557650306,2150.635,3067.744,2996.214,961.4465,-0.09115308,0.0003296893,0.1177276,-0.857157230377197,-0.433311313390732,0.551240086555481,-0.927192788821983,-0.398945154262308,0.57397650459845,9
1.80000305175781,-0.629769682884216,2.33945846557617,1.64566874504089,-0.797640935141499,2.62261376955408,1.63663482594136,2181.628,3101.359,3057.404,832.1536,-0.09162446,0.0004829477,0.1182485,-0.866714119911194,-0.436051577329636,0.555559575557709,-0.936405971974637,-0.402909329586356,0.579679903854719,9
1.82000732421875,-0.647302746772766,2.33067941665649,1.65693199634552,-0.816463410111527,2.61451498441355,1.64828683458664,2147.27,3059.742,2979.343,995.6902,-0.09101406,0.0007506133,0.1182274,-0.876648545265198,-0.438951075077057,0.563160181045532,-0.94540321420156,-0.406780591562751,0.585249625391268,9
1.83999633789063,-0.665018618106842,2.32184958457947,1.66826069355011,-0.835449117627072,2.60634596486888,1.66003989195343,2198.513,3117.329,3076.386,781.2595,-0.09168198,0.0008389988,0.1188824,-0.885801315307617,-0.441486179828644,0.566436171531677,-0.954174163352093,-0.410554485950274,0.590679260733698,9
1.86000061035156,-0.682930886745453,2.31296372413635,1.67975652217865,-0.854622615239374,2.59809614449182,1.6719092003358,2128.829,3042.694,2959.359,1055.631,-0.09060287,0.00113228,0.1186692,-0.895613610744476,-0.444287955760956,0.574791729450226,-0.962728579444532,-0.414235212212131,0.595974851798267,9
1.8800048828125,-0.701017200946808,2.30403256416321,1.69129168987274,-0.873964974649439,2.58977366760063,1.68388304221498,2217.754,3135.158,3102.182,717.1002,-0.09150515,0.001150342,0.1194792,-0.904312491416931,-0.446560353040695,0.576759397983551,-0.971056158224177,-0.417818336715394,0.601130019760457,9
1.90000915527344,-0.719298541545868,2.29504728317261,1.70302093029022,-0.893471623792247,2.58138050142717,1.69595858726494,2112.697,3025.172,2920.218,1132.275,-0.08986358,0.001477654,0.1189884,-0.914070129394531,-0.449264883995056,0.586463868618011,-0.979153483542501,-0.421302389586788,0.606142649861596,9
1.91999816894531,-0.737741708755493,2.28602337837219,1.71474409103394,-0.913122862707269,2.57292512231409,1.70812364027167,2239.174,3161.138,3147.605,619.0409,-0.09129636,0.001393168,0.1200848,-0.922156453132629,-0.451190322637558,0.58615779876709,-0.987011339258123,-0.424683405378145,0.611007036871143,9
1.94000244140625,-0.756381571292877,2.27694654464722,1.72670602798462,-0.932943991899774,2.5643966441608,1.72039386345315,2076.201,2989.671,2863.319,1265.62,-0.08872002,0.001807978,0.1191453,-0.931991517543793,-0.453829199075699,0.598095059394836,-0.994638524886308,-0.427965170275055,0.615728628108227,9
1.96000671386719,-0.775167405605316,2.26784062385559,1.73859691619873,-0.952915303453826,2.55580354673295,1.73275705667061,2280.428,3205.103,3214.185,457.9338,-0.09099649,0.001574808,0.1206969,-0.93929797410965,-0.455311864614487,0.59454745054245,-1.00202586176059,-0.431143734953757,0.620301741541062,9
1.97999572753906,-0.794155836105347,2.25868129730225,1.75080120563507,-0.973016570682103,2.54715453300902,1.74520069864106,2025.845,2940.539,2764.089,1470.098,-0.08710028,0.002127506,0.1190848,-0.949416518211365,-0.457956731319427,0.610215127468109,-1.00916501115878,-0.434215511495054,0.624721215103391,9
2,-0.813267588615417,2.24950456619263,1.76282465457916,-0.993273599084619,2.53843849960327,1.7577407641983,2335.037,3271.873,3330.597,203.9695,-0.09086332,0.001675118,0.1214282,-0.955596387386322,-0.458847641944885,0.601171791553497,-1.01606400046349,-0.437183953857422,0.628992018127441,9
2.02000427246094,-0.832595944404602,2.24027156829834,1.77529060840607,-1.01366615605493,2.52966415204104,1.77036472839513,1937.757,2855.778,2600.965,1816.531,-0.08473593,0.002497642,0.118705,-0.966413855552673,-0.461652368307114,0.623295366764069,-1.02271452148052,-0.440045487257004,0.633109007445237,9
2.04000854492188,-0.852025508880615,2.23102951049805,1.78748512268066,-1.03418924440916,2.52083364047092,1.78306949773667,2260.53,3524.275,3335.83,0,-0.08958288,0.002435344,0.1227096,-0.971474707126617,-0.462102204561234,0.609725892543793,-1.02911391720548,-0.442798968459032,0.637070538244476,9
2.05999755859375,-0.871678411960602,2.2217333316803,1.80019342899323,-1.05482201812353,2.5119559343546,1.79584216754118,1910.685,2687.182,2441.915,2171.426,-0.08153268,0.00397937,0.1189665,-0.982644021511078,-0.464807003736496,0.635414898395538,-1.03525504859546,-0.445441325732794,0.640872191117535,9
2.08000183105469,-0.891419172286987,2.21243619918823,1.81259644031525,-1.07559088172821,2.50301967256038,1.80869908347065,2128.671,3749.526,3227.147,0,-0.08618096,0.005086064,0.1237429,-0.987042903900146,-0.464862644672394,0.620150864124298,-1.04114485287423,-0.447975543971863,0.644518260536375,9
2.10000610351563,-0.911372721195221,2.20310020446777,1.82547342777252,-1.09647498538954,2.49403382618922,1.82162733848484,2020.679,2521.96,2400.942,2255.492,-0.07805299,0.007554892,0.1189204,-0.997673749923706,-0.466791063547134,0.64385199546814,-1.04677621342161,-0.450398561093403,0.648004340974112,9
2.1199951171875,-0.931404411792755,2.19377660751343,1.83803379535675,-1.11745308225396,2.48500753716864,1.83461377976925,2170.266,3729.006,3198.935,0,-0.08307251,0.009458776,0.1222945,-1.00158298015594,-0.466186136007309,0.628019213676453,-1.0521429102862,-0.45270770082608,0.651326581984514,9
2.13999938964844,-0.951625823974609,2.18443274497986,1.85100030899048,-1.138551967509,2.47592927627801,1.8476749948214,2108.583,2483.926,2505.543,2087.431,-0.07672993,0.01228234,0.1163696,-1.01107680797577,-0.467193126678467,0.648327529430389,-1.05725102347782,-0.454905579228273,0.654488747383304,9
2.16000366210938,-0.971916019916534,2.17510843276978,1.86368322372437,-1.15975039167652,2.46680818657414,1.86079782920208,2187.454,3680.223,3225.341,0,-0.08256545,0.01443159,0.1183045,-1.01450526714325,-0.466220736503601,0.634147644042969,-1.0620943502576,-0.456989527434725,0.657486997379635,8
2.18000793457031,-0.992365598678589,2.16577219963074,1.87669193744659,-1.18104303873349,2.45764655539322,1.87397899203979,2148.954,2518.062,2686.842,1810.543,-0.07873955,0.01706253,0.1124467,-1.02248299121857,-0.466812819242477,0.650438845157623,-1.06667099276523,-0.458958728849171,0.660320157107579,7
2.19999694824219,-1.01287341117859,2.15645313262939,1.88944864273071,-1.20240821395574,2.44845371736898,1.88720505326679,2223.806,3531.156,3330.225,0,-0.08508959,0.01879792,0.113518,-1.02539432048798,-0.465952455997467,0.637838363647461,-1.07097597819164,-0.460811043810786,0.662985148161421,7
2.22000122070313,-1.03351867198944,2.14711666107178,1.90250039100647,-1.22387315175433,2.43921795429519,1.90049287228091,2120.813,2589.341,2841.101,1594.762,-0.08235773,0.02080832,0.1085024,-1.03226613998413,-0.466822117567062,0.65258651971817,-1.07501419914593,-0.462548577472581,0.665484999299265,5
2.24000549316406,-1.05421423912048,2.13778710365295,1.91533517837524,-1.24541615591711,2.42994860144581,1.91382901809327,2234.912,3443.295,3394.986,0,-0.08819538,0.02181704,0.1099298,-1.03477907180786,-0.466477751731873,0.641740441322327,-1.07878069424208,-0.464169195088763,0.667816639186824,4
2.260009765625,-1.07503509521484,2.1284282207489,1.92846882343292,-1.26703177594152,2.42064800401982,1.92721011658316,2082.17,2646.539,2877.199,1522.151,-0.08493193,0.0231018,0.1061672,-1.04103767871857,-0.467945843935013,0.656683921813965,-1.08227399942825,-0.465672266718726,0.669979161506271,3
2.27999877929688,-1.09589779376984,2.11906790733337,1.94138467311859,-1.28869796983554,2.41132564607061,1.9406225227075,2259.238,3384.094,3412.947,0,-0.08977356,0.02330205,0.1084354,-1.04314160346985,-0.468014240264893,0.645790755748749,-1.08549040888332,-0.467056197851165,0.67197027217779,0
2.30000305175781,-1.11688339710236,2.10966920852661,1.9546365737915,-1.31044231452835,2.40196966201596,1.95408330789913,2029.49,2674.505,2797.672,1613.898,-0.0847322,0.02400096,0.1054203,-1.04927718639374,-0.469939559698105,0.662597358226776,-1.08843358680109,-0.468322565086307,0.673792239511894,0
2.32000732421875,-1.13790237903595,2.10026788711548,1.96765220165253,-1.33224276726637,2.39258953623693,1.96757882664355,2253.789,3432.906,3350.864,0,-0.08864438,0.02369889,0.1087125,-1.05094695091248,-0.470066547393799,0.650779008865356,-1.09109983431736,-0.469469776906228,0.675442773735451,0
2.33999633789063,-1.15904307365417,2.09082841873169,1.98103177547455,-1.35407709248145,2.38319483607731,1.98109531406483,2000.606,2661.915,2659.313,1782.336,-0.08201844,0.02415737,0.1058707,-1.05704355239868,-0.471974968910217,0.668981909751892,-1.09348640563071,-0.470496651869278,0.67692017506657,0
2.36000061035156,-1.18020701408386,2.08139395713806,1.99412953853607,-1.37597305876702,2.37377361348711,1.99464996024512,2238.62,3490.986,3290.208,0,-0.08565205,0.023713,0.1097,-1.058189868927,-0.4717056453228,0.654891014099121,-1.09559602313537,-0.471404361345641,0.678226128796969,0
2.3800048828125,-1.20149219036102,2.07193088531494,2.00761461257935,-1.39790843013262,2.36433543599182,2.00822900004707,1981.719,2623.797,2538.199,1953.151,-0.07799333,0.02424348,0.10635,-1.06426393985748,-0.473167717456818,0.674258768558502,-1.09742594550583,-0.472191725819537,0.679358937915576,0
2.40000915527344,-1.2227908372879,2.06248474121094,2.02078652381897,-1.41987760424917,2.35488271411715,2.02182896536211,2194.309,3589.802,3221.442,0,-0.08182882,0.02403512,0.1103858,-1.06493437290192,-0.472313493490219,0.658592879772186,-1.09897546783438,-0.472858441988871,0.680318166050934,0
2.41999816894531,-1.24420428276062,2.05302333831787,2.03432965278625,-1.44185817738692,2.34542508756209,2.03543598721428,1986.95,2568.061,2493.412,2038.088,-0.07418768,0.02484185,0.1064608,-1.07066905498505,-0.473043233156204,0.677158057689667,-1.10024313330221,-0.473403883025206,0.681102911362803,0
2.44000244140625,-1.2656227350235,2.04359245300293,2.04753756523132,-1.46387808506052,2.33595053645515,2.04906735901791,2182.51,3598.376,3214.187,0,-0.07838162,0.02490491,0.1100144,-1.07092463970184,-0.471540153026581,0.660390079021454,-1.10123038958312,-0.473828671822132,0.681714070030222,0
2.46000671386719,-1.28714644908905,2.03416156768799,2.06110286712646,-1.48591492338117,2.32646870056377,2.06270921169857,2002.144,2544.627,2507.64,2021.919,-0.07121027,0.02588435,0.1055009,-1.07619202136993,-0.471552401781082,0.678267538547516,-1.10193578218388,-0.474132182551855,0.682150741652607,0
2.47999572753906,-1.30866777896881,2.02477025985718,2.07433676719666,-1.50794623031618,2.31698924467309,2.07634764018804,2161.385,3611.933,3210.868,0,-0.07573178,0.02613024,0.1086351,-1.07606959342957,-0.469569981098175,0.661689937114716,-1.10235882472314,-0.474314205938057,0.682412625136718,0
2.5,-1.33028030395508,2.01538991928101,2.08789443969727,-1.52999999932945,2.30750012397766,2.08999997377396,2009.561,2533.877,2563.409,1952.772,-0.06928107,0.02714739,0.1039928,-1.08062338829041,-0.469020396471024,0.677889704704285,-1.10250000050292,-0.474374949932098,0.682500019669533,0
2.52000427246094,-1.35188269615173,2.00605583190918,2.1011278629303,-1.55205376834272,2.29801100328223,2.10365230735988,2182.699,3547.767,3241.083,0,-0.07387183,0.02729293,0.1065611,-1.08012759685516,-0.466700077056885,0.661670684814453,-1.10235882472314,-0.474314205938057,0.682412625136718,0
2.54000854492188,-1.37356352806091,1.99673938751221,2.11467528343201,-1.57410188948011,2.28852431271001,2.11730114464159,2005.204,2561.846,2601.358,1873.802,-0.0678158,0.02809952,0.1019559,-1.08404123783112,-0.465821832418442,0.677376925945282,-1.10193535162022,-0.474131997292339,0.682150475113189,0
2.55999755859375,-1.39522552490234,1.98747301101685,2.12790274620056,-1.59612191359838,2.27904971150017,2.13093258853001,2173.58,3525.243,3254.961,0,-0.0723453,0.02800104,0.1044918,-1.08309543132782,-0.463320195674896,0.661371350288391,-1.10123038958312,-0.473828671822132,0.681714070030222,0
2.58000183105469,-1.41695427894592,1.97822761535645,2.14144086837769,-1.61814182127198,2.26957516039323,2.14456396033363,1979.337,2575.987,2606.045,1860.438,-0.06613268,0.02856628,0.1001346,-1.08643555641174,-0.462264358997345,0.676900565624237,-1.10024313330221,-0.473403883025206,0.681102911362804,0
2.60000610351563,-1.43865466117859,1.96903574466705,2.15465450286865,-1.64013916343638,2.26011031859448,2.15818136301212,2177.469,3504.271,3251.057,0,-0.07038628,0.02818059,0.1027904,-1.08502662181854,-0.459596276283264,0.660677433013916,-1.09897439291323,-0.472857979480329,0.680317500623536,0
2.6199951171875,-1.46041309833527,1.95986866950989,2.16818737983704,-1.66209156852628,2.2506648119635,2.17177094750084,1955.952,2587.166,2566.394,1891.935,-0.06369642,0.02851764,0.09855869,-1.08791470527649,-0.458357065916061,0.676642417907715,-1.09742594550583,-0.472191725819537,0.679358937915576,0
2.63999938964844,-1.48213243484497,1.95075964927673,2.18137645721436,-1.68402693989188,2.24122663446822,2.18534998730279,2161.003,3515.397,3232.609,0,-0.06775934,0.02793161,0.1014759,-1.08597576618195,-0.455445975065231,0.659454643726349,-1.09559602313537,-0.471404361345641,0.67822612879697,0
2.66000366210938,-1.50390207767487,1.94168102741241,2.19489860534668,-1.70592290617745,2.23180541187802,2.19890463348308,1931.96,2576.704,2501.999,1970.931,-0.06041541,0.02817064,0.097143,-1.0884850025177,-0.453931659460068,0.676110982894897,-1.09348640563071,-0.470496651869278,0.67692017506657,0
2.68000793457031,-1.52562236785889,1.93266725540161,2.20805740356445,-1.72777388024004,2.22240354818443,2.21243142733407,2138.921,3555.566,3190.253,0,-0.06443092,0.02755308,0.1002697,-1.08601677417755,-0.450692027807236,0.657938539981842,-1.09109790637238,-0.469468947365361,0.675441580245664,0
2.69999694824219,-1.54738354682922,1.92369198799133,2.22154569625854,-1.74955768413056,2.21303058593937,2.22591663964878,1916.994,2550.76,2451.035,2041.461,-0.0567754,0.02782721,0.09570517,-1.08804678916931,-0.448760896921158,0.674409866333008,-1.08843358680109,-0.468322565086308,0.673792239511893,0
2.72000122070313,-1.56908416748047,1.91478967666626,2.23464798927307,-1.77130202882336,2.20367460188472,2.23937742484041,2127.687,3564.491,3169.61,0,-0.06087454,0.02725316,0.09869555,-1.08504617214203,-0.445113241672516,0.655117690563202,-1.08549040888332,-0.467056197851165,0.671970272177789,0
2.74000549316406,-1.59081530570984,1.90593528747559,2.24807906150818,-1.79298473688851,2.19434513834902,2.25280005402337,1910.938,2534.036,2417.96,2077.051,-0.05315883,0.02757394,0.09374896,-1.08655345439911,-0.442716091871262,0.671550512313843,-1.08227143928024,-0.465671165158559,0.669977576652695,0
2.760009765625,-1.61247587203979,1.89716124534607,2.26111340522766,-1.81460030360772,2.18504456385877,2.26618111951479,2104.763,3591.448,3142.91,0,-0.05748859,0.0270882,0.09660532,-1.08302104473114,-0.438700735569,0.651722013950348,-1.07877792518082,-0.464168003639063,0.667814925005998,0
2.77999877929688,-1.63415253162384,1.88844394683838,2.27445816993713,-1.83612684690458,2.17578229366013,2.27950707526701,1903.693,2515.804,2415.15,2082.075,-0.05005731,0.02746124,0.09144582,-1.08384692668915,-0.435875743627548,0.667233109474182,-1.07501419914593,-0.462548577472581,0.665484999299265,0
2.80000305175781,-1.65574812889099,1.87981271743774,2.2873957157135,-1.85759178470316,2.16654653058634,2.29279489428112,2102.322,3566.726,3148.033,0,-0.05455965,0.02697861,0.0939706,-1.07977950572968,-0.431551873683929,0.646873652935028,-1.07097597819164,-0.460811043810786,0.662985148161422,0
2.82000732421875,-1.67734694480896,1.87124466896057,2.30063843727112,-1.87897323600723,2.1573466894188,2.30603103117811,1894.497,2517.39,2417.311,2065.36,-0.04732118,0.02729943,0.08863267,-1.07994115352631,-0.428410172462463,0.662133753299713,-1.06666760390385,-0.458957270716794,0.660318059240952,0
2.83999633789063,-1.69885396957397,1.8627667427063,2.31347274780273,-1.90024960698239,2.14819206138118,2.31920211834584,2086.035,3570.482,3137.343,0,-0.05194496,0.02677053,0.09107853,-1.07533776760101,-0.423889815807343,0.641710340976715,-1.06209435025759,-0.456989527434725,0.657486997379635,0
2.86000061035156,-1.72034955024719,1.85435628890991,2.32659697532654,-1.9214480311499,2.13907097167731,2.33232495272651,1876.011,2513.976,2423.088,2056.386,-0.04484976,0.0270161,0.08579467,-1.07477688789368,-0.420526623725891,0.656211197376251,-1.05725102347782,-0.454905579228273,0.654488747383304,0
2.8800048828125,-1.74174237251282,1.84603917598724,2.33930730819702,-1.94254691640495,2.12999271078668,2.34538616777867,2096.088,3534.909,3139.317,0,-0.04944691,0.02633694,0.08805905,-1.06965243816376,-0.41585111618042,0.635520458221436,-1.0521429102862,-0.45270770082608,0.651326581984514,0
2.90000915527344,-1.76311159133911,1.83779263496399,2.35230922698975,-1.96354098577478,2.12095954924324,2.35838249680481,1857.698,2527.024,2407.691,2053.616,-0.04230485,0.02642135,0.08277708,-1.06845557689667,-0.412327378988266,0.650093615055084,-1.04677201701582,-0.450396755497224,0.648001743199023,0
2.91999816894531,-1.78436720371246,1.82964193820953,2.36488771438599,-1.98440911693069,2.11198057539494,2.37130086407726,2079.408,3537.853,3127.646,0,-0.04691318,0.02559819,0.08514182,-1.06278157234192,-0.407532066106796,0.628924429416656,-1.04114485287423,-0.447975543971863,0.644518260536375,0
2.94000244140625,-1.80558693408966,1.82156467437744,2.37775802612305,-2.00517798053537,2.10304431360073,2.38415778000673,1830.442,2522.589,2380.486,2088.406,-0.03952184,0.02557842,0.07989531,-1.06098282337189,-0.403867065906525,0.643515288829803,-1.03525504859546,-0.445441325732794,0.640872191117535,0
2.96000671386719,-1.82668256759644,1.81358599662781,2.39019346237183,-2.02582645724542,2.09415985092405,2.3969401707136,2073.934,3537,3108.543,0,-0.04406999,0.02464974,0.08231669,-1.05478954315186,-0.398930162191391,0.621772348880768,-1.02910913225408,-0.442796909628122,0.637067576131623,0
2.97999572753906,-1.84773075580597,1.80568444728851,2.4029233455658,-2.04633384260397,2.08533609591429,2.40963521915279,1813.297,2518.037,2341.77,2125.377,-0.03645974,0.02455308,0.076998,-1.05242168903351,-0.395082145929337,0.636498928070068,-1.02271452148052,-0.440045487257004,0.633109007445237,0
3,-1.86864495277405,1.79788494110107,2.41520071029663,-2.06672639957428,2.07656174835205,2.42225918334961,2057.413,3544.549,3091.79,0,-0.04105316,0.02357624,0.07946767,-1.0456964969635,-0.389972269535065,0.613864660263062,-1.01606400046349,-0.437183953857422,0.628992018127441,0
3.02000427246094,-1.88950049877167,1.7901668548584,2.42777705192566,-2.0869834279768,2.06784571494631,2.43479924890685,1796.369,2504.996,2302.814,2171.727,-0.03321601,0.02346078,0.0739738,-1.04277539253235,-0.385913282632828,0.628819704055786,-1.00916501115878,-0.434215511495054,0.624721215103391,0
3.04000854492188,-1.91021132469177,1.78255438804626,2.43988871574402,-2.10709998486405,2.05919012250926,2.44725235590455,2039.875,3565.45,3063.378,0,-0.03791702,0.0225088,0.07646284,-1.03554141521454,-0.380623072385788,0.605583965778351,-1.00202031904361,-0.431141350077486,0.620298310335216,0
3.05999755859375,-1.93085134029388,1.77502775192261,2.45229053497314,-2.12705600675913,2.05060360379452,2.45960608409476,1783.066,2488.214,2280.905,2199.941,-0.03010437,0.02241927,0.07082615,-1.03199863433838,-0.376334339380264,0.620088219642639,-0.994638524886308,-0.427965170275055,0.615728628108227,0
3.08000183105469,-1.95133662223816,1.76761031150818,2.46421456336975,-2.14687713595163,2.04207512564123,2.47187630727625,2035.333,3553.364,3056.286,0,-0.0349231,0.02147708,0.07313105,-1.02426648139954,-0.37087070941925,0.596201121807098,-0.987011339258122,-0.424683405378145,0.611007036871143,0
3.10000610351563,-1.97173881530762,1.76028251647949,2.47642731666565,-2.16654331551667,2.03361331798384,2.48405060925705,1772.02,2484.344,2266.061,2207.49,-0.0271733,0.02136794,0.06731641,-1.02010226249695,-0.366385042667389,0.610639452934265,-0.979147395688901,-0.421299770153459,0.606138881190213,0
3.1199951171875,-1.99197626113892,1.7530665397644,2.48815751075745,-2.18603502400946,2.02522658035469,2.49611690533293,2020.496,3561.812,3039.108,0,-0.03214968,0.02042655,0.0695623,-1.01187658309937,-0.360801547765732,0.586512446403503,-0.971056158224178,-0.417818336715394,0.601130019760458,0
3.13999938964844,-2.0121169090271,1.74594306945801,2.50016403198242,-2.20537738341953,2.01690410346351,2.50809074721212,1753.9,2477.74,2263.724,2210.512,-0.02455275,0.02029706,0.06374235,-1.00704169273376,-0.356177091598511,0.600327432155609,-0.962728579444533,-0.414235212212131,0.595974851798267,0
3.16000366210938,-2.0320839881897,1.73893260955811,2.5116822719574,-2.22455088103183,2.00865428308644,2.51996005559448,2026.747,3534.243,3037.635,0,-0.02959731,0.01928312,0.0658082,-0.998347818851471,-0.350514858961105,0.575917482376099,-0.954174163352092,-0.410554485950274,0.590679260733698,0
3.18000793457031,-2.05194139480591,1.73201644420624,2.52347636222839,-2.24355101420387,2.00047905658478,2.53172204312984,1737.151,2486.797,2253.413,2206.186,-0.02207281,0.01905448,0.05997626,-0.99288684129715,-0.345806777477264,0.58970695734024,-0.945396434568188,-0.406777674475913,0.585245428475253,0
3.19999694824219,-2.07161617279053,1.72521424293518,2.53477549552917,-2.2623590635174,1.99238647840124,2.54336512160655,2013.637,3531.273,3030.114,0,-0.0271962,0.01795176,0.06208314,-0.983721911907196,-0.340109884738922,0.564954876899719,-0.936405971974636,-0.402909329586355,0.579679903854719,0
3.22000122070313,-2.0911693572998,1.71850717067719,2.54634976387024,-2.28099938900442,1.98436606709459,2.55490437104486,1712.223,2485.188,2236.818,2226.706,-0.01956518,0.01764449,0.05631382,-0.977672874927521,-0.335357367992401,0.578719139099121,-0.927192788821982,-0.398945154262308,0.573976504598449,0
3.24000549316406,-2.11053085327148,1.71191477775574,2.55742192268372,-2.29945328359428,1.9764258717947,2.56632821087688,2010.805,3523.294,3017.477,0,-0.0246646,0.0164564,0.05845739,-0.968078196048737,-0.329625815153122,0.553604125976563,-0.91776751470058,-0.394889722119544,0.568141810929231,0
3.25999450683594,-2.12976050376892,1.70541846752167,2.56877207756042,-2.31770268688992,1.96857366338589,2.57762546085652,1695.046,2484.898,2208.475,2250.56,-0.01689509,0.01607103,0.05269526,-0.96148669719696,-0.324809074401855,0.567513525485992,-0.90814153446928,-0.390747931744771,0.562182870617026,0
3.27999877929688,-2.14878988265991,1.69903814792633,2.57960677146912,-2.33577134012187,1.96079922667992,2.58881081793642,1999.961,3522.086,3005.722,0,-0.02202274,0.01482495,0.05489631,-0.951473355293274,-0.319023072719574,0.541737258434296,-0.898304216251578,-0.386515208538549,0.556093102023818,0
3.30000305175781,-2.16767764091492,1.69275569915771,2.5907256603241,-2.35364119854729,1.95311032582551,2.59987311156116,1677.318,2477.748,2175.335,2287.578,-0.01404977,0.01439753,0.04905916,-0.944375813007355,-0.314119279384613,0.555950105190277,-0.888267004546666,-0.382196476749158,0.549879589839776,0
3.32000732421875,-2.18635678291321,1.68659055233002,2.60131978988647,-2.37130830610839,1.94550866300381,2.61080989274252,1987.682,3535.254,2981.519,0,-0.01924826,0.01314924,0.05131767,-0.933971226215363,-0.308259606361389,0.529703736305237,-0.878034183119985,-0.377793579561194,0.543544985919778,0
3.33999633789063,-2.20488405227661,1.68052554130554,2.61219358444214,-2.38875555478454,1.93800159931817,2.62161057080077,1661.726,2466.5,2152.036,2315.917,-0.01124759,0.01272672,0.0454202,-0.926349639892578,-0.303244858980179,0.543688714504242,-0.867618167158097,-0.373311858882592,0.53709697585572,0
3.36000061035156,-2.22319555282593,1.67457938194275,2.62253093719482,-2.406005803634,1.93057929915441,2.6322892965819,1985.181,3523.866,2973.275,0,-0.0165361,0.01147746,0.04757286,-0.915574371814728,-0.297309309244156,0.516868412494659,-0.857007552155826,-0.36874640767338,0.530528499715627,0
3.3800048828125,-2.24134421348572,1.6687353849411,2.63314962387085,-2.42304196557559,1.92324911460621,2.64283549236868,1648.581,2464.255,2133.578,2329.626,-0.008545019,0.01103528,0.04156533,-0.907435953617096,-0.292194426059723,0.530932486057281,-0.846214826007803,-0.364102599125748,0.523847288101157,0
3.40000915527344,-2.25927019119263,1.66301131248474,2.64322686195374,-2.43986044461333,1.91601259293018,2.6532469320683,1973.721,3530.572,2956.391,0,-0.01397361,0.009792478,0.04370406,-0.89629739522934,-0.286208152770996,0.503867208957672,-0.835244706287931,-0.359382463079953,0.517056261415284,0
3.41999816894531,-2.27702260017395,1.657390832901,2.65357851982117,-2.45644516534361,1.90887665092339,2.66351366424015,1631.753,2459.825,2123.835,2339.368,-0.006098106,0.009342931,0.03770816,-0.887627840042114,-0.281029552221298,0.517584264278412,-0.824110582941664,-0.354591760855451,0.510163708672097,0
3.44000244140625,-2.29454588890076,1.65189003944397,2.66338086128235,-2.47281804716281,1.90183185728196,2.67364925803476,1973.966,3509.467,2956.327,0,-0.01161564,0.008068709,0.03974956,-0.876150488853455,-0.275026500225067,0.490111410617828,-0.812800388649434,-0.349725300221754,0.503162159625937,0
3.46000671386719,-2.31188559532166,1.64649367332458,2.67346096038818,-2.4889630419904,1.89488511704659,2.68364377892579,1614.923,2463.75,2110.713,2346.047,-0.00373748,0.007565423,0.03374245,-0.86698591709137,-0.269821435213089,0.504001021385193,-0.801327600455845,-0.344788879974649,0.496059957209413,0
3.47999572753906,-2.32898926734924,1.64121723175049,2.68298840522766,-2.50486489870395,1.88804299234919,2.69348778574196,1964.079,3512.523,2942.22,0,-0.009328521,0.006258574,0.0358431,-0.85518753528595,-0.263822674751282,0.476367175579071,-0.789706299681989,-0.339788558913217,0.488865818431069,0
3.5,-2.34590005874634,1.63604509830475,2.69278979301453,-2.5205447997813,1.88129636896134,2.70319439144611,1594.41,2461.335,2097.684,2361.512,-0.001437574,0.005721573,0.02992083,-0.845547616481781,-0.258606851100922,0.490072071552277,-0.777924000354857,-0.334718964672089,0.481572013878822,0
3.52000427246094,-2.36256957054138,1.6309928894043,2.70203185081482,-2.53598752699493,1.87465179486116,2.71275417523047,1969.933,3492.291,2936.167,0,-0.007049387,0.004355979,0.031973,-0.833468794822693,-0.252614498138428,0.46210789680481,-0.765994882555673,-0.32958619854407,0.474187321698442,0
3.54000854492188,-2.37903738021851,1.6260449886322,2.71155261993408,-2.55119019794619,1.86811051026429,2.72216535275294,1577.785,2466.723,2076.91,2374.726,0.0008930166,0.003752863,0.02606039,-0.823393166065216,-0.247383326292038,0.476036459207535,-0.753924423002452,-0.324392617007921,0.466715132239272,0
3.55999755859375,-2.39525842666626,1.62121725082397,2.72050666809082,-2.56613872308604,1.86167857751006,2.73141920191151,1960.516,3493.192,2924.054,0,-0.004792625,0.002347359,0.02817949,-0.811047375202179,-0.241395980119705,0.447697281837463,-0.741727567798258,-0.319144650954242,0.459164697851087,0
3.58000183105469,-2.41126942634583,1.61649441719055,2.729740858078,-2.58085326729328,1.85534732021446,2.74052820572674,1557.633,2463.483,2055.897,2400.227,0.003234087,0.001713443,0.02230014,-0.800564706325531,-0.236149162054062,0.461711049079895,-0.729391385793765,-0.313836736470737,0.451528013536464,0
3.60000610351563,-2.42702913284302,1.61189103126526,2.73840117454529,-2.59531978247425,1.84912278287974,2.74948366775945,1958.966,3487.312,2911.534,0,-0.002500175,0.0002857438,0.02443313,-0.787988066673279,-0.230159312486649,0.433018118143082,-0.716930938559024,-0.308475354130224,0.443814403124743,0
3.6199951171875,-2.44257164001465,1.60739350318909,2.74734401702881,-2.60952509409627,1.84301063413925,2.75827743234631,1543.381,2462.69,2033.909,2419.061,0.005551605,-0.0003739078,0.01855164,-0.777122259140015,-0.224884301424026,0.44714742898941,-0.704361775018033,-0.303067194200314,0.436033492140578,0
3.63999938964844,-2.45785856246948,1.60301542282104,2.755704164505,-2.6234885835008,1.83700253474321,2.76692149746096,1951.13,3483.547,2902.343,1.249785,-0.000267914,-0.001804025,0.02070076,-0.764334619045258,-0.218893751502037,0.418012291193008,-0.691670720740692,-0.297606588091786,0.428177124984152,0
3.66000366210938,-2.47292065620422,1.59874355792999,2.76435041427612,-2.63719712493647,1.83110413233575,2.77540773763803,1529.082,2459.584,2013.909,2439.04,0.007815881,-0.002473544,0.01480185,-0.753106594085693,-0.213596671819687,0.432308077812195,-0.678873453515702,-0.29210028151913,0.420255006953505,0
3.68000793457031,-2.4877233505249,1.59459137916565,2.77241516113281,-2.65064865588166,1.82531631436231,2.78373487607838,1931.036,3494.829,2874.182,19.82536,0.002011922,-0.003837083,0.01700388,-0.740135133266449,-0.207607239484787,0.403242021799088,-0.665976209205203,-0.286550957599616,0.412270998344358,0
3.69999694824219,-2.50229430198669,1.59054577350616,2.78075432777405,-2.66383127580226,1.81964420129024,2.79189554578451,1523.089,2454.095,2005.514,2439.863,0.009947187,-0.004463458,0.01117005,-0.728552937507629,-0.202279567718506,0.416953414678574,-0.65299527533123,-0.280965624398954,0.404235181908735,0
3.72000122070313,-2.51660299301147,1.58661985397339,2.78852200508118,-2.6767633032417,1.81407991116207,2.79990108680742,1909.665,3484.295,2841.536,68.0624,0.004353953,-0.005705024,0.01324313,-0.715436220169067,-0.196298763155937,0.388382196426392,-0.639917282339434,-0.275338529371411,0.396139281255611,0
3.74000549316406,-2.53067302703857,1.58280110359192,2.79654383659363,-2.6894328975087,1.80862853869646,2.80774416919516,1531.088,2460,2010.642,2401.529,0.01195075,-0.006278136,0.007486297,-0.703497767448425,-0.19093032181263,0.401086360216141,-0.626758665639204,-0.269676744214497,0.387993470686332,0
3.75999450683594,-2.54447770118713,1.57910203933716,2.8040144443512,-2.70182915057228,1.80329477731443,2.81541804035694,1890.319,3464.684,2802.173,131.9363,0.006605846,-0.007394533,0.009302464,-0.690241515636444,-0.184969320893288,0.373526811599731,-0.613536214864365,-0.263987493038594,0.379808143784027,0
3.77999877929688,-2.55803632736206,1.57550990581512,2.81170749664307,-2.7139695770734,1.79807109095524,2.82293354268985,1537.921,2478.723,2032.471,2333.864,0.01362793,-0.007919708,0.00372356,-0.67793333530426,-0.179588153958321,0.384657829999924,-0.60023651686137,-0.258265004538452,0.371574997167698,0
3.80000305175781,-2.57132720947266,1.5720362663269,2.81887984275818,-2.72584333814708,1.79296214327972,2.83028396642013,1866.391,3431.501,2759.572,219.1163,0.008649008,-0.008914665,0.005214835,-0.664538264274597,-0.173690795898438,0.358622491359711,-0.586876524285838,-0.252516572968186,0.363304525338741,0
3.82000732421875,-2.58436465263367,1.56866931915283,2.82623720169067,-2.73744929742843,1.78796842323393,2.8374686080838,1550.151,2510.739,2063.82,2237.529,0.01493293,-0.009413742,-6.120017E-05,-0.651866555213928,-0.1683439463377,0.367872834205627,-0.573463232144022,-0.246745208083563,0.355001058539243,0
3.83999633789063,-2.5971314907074,1.56541812419891,2.83311033248901,-2.74877791451009,1.78309403578861,2.84448156171422,1836.923,3388.164,2715.374,324.9089,0.01041653,-0.01030111,0.001109137,-0.638339936733246,-0.16256283223629,0.343653321266174,-0.560014026276881,-0.240958390526246,0.346675359432959,0
3.86000061035156,-2.60963821411133,1.56227207183838,2.84012699127197,-2.75984563331209,1.77833190558438,2.85133300688122,1560.517,2549.463,2101.688,2129.847,0.01596,-0.01078367,-0.00375559,-0.625341475009918,-0.157301634550095,0.35083395242691,-0.546515580872635,-0.235150386571708,0.338319178707605,0
3.8800048828125,-2.62187194824219,1.55923867225647,2.8467013835907,-2.77064299647982,1.77368610185671,2.85801708903178,1810.277,3337.621,2666.712,440.894,0.01203367,-0.01158315,-0.002902846,-0.611702680587769,-0.151670306921005,0.328717440366745,-0.532985466132484,-0.229328756186666,0.329943393154704,0
3.90000915527344,-2.63384056091309,1.55630850791931,2.85337710380554,-2.78116944461445,1.76915686529929,2.86453346187138,1575.004,2594.61,2137.231,2014.197,0.0168303,-0.01206412,-0.007299725,-0.598430514335632,-0.146513536572456,0.333780556917191,-0.519431110871129,-0.223496695782554,0.321552601564443,0
3.91999816894531,-2.64553499221802,1.5534873008728,2.8596522808075,-2.79141684911929,1.7647476934202,2.87087709341145,1782.652,3283.436,2616.608,563.6108,0.013532,-0.01278743,-0.006757505,-0.584705233573914,-0.141047164797783,0.313760340213776,-0.505870408491346,-0.2176619043907,0.313157880805522,0
