t,x_s1,x_s2,x_s3,x_s_d1,x_s_d2,x_s_d3,propellers_rpms1,propellers_rpms2,propellers_rpms3,propellers_rpms4,rollRad,pitchRad,yawRad,v_s1,v_s2,v_s3,v_s_d1,v_s_d2,v_s_d3,insideCount
0,-0.0599999986588955,2.94000005722046,1.17999994754791,-0.0599999986588955,2.94000005722046,1.17999994754791,0,0,0,0,0,0,0,0,0,0,-1.06581410364015E-15,4.44089209850063E-16,4.44089209850063E-16,0
0.0200042724609375,-0.0599999986588955,2.94000005722046,1.1771354675293,-0.0600018701838461,2.93999925195556,1.18000110611101,0,0,0,0,0.0163538,-0.002474609,-2.024222E-05,3.71994488546079E-08,3.50004931704007E-08,-0.143225952982903,-0.000280105751305916,-0.000120521679537258,0.00017339880334547,5
0.040008544921875,-0.0599999986588955,2.94000005722046,1.17048275470734,-0.060014880898484,2.93999365380853,1.18000916036316,0,0,0,0,0.03270752,-0.004950816,-5.430172E-05,3.62924410524101E-08,3.44428769949445E-08,-0.332637369632721,-0.00111143977225461,-0.000478221483967637,0.00068803416424398,6
0.05999755859375,-0.0600004345178604,2.94013261795044,1.16416549682617,-0.0600498857373401,2.93997859220429,1.18003083002592,3185.406,2835.785,1501.1,2767.662,0.03127991,-0.00494336,-0.01646952,-2.17784399865195E-05,0.0066222520545125,-0.315860867500305,-0.00247936261166862,-0.00106680046642749,0.00153484356504269,6
0.0800018310546875,-0.0599162206053734,2.94038772583008,1.15857696533203,-0.0601175574246769,2.93994947496775,1.18007272202403,3065.603,3067.191,2155.165,2024.121,0.01897616,-0.004310593,-0.04351445,0.00421066209673882,0.0127498498186469,-0.279423803091049,-0.00437268608126799,-0.00188144466206175,0.00270690098422899,6
0.100006103515625,-0.0596375502645969,2.94068765640259,1.15374839305878,-0.0602282404704493,2.93990185114529,1.18014124010193,2640.55,3831.823,2620.117,1134.666,-0.00585203,-0.002888465,-0.070145,0.0139334313571453,0.0149977942928672,-0.241429135203362,-0.00677739276378709,-0.00291612276782231,0.00419552897277328,6
0.120010375976563,-0.0590848885476589,2.94089889526367,1.14957022666931,-0.0603920338334453,2.93983137543704,1.18024263599618,2092.257,4101.995,3169.267,755.9441,-0.04011946,-0.0004511395,-0.08993602,0.0276331827044487,0.010561915114522,-0.208908408880234,-0.00968041450003567,-0.00416521191989172,0.00599263771761404,5
0.139999389648438,-0.0582314617931843,2.94085621833801,1.14596676826477,-0.0606185767455666,2.93973390035084,1.18038287685052,1510.274,4074.836,3735.818,701.9628,-0.07649504,0.002388302,-0.09949889,0.0426713563501835,-0.00212969444692135,-0.180173456668854,-0.0130660253322238,-0.00562194567796536,0.00808849210174802,4
0.160003662109375,-0.0570994354784489,2.94039487838745,1.14297795295715,-0.0609177895434042,2.93960515744296,1.18056810382587,1134.647,3846.994,4070.114,880.1874,-0.1062798,0.00433567,-0.09869941,0.0566012784838676,-0.023067956790328,-0.149439349770546,-0.0169265510445065,-0.00728302204135792,0.0104783414199936,4
0.180007934570313,-0.0557377189397812,2.93938803672791,1.14071118831635,-0.0612988491946875,2.93944119812059,1.1808039979024,1101.343,3565.175,4009.854,1148.824,-0.1236287,0.004492098,-0.09000047,0.0680859312415123,-0.0503411144018173,-0.113338589668274,-0.0212468478482708,-0.00914192506089775,0.0131528109458008,3
0.199996948242188,-0.0541964657604694,2.9377772808075,1.13924860954285,-0.0617704296168641,2.93923829023936,1.18109592864822,1373.443,3339.828,3594.73,1386.127,-0.127877,0.00302261,-0.07724925,0.0770627707242966,-0.0805368423461914,-0.0731290802359581,-0.0260104776919234,-0.0111915819022102,0.0161017247421801,3
0.220001220703125,-0.0525142289698124,2.93557620048523,1.13858389854431,-0.0623420644491781,2.93899233174064,1.18144979784016,1790.29,3212.833,3017.192,1527.411,-0.1229747,0.0008612399,-0.06425888,0.084111824631691,-0.110051058232784,-0.033236488699913,-0.03121219533433,-0.0134297356845702,0.019321835755004,3
0.240005493164063,-0.0507195740938187,2.93284702301025,1.13860702514648,-0.0630219993990999,2.93869977472688,1.18187070996396,2159.743,3168.378,2517.042,1558.441,-0.1149628,-0.0009880328,-0.05362222,0.0897327065467834,-0.136454343795776,0.00115860626101494,-0.0368361158647881,-0.0158495515746756,0.0228033104678445,3
0.260009765625,-0.0488372482359409,2.92966485023499,1.13913786411285,-0.0638185570309634,2.93835703823113,1.18236381708338,2352.013,3159.412,2273.765,1495.506,-0.1090522,-0.001904693,-0.04623621,0.0941163077950478,-0.159107685089111,0.0265439357608557,-0.0428699302682246,-0.0184457333472145,0.0265385290140116,3
0.279998779296875,-0.0468917116522789,2.92608761787415,1.13999617099762,-0.0647390625194898,2.93796097043536,1.18293365383054,2352.616,3152.114,2324.222,1363.801,-0.1078197,-0.001744903,-0.04152241,0.0972766205668449,-0.178861856460571,0.0429139509797096,-0.0492963837173861,-0.0212108567320638,0.030516809833474,3
0.300003051757813,-0.0449087023735046,2.92214369773865,1.1410619020462,-0.0657927507678135,2.93750759781875,1.18358593705038,2228.539,3144.003,2573.283,1194.658,-0.1110906,-0.0007360977,-0.03798413,0.0991505533456802,-0.197190672159195,0.0532859116792679,-0.0561132031658829,-0.0241439437008635,0.0347367458022363,3
0.32000732421875,-0.0429168939590454,2.91783547401428,1.142294049263,-0.0669865614821475,2.93699393441958,1.18432496275165,2074.583,3132.379,2872.953,1032.57,-0.1169293,0.0006862616,-0.03398087,0.0995904207229614,-0.21540854871273,0.0616071633994579,-0.0633036493784043,-0.0272377918282996,0.0391879745362408,3
0.339996337890625,-0.0409489125013351,2.91315102577209,1.1437075138092,-0.068326768706371,2.93641728069206,1.18515461486636,1955.467,3107.796,3109.127,921.0769,-0.1228452,0.002069636,-0.02837385,0.0983994007110596,-0.234225735068321,0.070673480629921,-0.0708499516420146,-0.0304847548730522,0.0438594951176439,3
0.360000610351563,-0.0390401557087898,2.90807723999023,1.14534330368042,-0.0698225328270578,2.93577369517774,1.1860805641102,1903.863,3065.42,3222.775,881.333,-0.1267068,0.003093272,-0.020868,0.095437578856945,-0.253692746162415,0.0817914456129074,-0.0787518717320621,-0.0338847303337087,0.0487511600740379,3
0.3800048828125,-0.0372257195413113,2.90261030197144,1.14724361896515,-0.0714797725314022,2.93506063123087,1.18710647443246,1924.528,3020.975,3206.629,896.1696,-0.1274131,0.003642173,-0.01188622,0.0907221138477325,-0.273345023393631,0.0950184091925621,-0.0869921272359981,-0.0374302820709642,0.0538522707687797,3
0.400009155273438,-0.0355372875928879,2.89676117897034,1.14943170547485,-0.0733051402689975,2.93427522648826,1.18823646401636,1991.477,2989.806,3098.674,938.3961,-0.1250413,0.003790547,-0.00220776,0.0844215303659439,-0.292451411485672,0.109406314790249,-0.0955591682828665,-0.0411164404980124,0.0591556772815509,3
0.419998168945313,-0.034001998603344,2.89055466651917,1.15190613269806,-0.0753034649285836,2.93341540321397,1.18947352217404,2072.185,2974.161,2953.307,987.2515,-0.120508,0.003707658,0.007336726,0.0767646357417107,-0.310325592756271,0.123719803988934,-0.104434660908044,-0.0449353170220673,0.0646500300148815,3
0.44000244140625,-0.0326425582170486,2.88402462005615,1.15464150905609,-0.077483988232608,2.93247718495301,1.19082336997196,2135.583,2972.881,2826.178,1022.98,-0.1150816,0.003565184,0.01615218,0.06797194480896,-0.326506614685059,0.136771738529205,-0.113620829717891,-0.048887868829098,0.0703367061060819,4
0.460006713867188,-0.0314784571528435,2.8772075176239,1.15760171413422,-0.0798512213598696,2.93145863067119,1.19228880004469,2168.962,2977.208,2748.252,1039.728,-0.1098634,0.003475352,0.02394107,0.0582051165401936,-0.340853691101074,0.148011460900307,-0.123099793815011,-0.0529664022684887,0.0762046364278779,4
0.479995727539063,-0.0305268317461014,2.87013840675354,1.16074800491333,-0.0824088828700873,2.93035814037613,1.19387211435783,2168.592,2985.123,2732.592,1031.328,-0.1055475,0.003481769,0.03074964,0.0475816465914249,-0.353460431098938,0.157311946153641,-0.132852887402757,-0.0571628859694044,0.0822422659629699,4
0.5,-0.0298037026077509,2.86284685134888,1.16405200958252,-0.085166398670376,2.92917165836334,1.1955791479969,2145.631,2988.663,2763.673,1010.354,-0.1022675,0.003569699,0.03679917,0.0361564382910728,-0.364582568407059,0.165199980139732,-0.142884000065179,-0.0614789935111996,0.0884520025491718,4
0.520004272460938,-0.0293244961649179,2.8553569316864,1.16749954223633,-0.088127196023106,2.92789770997757,1.19741202260058,2117.583,2992.458,2816.12,978.1021,-0.09982912,0.003686655,0.04240802,0.0239601731300354,-0.374498158693314,0.172375902533531,-0.153174893518032,-0.065906877469682,0.0948225558197254,4
0.540008544921875,-0.0291042122989893,2.84768843650818,1.17108607292175,-0.0912963635428427,2.92653410573011,1.19937388826368,2089.484,2992.875,2871.029,949.556,-0.09783015,0.003776457,0.04786159,0.0110139977186918,-0.383424460887909,0.179326713085175,-0.163714777034477,-0.0704418948965508,0.101347245800684,4
0.55999755859375,-0.0291577391326427,2.83985829353333,1.17481672763824,-0.094676112580471,2.92507989413848,1.20146611391775,2070.458,2988.346,2908.321,935.8978,-0.09579071,0.003795396,0.05329345,-0.00267614051699638,-0.391506373882294,0.18653416633606,-0.17448465888317,-0.0750758741803766,0.108014315705644,5
0.580001831054688,-0.0294991135597229,2.83188271522522,1.17869830131531,-0.0982762614093182,2.92353085067394,1.20369477754168,2062.965,2985.829,2923.574,930.3804,-0.09339653,0.003717794,0.05874272,-0.0170686766505241,-0.39878061413765,0.194080278277397,-0.185490414529404,-0.0798113433697334,0.11482740272751,5
0.600006103515625,-0.030141431838274,2.82377791404724,1.18273985385895,-0.102098762959148,2.92188613504538,1.20606108809202,2067.333,2983.739,2911.158,939.8973,-0.09049102,0.003539183,0.06410633,-0.032116562128067,-0.405237108469009,0.202078983187675,-0.196713446836865,-0.0846403006364086,0.121774994352997,5
0.6199951171875,-0.0310957208275795,2.81556177139282,1.18694221973419,-0.106144683970236,2.92014528826426,1.20856570593183,2075.266,2988.212,2887.587,949.178,-0.08718763,0.003271476,0.06929617,-0.0477139838039875,-0.41080704331398,0.210117265582085,-0.208134604141382,-0.0895545055543457,0.128845234789665,5
0.639999389648438,-0.0323714539408684,2.80725264549255,1.19130492210388,-0.110424235525481,2.91830391678686,1.21121495220784,2081.2,2989.956,2855.882,971.5724,-0.08359236,0.002941911,0.07414907,-0.0637869834899902,-0.415459007024765,0.218133002519608,-0.219761081350814,-0.0945570538913933,0.136042578028218,5
0.660003662109375,-0.0339760780334473,2.79886913299561,1.19582307338715,-0.114938248900541,2.91636166293851,1.21400934151928,2089.188,2999.823,2825.826,982.1685,-0.0799939,0.002567063,0.07859815,-0.0802312418818474,-0.419172465801239,0.225905537605286,-0.231574097577923,-0.0996398647564507,0.143355397804799,5
0.680007934570313,-0.035915169864893,2.79042959213257,1.20048785209656,-0.119690355154666,2.91431696437584,1.21695112166479,2088.187,3007.937,2806.597,993.1862,-0.07660796,0.002167589,0.08261283,-0.0969545543193817,-0.42197123169899,0.23324029147625,-0.243563621239988,-0.104798621839723,0.150777484091833,6
0.699996948242188,-0.0381930805742741,2.78195118904114,1.20529174804688,-0.124680083855354,2.91217002351282,1.22004000142426,2082.803,3014.545,2797.048,1001.567,-0.07354852,0.001758568,0.08619367,-0.113895282149315,-0.423923015594482,0.240196034312248,-0.255710395848158,-0.11002503961202,0.158296916205407,6
0.720001220703125,-0.040812823921442,2.7734489440918,1.21022641658783,-0.129918284978346,2.90991617190799,1.22328269744952,2074.176,3021.464,2799.74,1001.316,-0.07088589,0.00134535,0.08940849,-0.130987495183945,-0.425107806921005,0.246734336018562,-0.268023157655716,-0.11532287703907,0.16591910230247,6
0.740005493164063,-0.0437771044671535,2.76493620872498,1.21528995037079,-0.13540428105644,2.90755570105657,1.22667879035609,2066.653,3025.774,2801.958,1004.222,-0.06856894,0.0009296856,0.09229087,-0.14821369946003,-0.425632983446121,0.253178089857101,-0.280482990349159,-0.120683994959631,0.173632332283853,6
0.760009765625,-0.0470871590077877,2.75642466545105,1.22047579288483,-0.141140917956636,2.9050873864615,1.23023004187122,2058.234,3032.286,2813.717,995.9214,-0.06661738,0.0005058555,0.09495269,-0.165503516793251,-0.425575882196426,0.259289532899857,-0.293080296154222,-0.126104263719567,0.181430664670081,6
0.779998779296875,-0.0507446937263012,2.74792385101318,1.22578585147858,-0.147126184485884,2.90251209348295,1.23393520697061,2049.049,3030.695,2817.352,1005.778,-0.06483039,8.415834E-05,0.09737033,-0.18287593126297,-0.425036996603012,0.2655029296875,-0.305795832832518,-0.131575403921268,0.189302187598958,6
0.800003051757813,-0.0547498129308224,2.7394425868988,1.23121547698975,-0.153371683173492,2.89982482987671,1.2378014681726,2045.389,3036.495,2826.649,996.0906,-0.06324582,-0.0003467436,0.09963739,-0.200255855917931,-0.424061000347137,0.271478921175003,-0.318639638509124,-0.13710173468952,0.197253115148089,6
0.82000732421875,-0.0591034479439259,2.73098802566528,1.23677122592926,-0.159875221826383,2.89702653888221,1.24182746840525,2042.847,3035.133,2818.096,1011.432,-0.06168893,-0.0007744472,0.1016693,-0.217682480812073,-0.422725915908813,0.277784913778305,-0.331592781842754,-0.14267511039705,0.205271727915392,6
0.839996337890625,-0.0638040900230408,2.72256708145142,1.24244463443756,-0.166633637018892,2.89411858163313,1.24601124935738,2044.077,3044.632,2822.475,997.2885,-0.06036268,-0.001215467,0.1035793,-0.235032096505165,-0.421044141054153,0.283668994903564,-0.344636106234817,-0.148287288494656,0.213346167053785,6
0.860000610351563,-0.0688514858484268,2.71418523788452,1.24824142456055,-0.173659158941841,2.89109569582005,1.2503603820997,2037.313,3038.861,2811.055,1024.099,-0.05902151,-0.001636246,0.10522,-0.252370417118073,-0.419087946414948,0.289838552474976,-0.357780475378537,-0.153942943326036,0.221483157706883,6
0.8800048828125,-0.0742429941892624,2.70584797859192,1.25415396690369,-0.180948461186242,2.88795931270381,1.25487280742661,2044.313,3051.409,2811.187,1005.581,-0.05796157,-0.002063417,0.106716,-0.269574463367462,-0.416865170001984,0.295628309249878,-0.371007022483504,-0.159633957038354,0.229671020432672,6
0.900009155273438,-0.0799768269062042,2.69755911827087,1.26018536090851,-0.188503099076414,2.88470876307182,1.25954948815793,2037.831,3048.102,2801.51,1027.821,-0.05700976,-0.002464489,0.1079575,-0.286691933870316,-0.414447367191315,0.301570326089859,-0.384306908919572,-0.165356526615982,0.237904283698049,7
0.919998168945313,-0.0860490798950195,2.68932199478149,1.26632618904114,-0.196318384305134,2.8813460641717,1.26438752200817,2039.906,3057.181,2808.177,1011.57,-0.05639084,-0.002858104,0.1090651,-0.303613394498825,-0.411854445934296,0.307039529085159,-0.397661187980262,-0.171102499820431,0.246171218589148,7
0.94000244140625,-0.0924572497606277,2.68113875389099,1.27258038520813,-0.204407453948074,2.87786556348678,1.26939504145298,2032.525,3052.359,2804.054,1031.471,-0.05588004,-0.003214435,0.1099401,-0.320408791303635,-0.409161120653152,0.312710344791412,-0.411081631631503,-0.176876941799768,0.254479112513653,7
0.960006713867188,-0.0991968661546707,2.67301082611084,1.27894103527069,-0.212765478812529,2.87426933888379,1.27456905699201,2038.137,3062.451,2811.913,1010.251,-0.05570854,-0.003561179,0.110719,-0.336980581283569,-0.406391233205795,0.318033576011658,-0.424549556012544,-0.182671813410681,0.262816399271726,7
0.979995727539063,-0.106264635920525,2.66493844985962,1.28541159629822,-0.22138664033507,2.87055989392801,1.27990596665734,2031.286,3058.138,2810.87,1026.428,-0.05566806,-0.003871171,0.1113245,-0.353389739990234,-0.403616696596146,0.323529005050659,-0.438046240701377,-0.188479059778567,0.271171490030365,7
1,-0.113655567169189,2.65692138671875,1.29198360443115,-0.230284798736574,2.86673126495361,1.28541435058594,2032.349,3063.502,2825.787,1007.971,-0.05589975,-0.004163586,0.1118783,-0.369545936584473,-0.400854974985123,0.328602343797684,-0.451584000205995,-0.194303979492187,0.279552008056641,7
1.02000427246094,-0.121366873383522,2.64895796775818,1.29866778850555,-0.239454009753966,2.86278600961093,1.2910905289958,2030.872,3058.86,2817.609,1027.53,-0.05614743,-0.004414456,0.1122564,-0.385565549135208,-0.398176640272141,0.334207236766815,-0.465144357597929,-0.200138622445408,0.287946515251652,7
1.04000854492188,-0.129392430186272,2.64104652404785,1.30544996261597,-0.248894644448595,2.85872396824263,1.29693473159157,2036.815,3069.449,2837.366,993.8473,-0.0567461,-0.00466213,0.1126669,-0.401278227567673,-0.395571500062943,0.339109420776367,-0.47871923339115,-0.205979512261105,0.296350010028666,7
1.05999755859375,-0.137730062007904,2.63318395614624,1.31234562397003,-0.258599401509697,2.85454828239877,1.30294243851408,2028.915,3057.234,2824.757,1033.046,-0.05721802,-0.004851747,0.1128727,-0.416881799697876,-0.393123388290405,0.344785094261169,-0.492290296490434,-0.211818761581115,0.30475114456651,7
1.08000183105469,-0.146372675895691,2.62536835670471,1.31933510303497,-0.268583149539609,2.85025255453512,1.30912285413647,2040.06,3072.084,2852.551,981.8242,-0.05807822,-0.00504669,0.113174,-0.432131558656693,-0.3907850086689,0.349472105503082,-0.50587040849135,-0.217661904390701,0.313157880805523,7
1.10000610351563,-0.155319422483444,2.61759495735168,1.3264445066452,-0.278838480013141,2.84583997233313,1.31547139222872,2032.53,3056.137,2826.275,1039.726,-0.05866784,-0.005171326,0.1132111,-0.447336256504059,-0.388664901256561,0.355470329523087,-0.519441457145546,-0.223501147495394,0.321559006401169,7
1.1199951171875,-0.164561346173286,2.60986161231995,1.33364176750183,-0.289357002179081,2.84131414609862,1.32198285851614,2050.47,3080.364,2866.182,959.2383,-0.05985135,-0.005326855,0.1134584,-0.462096780538559,-0.386669367551804,0.359864294528961,-0.532985466132485,-0.229328756186667,0.329943393154705,8
1.13999938964844,-0.174099087715149,2.6021625995636,1.34096312522888,-0.300154365346813,2.83666834237095,1.3286669406667,2029.63,3050.755,2832.198,1053.817,-0.06053258,-0.005379053,0.1133532,-0.476887136697769,-0.384951859712601,0.366070777177811,-0.546515580872639,-0.235150386571708,0.338319178707607,8
1.16000366210938,-0.183922469615936,2.59449529647827,1.3483681678772,-0.311222084148811,2.83190621216671,1.33551838583369,2061.5,3086.671,2882.302,937.0793,-0.06197069,-0.00548771,0.1135586,-0.491169303655624,-0.38336244225502,0.370251953601837,-0.560014026276883,-0.240958390526247,0.34667535943296,8
1.18000793457031,-0.194033786654472,2.58685302734375,1.35590493679047,-0.322559451663168,2.82702805965467,1.34253675639879,2033.774,3049.037,2834.517,1062.278,-0.06274194,-0.005474926,0.113338,-0.505566239356995,-0.382108241319656,0.376838892698288,-0.573473482003304,-0.246749618311663,0.355007403690405,8
1.19999694824219,-0.204420685768127,2.57923364639282,1.36351573467255,-0.334156660511822,2.8220381046756,1.34971598112778,2070.457,3093.312,2906.996,908.6977,-0.06448312,-0.005544169,0.1135753,-0.519343674182892,-0.380967050790787,0.380538165569305,-0.58687652428584,-0.252516572968185,0.36330452533874,8
1.22000122070313,-0.215088561177254,2.5716290473938,1.37126970291138,-0.346030421585499,2.81692915700008,1.35706640485806,2031.624,3039.953,2838.712,1084.366,-0.06517874,-0.005451491,0.1132334,-0.533394038677216,-0.38022843003273,0.387698292732239,-0.600236516861372,-0.258265004538453,0.371574997167698,8
1.24000549316406,-0.226022154092789,2.56403803825378,1.37908816337585,-0.358170848086624,2.8117054706409,1.36458190719098,2087.826,3104.363,2934.016,866.1552,-0.06718943,-0.005493036,0.1135552,-0.546680450439453,-0.379554897546768,0.390924245119095,-0.613536214864368,-0.263987493038594,0.379808143784027,8
1.260009765625,-0.237230956554413,2.55645060539246,1.38706731796265,-0.37057666480527,2.80636759428526,1.37226169871082,2032.66,3031.58,2833.271,1113.496,-0.0677391,-0.005326322,0.1130939,-0.560441017150879,-0.379366189241409,0.398955106735229,-0.626768731761373,-0.26968107538565,0.387999702095469,8
1.27999877929688,-0.24869492650032,2.54886746406555,1.39509224891663,-0.383236695417198,2.80092033679326,1.3800988607405,2104.922,3118.131,2970.987,810.9547,-0.07010505,-0.00535615,0.1135872,-0.573197424411774,-0.379151731729507,0.40124437212944,-0.639917282339435,-0.275338529371412,0.396139281255613,8
1.30000305175781,-0.260430008172989,2.54127669334412,1.40330266952515,-0.396168722856641,2.79535604666509,1.38810440176341,2024.723,3013.2,2823.121,1168.173,-0.07027656,-0.005094095,0.1129475,-0.586754024028778,-0.379536598920822,0.41051834821701,-0.652995275331231,-0.280965624398954,0.404235181908735,8
1.32000732421875,-0.272409230470657,2.53368186950684,1.41153490543365,-0.409361504843077,2.78967956113998,1.39627136227237,2133.578,3140.615,3014.241,729.1237,-0.07305583,-0.005135107,0.1136862,-0.5989630818367,-0.379743456840515,0.411611437797546,-0.6659860834168,-0.286555206197011,0.41227711095171,8
1.33999633789063,-0.284657597541809,2.52606749534607,1.41998898983002,-0.422802873722428,2.78389611561957,1.40459220990988,2015.795,2991.705,2795.432,1246.011,-0.07271016,-0.004772917,0.1128037,-0.612418353557587,-0.380718231201172,0.422701448202133,-0.678873453515705,-0.29210028151913,0.420255006953505,8
1.36000061035156,-0.2971371114254,2.51844215393066,1.42842197418213,-0.436511415158101,2.77799771321212,1.41307845008695,2163.65,3170.554,3079.089,615.0512,-0.07612273,-0.004852812,0.1139312,-0.623975872993469,-0.38127276301384,0.421652346849442,-0.691670720740693,-0.297606588091785,0.42817712498415,9
1.3800048828125,-0.30988746881485,2.51078462600708,1.43713450431824,-0.450474904562636,2.77198961381608,1.4217225152016,1993.838,2954.154,2745.298,1378.285,-0.07485986,-0.004346812,0.1126338,-0.637516856193542,-0.382873743772507,0.435628294944763,-0.704361775018035,-0.303067194200314,0.436033492140578,9
1.40000915527344,-0.322853267192841,2.5031111240387,1.44576239585876,-0.464691155755482,2.76587275808388,1.43052305190393,2215.793,3223.286,3164.139,433.4149,-0.07928976,-0.004522047,0.1143548,-0.648289561271667,-0.383670449256897,0.431395560503006,-0.716940488958393,-0.308479463400265,0.443820315276901,9
1.41999816894531,-0.336095690727234,2.4953920841217,1.45475053787231,-0.47914673136562,2.75965292774086,1.43947174182117,1949.177,2896.453,2667.669,1583.673,-0.0767065,-0.003821104,0.1124557,-0.662121653556824,-0.385948836803436,0.449405044317245,-0.729391385793766,-0.313836736470737,0.451528013536465,9
1.44000244140625,-0.349533796310425,2.48765516281128,1.46355748176575,-0.493861275572861,2.75332167044526,1.4485807456364,2281.499,3295.628,3289.381,174.7388,-0.08256225,-0.004139618,0.1150387,-0.671905994415283,-0.386841356754303,0.440347194671631,-0.741727567798258,-0.319144650954242,0.459164697851088,9
1.46000671386719,-0.363261669874191,2.4798572063446,1.47284948825836,-0.508821304757097,2.74688478782212,1.45784171634646,1882.662,2813.057,2538.232,1893.279,-0.07793208,-0.003159042,0.1122113,-0.686392188072205,-0.389895886182785,0.464601993560791,-0.753933682518823,-0.324396601119133,0.466720864320996,9
1.47999572753906,-0.377167701721191,2.47203755378723,1.48189437389374,-0.524012471663969,2.74034845309416,1.46724577231745,2211.712,3539.038,3293.002,0,-0.08460863,-0.003016296,0.1164157,-0.695303857326508,-0.390988558530807,0.452247083187103,-0.765994882555672,-0.329586198544069,0.474187321698441,9
1.5,-0.391369014978409,2.46414732933044,1.49147701263428,-0.539455198877605,2.73370387899399,1.4768055561018,1883.36,2656.318,2431.913,2174.858,-0.0784024,-0.001349157,0.1128583,-0.710069060325623,-0.394511818885803,0.479134529829025,-0.777924000354858,-0.334718964672088,0.481572013878822,9
1.52000427246094,-0.405740171670914,2.45623254776001,1.5007985830307,-0.555135099954955,2.72695725560613,1.48651216180595,2136.337,3703.65,3213.51,0,-0.08479398,-0.0001938781,0.1175444,-0.718555331230164,-0.395745009183884,0.46607831120491,-0.789706299681991,-0.339788558913217,0.48886581843107,9
1.54000854492188,-0.420398056507111,2.44825005531311,1.51061975955963,-0.571049184024557,2.72010986981902,1.49636373793799,1995.297,2533.981,2432.847,2194.667,-0.07877151,0.002227517,0.1131755,-0.732894778251648,-0.399129152297974,0.491057366132736,-0.801336412291853,-0.344792671461508,0.496065412155667,9
1.55999755859375,-0.435219466686249,2.44024467468262,1.52018237113953,-0.587181951496087,2.71316839067337,1.50635068951315,2183.391,3672.236,3214.726,0,-0.08542888,0.004029657,0.1166519,-0.741070151329041,-0.400266945362091,0.478128671646118,-0.812800388649436,-0.349725300221754,0.503162159625937,9
1.58000183105469,-0.450311034917831,2.43217635154724,1.53019237518311,-0.60355483331529,2.70612359703193,1.51648628330776,2077.032,2518.616,2548.656,2022.76,-0.08095744,0.00671889,0.1115368,-0.754577219486237,-0.403412818908691,0.500499546527863,-0.824110582941666,-0.354591760855452,0.510163708672098,9
1.60000610351563,-0.465560436248779,2.42408204078674,1.53998363018036,-0.620152298932711,2.69898217125626,1.52676090517188,2202.583,3632.807,3253.099,0,-0.08815809,0.008718052,0.1139761,-0.762473881244659,-0.404710650444031,0.489565134048462,-0.835253140422976,-0.35938609205264,0.51706148254665,9
1.6199951171875,-0.481058478355408,2.41592216491699,1.5501606464386,-0.636958033083316,2.69175113334911,1.53716445517924,2118.445,2554.242,2716.779,1781.454,-0.08565152,0.0112505,0.1091355,-0.774901628494263,-0.407991349697113,0.508852779865265,-0.846214826007804,-0.364102599125749,0.523847288101157,9
1.63999938964844,-0.496708959341049,2.40772676467896,1.56015145778656,-0.653994195024907,2.68442094880091,1.54771065096602,2241.487,3505.325,3356.991,0,-0.09303753,0.01291253,0.1110217,-0.782524704933167,-0.409774601459503,0.499542474746704,-0.857007552155828,-0.368746407673381,0.530528499715628,9
1.66000366210938,-0.512595176696777,2.39945292472839,1.57051610946655,-0.671244443874359,2.67699864863716,1.55838937674714,2109.559,2617.303,2843.949,1607.017,-0.09113391,0.01494829,0.1069679,-0.794312059879303,-0.413690119981766,0.518233060836792,-0.867618167158098,-0.373311858882592,0.53709697585572,9
1.68000793457031,-0.528630614280701,2.39112877845764,1.58072984218597,-0.688705090349012,2.66948582025311,1.56919834868089,2252.264,3454.953,3407.204,0,-0.09791538,0.0160707,0.109351,-0.801769375801086,-0.416213095188141,0.510684728622437,-0.878042061913515,-0.377796969585941,0.543549863268291,9
1.69999694824219,-0.54489541053772,2.3827109336853,1.5913188457489,-0.706358800111611,2.66188992212981,1.58012683598675,2090.781,2656.25,2883.192,1552.564,-0.09540668,0.01757614,0.1063963,-0.813240051269531,-0.420888900756836,0.529453158378601,-0.888267004546665,-0.382196476749158,0.549879589839776,9
1.72000122070313,-0.561306238174438,2.37423205375671,1.60176134109497,-0.724228658537036,2.6542010212754,1.5911891296115,2290.806,3399.487,3430.914,0,-0.1011836,0.01808548,0.1094174,-0.820542275905609,-0.423938453197479,0.522123456001282,-0.898304216251578,-0.386515208538549,0.556093102023817,9
1.74000549316406,-0.57794851064682,2.36564826965332,1.61261379718781,-0.742297311768984,2.64642658456943,1.60237448669139,2069.692,2685.816,2827.215,1609.704,-0.09720751,0.01913503,0.1070444,-0.832116603851318,-0.429189443588257,0.542624771595001,-0.908141534469281,-0.390747931744771,0.562182870617028,9
1.760009765625,-0.594732582569122,2.35699939727783,1.6233115196228,-0.760560719141003,2.63856835059778,1.61368040586141,2289.694,3452.39,3383.119,0,-0.1022185,0.01928546,0.1109268,-0.839207112789154,-0.432444006204605,0.534888625144958,-0.91777478390713,-0.394892849856044,0.568146310914365,9
1.77999877929688,-0.611749887466431,2.34824299812317,1.63443315029144,-0.779000609654483,2.63063418086074,1.62509557650306,2056.457,2674.5,2743.272,1726.326,-0.09707648,0.02017149,0.1087741,-0.850860953330994,-0.437825351953506,0.556082427501678,-0.927192788821983,-0.398945154262308,0.57397650459845,9
1.80000305175781,-0.628903806209564,2.33942556381226,1.6453720331192,-0.797640935141499,2.62261376955408,1.63663482594136,2296.92,3480.844,3352.599,0,-0.1017599,0.0202002,0.1129829,-0.857697606086731,-0.440870732069016,0.546942710876465,-0.936405971974637,-0.402909329586356,0.579679903854719,9
1.82000732421875,-0.646293580532074,2.33050489425659,1.6567519903183,-0.816463410111527,2.61451498441355,1.64828683458664,2053.222,2657.243,2674.165,1827.52,-0.09586848,0.02110614,0.1105184,-0.869487762451172,-0.446031272411346,0.568997144699097,-0.94540321420156,-0.406780591562751,0.585249625391268,9
1.83999633789063,-0.66381561756134,2.32153058052063,1.66793370246887,-0.835449117627072,2.60634596486888,1.66003989195343,2270.404,3554.697,3311.854,0,-0.1005844,0.02127768,0.1149183,-0.876102209091187,-0.448714822530746,0.559088289737701,-0.954174163352093,-0.410554485950274,0.590679260733698,9
1.86000061035156,-0.681571066379547,2.31246280670166,1.6795414686203,-0.854622615239374,2.59809614449182,1.6719092003358,2062.066,2622.554,2662.346,1872.68,-0.09466419,0.02235445,0.1121671,-0.887771666049957,-0.453388541936874,0.580388784408569,-0.962728579444532,-0.414235212212131,0.595974851798267,9
1.8800048828125,-0.699455738067627,2.3033504486084,1.69094252586365,-0.873964974649439,2.58977366760063,1.68388304221498,2280.145,3548.662,3316.534,0,-0.0994648,0.02265943,0.1161964,-0.894237279891968,-0.455615609884262,0.57005375623703,-0.971056158224177,-0.417818336715394,0.601130019760457,9
1.90000915527344,-0.717570543289185,2.29415488243103,1.70276117324829,-0.893471623792247,2.58138050142717,1.69595858726494,2079.764,2618.847,2682.503,1845.47,-0.0938221,0.02380453,0.1131133,-0.905736267566681,-0.459777146577835,0.590932309627533,-0.979153483542501,-0.421302389586788,0.606142649861596,9
1.91999816894531,-0.735811233520508,2.2849223613739,1.71437525749207,-0.913122862707269,2.57292512231409,1.70812364027167,2266.767,3555.97,3328.391,0,-0.09870953,0.02418926,0.1169122,-0.912036240100861,-0.461626917123795,0.580702126026154,-0.987011339258123,-0.424683405378145,0.611007036871143,9
1.94000244140625,-0.754276037216187,2.27561545372009,1.72639167308807,-0.932943991899774,2.5643966441608,1.72039386345315,2088.449,2614.499,2719.915,1805.375,-0.09330545,0.02534173,0.1137523,-0.92324286699295,-0.465344786643982,0.600821435451508,-0.994638524886308,-0.427965170275055,0.615728628108227,9
1.96000671386719,-0.772863686084747,2.26627802848816,1.73820960521698,-0.952915303453826,2.55580354673295,1.73275705667061,2277.48,3530.121,3346.013,0,-0.09806345,0.02567169,0.1172886,-0.929381787776947,-0.466876357793808,0.590896546840668,-1.00202586176059,-0.431143734953757,0.620301741541062,9
1.97999572753906,-0.791669607162476,2.25687313079834,1.75042378902435,-0.973016570682103,2.54715453300902,1.74520069864106,2095.727,2628.277,2740.766,1761.919,-0.09274405,0.02671055,0.1141381,-0.940297961235046,-0.470237165689468,0.610707521438599,-1.00916501115878,-0.434215511495054,0.624721215103391,9
2,-0.810593068599701,2.24744391441345,1.76243710517883,-0.993273599084619,2.53843849960327,1.7577407641983,2273.958,3516.38,3360.581,0,-0.09733321,0.02690544,0.1176308,-0.946174383163452,-0.471474766731262,0.60066831111908,-1.01606400046349,-0.437183953857422,0.628992018127441,9
2.02000427246094,-0.829730212688446,2.23795318603516,1.77485048770905,-1.01366615605493,2.52966415204104,1.77036472839513,2090.792,2635.294,2734.688,1761.811,-0.09174483,0.0278185,0.1144959,-0.956851661205292,-0.47453784942627,0.620667636394501,-1.02271452148052,-0.440045487257004,0.633109007445237,9
2.04000854492188,-0.848978459835052,2.22844362258911,1.78705894947052,-1.03418924440916,2.52083364047092,1.78306949773667,2267.149,3528.699,3348.443,0,-0.09614171,0.0279004,0.1180986,-0.96241694688797,-0.475483030080795,0.610426247119904,-1.02911391720548,-0.442798968459032,0.637070538244476,9
2.05999755859375,-0.868434190750122,2.21887969970703,1.79966235160828,-1.05482201812353,2.5119559343546,1.79584216754118,2083.264,2631.233,2718.235,1782.304,-0.09028489,0.02873289,0.1149745,-0.972787141799927,-0.478193283081055,0.630170226097107,-1.03525504859546,-0.445441325732794,0.640872191117535,9
2.08000183105469,-0.88799375295639,2.20930457115173,1.81204736232758,-1.07559088172821,2.50301967256038,1.80869908347065,2267.695,3522.445,3345.546,0,-0.09451399,0.02871285,0.1185499,-0.977985382080078,-0.478760033845901,0.619248747825623,-1.04114485287423,-0.447975543971863,0.644518260536375,9
2.10000610351563,-0.907755792140961,2.19968318939209,1.82483267784119,-1.09647498538954,2.49403382618922,1.82162733848484,2077.202,2630.259,2689.023,1811.093,-0.08832214,0.02948155,0.115262,-0.98809802532196,-0.481073260307312,0.639268636703491,-1.04677621342161,-0.450398561093403,0.648004340974112,9
2.1199951171875,-0.927613615989685,2.19005823135376,1.83738946914673,-1.11745308225396,2.48500753716864,1.83461377976925,2250.411,3553.552,3320.941,0,-0.09251768,0.02944114,0.1189132,-0.992893099784851,-0.481249541044235,0.627842009067535,-1.0521429102862,-0.45270770082608,0.651326581984514,9
2.13999938964844,-0.947665572166443,2.18039655685425,1.85033440589905,-1.138551967509,2.47592927627801,1.8476749948214,2069.088,2614.691,2674.223,1838.388,-0.08621398,0.03021566,0.1155088,-1.00259590148926,-0.483088701963425,0.647244215011597,-1.05725102347782,-0.454905579228273,0.654488747383304,9
2.16000366210938,-0.967805206775665,2.17074012756348,1.86303901672363,-1.15975039167652,2.46680818657414,1.86079782920208,2256.534,3542.126,3315.25,0,-0.09039141,0.03013683,0.1189496,-1.00698614120483,-0.482825338840485,0.635229825973511,-1.0620943502576,-0.456989527434725,0.657486997379635,8
2.18000793457031,-0.988130927085876,2.16105604171753,1.8761283159256,-1.18104303873349,2.45764655539322,1.87397899203979,2066.567,2616.174,2660.222,1842.421,-0.08409198,0.03086816,0.1153312,-1.01628482341766,-0.484193205833435,0.654465556144714,-1.06667099276523,-0.458958728849171,0.660320157107579,8
2.19999694824219,-1.00853514671326,2.15138578414917,1.88896608352661,-1.20240821395574,2.44845371736898,1.88720505326679,2236.897,3555.816,3308.093,0,-0.08835357,0.03077116,0.1187207,-1.02021241188049,-0.483529299497604,0.64189076423645,-1.07097597819164,-0.460811043810786,0.662985148161421,7
2.22000122070313,-1.02911591529846,2.14169645309448,1.90217995643616,-1.22387315175433,2.43921795429519,1.90049287228091,2056.198,2605.503,2654.734,1855.456,-0.0820163,0.03149033,0.1149758,-1.02903997898102,-0.484459191560745,0.660694777965546,-1.07501419914593,-0.462548577472581,0.665484999299265,7
2.24000549316406,-1.04976642131805,2.13202834129333,1.91513478755951,-1.24541615591711,2.42994860144581,1.91382901809327,2232.586,3552.764,3301.414,0,-0.08624914,0.03136209,0.1182405,-1.03251850605011,-0.483422696590424,0.647743463516235,-1.07878069424208,-0.464169195088763,0.667816639186824,5
2.25999450683594,-1.07058334350586,2.12234950065613,1.92845988273621,-1.26701526177039,2.4206551096063,1.92719989352455,2053.458,2603.764,2643.402,1856.448,-0.07991134,0.03203405,0.1143703,-1.04085290431976,-0.48394376039505,0.666252732276917,-1.08227143928024,-0.465671165158559,0.669977576652695,5
2.27999877929688,-1.09145963191986,2.11269855499268,1.94151246547699,-1.28869796983554,2.41132564607061,1.9406225227075,2218.637,3551.342,3300.542,0,-0.08415589,0.03185941,0.1175675,-1.04381608963013,-0.482550829648972,0.652627289295197,-1.08549040888332,-0.467056197851165,0.67197027217779,2
2.30000305175781,-1.11249315738678,2.1030445098877,1.95493590831757,-1.31044231452835,2.40196966201596,1.95408330789913,2044.661,2597.417,2623.653,1875.853,-0.07765458,0.03249472,0.1135354,-1.0516791343689,-0.482706397771835,0.671173989772797,-1.08843358680109,-0.468322565086307,0.673792239511894,1
2.32000732421875,-1.1335756778717,2.09342432022095,1.9680780172348,-1.33224276726637,2.39258953623693,1.96757882664355,2202.335,3569.938,3280.49,0,-0.08190765,0.03230924,0.1167425,-1.05412149429321,-0.480996459722519,0.657104313373566,-1.09109983431736,-0.469469776906228,0.675442773735451,0
2.33999633789063,-1.15480375289917,2.08380889892578,1.98157918453217,-1.35407709248145,2.38319483607731,1.98109531406483,2036.622,2584.358,2610.337,1892.074,-0.07537598,0.0329337,0.1126055,-1.06140577793121,-0.480776458978653,0.675056576728821,-1.09348640563071,-0.470496651869278,0.67692017506657,0
2.36000061035156,-1.17606985569,2.07423448562622,1.99478495121002,-1.37597305876702,2.37377361348711,1.99464996024512,2200.414,3555.761,3278.468,0,-0.07962426,0.03270451,0.1156406,-1.06330418586731,-0.478730797767639,0.660291373729706,-1.09559602313537,-0.471404361345641,0.678226128796969,0
2.3800048828125,-1.19747066497803,2.0646710395813,2.00834941864014,-1.39790843013262,2.36433543599182,2.00822900004707,2029.375,2582.426,2592.031,1902.256,-0.07300524,0.03327973,0.1113042,-1.07004904747009,-0.478159993886948,0.6782266497612,-1.09742594550583,-0.472191725819537,0.679358937915576,0
2.40000915527344,-1.21889853477478,2.05515432357788,2.0216109752655,-1.41987760424917,2.35488271411715,2.02182896536211,2182.226,3575.599,3257.358,0,-0.07732382,0.03303112,0.1143275,-1.07138955593109,-0.475830942392349,0.66307932138443,-1.09897546783438,-0.472858441988871,0.680318166050934,0
2.41999816894531,-1.24044811725616,2.04565596580505,2.03521704673767,-1.44185817738692,2.34542508756209,2.03543598721428,2018.727,2571.168,2582.914,1913.091,-0.07076978,0.03358208,0.1099181,-1.077481508255,-0.474926859140396,0.680298686027527,-1.10024313330221,-0.473403883025206,0.681102911362803,0
2.44000244140625,-1.2620130777359,2.03620958328247,2.04850649833679,-1.46387808506052,2.33595053645515,2.04906735901791,2181.816,3554.497,3259.364,0,-0.07511872,0.03326783,0.112759,-1.07824862003326,-0.472313344478607,0.664470195770264,-1.10123038958312,-0.473828671822132,0.681714070030222,0
2.46000671386719,-1.28368818759918,2.02678680419922,2.06214070320129,-1.48591492338117,2.32646870056377,2.06270921169857,2007.766,2571.881,2567.509,1920.232,-0.06849065,0.03374756,0.1081901,-1.08376014232635,-0.471123337745667,0.681713998317719,-1.10193578218388,-0.474132182551855,0.682150741652607,0
2.47999572753906,-1.30536723136902,2.01742124557495,2.07545208930969,-1.50794623031618,2.31698924467309,2.07634764018804,2162.284,3573.85,3238.936,0,-0.07289232,0.03339554,0.1110647,-1.08395409584045,-0.468287616968155,0.665567219257355,-1.10235882472314,-0.474314205938057,0.682412625136718,0
2.5,-1.32714295387268,2.00808477401733,2.08909344673157,-1.52999999932945,2.30750012397766,2.08999997377396,1992.574,2560.289,2560.76,1932.352,-0.06627223,0.03383846,0.1064837,-1.08878421783447,-0.466826468706131,0.682066798210144,-1.10250000050292,-0.474374949932098,0.682500019669533,0
2.52000427246094,-1.34891152381897,1.99880945682526,2.1024022102356,-1.55205376834272,2.29801100328223,2.10365230735988,2171.588,3547.827,3235.516,0,-0.07065579,0.03338744,0.1091631,-1.08842074871063,-0.463759362697601,0.66543984413147,-1.10235882472314,-0.474314205938057,0.682412625136718,0
2.54000854492188,-1.3707640171051,1.98956847190857,2.11603975296021,-1.57410188948011,2.28852431271001,2.11730114464159,1980.74,2567.241,2544.142,1934.184,-0.06401387,0.03372549,0.1044762,-1.09263408184052,-0.4620580971241,0.681876599788666,-1.10193535162022,-0.474131997292339,0.682150475113189,0
2.55999755859375,-1.3925975561142,1.9803923368454,2.12933397293091,-1.59612191359838,2.27904971150017,2.13093258853001,2152.258,3557.284,3223.895,0,-0.06846029,0.03319503,0.107192,-1.09167444705963,-0.458799451589584,0.664715766906738,-1.10123038958312,-0.473828671822132,0.681714070030222,0
2.58000183105469,-1.41450273990631,1.97125458717346,2.14295172691345,-1.61814182127198,2.26957516039323,2.14456396033363,1960.293,2559.086,2527.391,1958.719,-0.06169,0.03347742,0.1024731,-1.09525740146637,-0.456888198852539,0.680889964103699,-1.10024313330221,-0.473403883025206,0.681102911362804,0
2.60000610351563,-1.43637728691101,1.96218585968018,2.15621662139893,-1.64013916343638,2.26011031859448,2.15818136301212,2147.741,3553.571,3210.776,0,-0.06610445,0.03287811,0.1051573,-1.09372961521149,-0.453440487384796,0.663244247436523,-1.09897439291323,-0.472857979480329,0.680317500623536,0
2.6199951171875,-1.45831120014191,1.95315945148468,2.16980338096619,-1.66209156852628,2.2506648119635,2.17177094750084,1948.71,2556.455,2502.264,1977.551,-0.05923243,0.03309845,0.1003534,-1.0967024564743,-0.451315820217133,0.679336786270142,-1.09742594550583,-0.472191725819537,0.679358937915576,0
2.63999938964844,-1.48020267486572,1.94420623779297,2.18302178382874,-1.68402693989188,2.24122663446822,2.18534998730279,2131.21,3557.055,3201.642,0,-0.06368044,0.03245346,0.1030502,-1.09457385540009,-0.447673231363297,0.660917162895203,-1.09559602313537,-0.471404361345641,0.67822612879697,0
2.66000366210938,-1.50214207172394,1.9352992773056,2.19656491279602,-1.70592290617745,2.23180541187802,2.19890463348308,1934.267,2546.492,2472.326,2011.839,-0.05660282,0.03264874,0.09809896,-1.09696662425995,-0.445340067148209,0.677157044410706,-1.09348640563071,-0.470496651869278,0.67692017506657,0
2.68000793457031,-1.52402722835541,1.92646884918213,2.20972943305969,-1.72777388024004,2.22240354818443,2.21243142733407,2114.085,3576.844,3176.686,0,-0.06110197,0.03201327,0.1008324,-1.09425914287567,-0.441512912511826,0.658227264881134,-1.09109790637238,-0.469468947365361,0.675441580245664,0
2.69999694824219,-1.54594707489014,1.91769003868103,2.2232084274292,-1.74955768413056,2.21303058593937,2.22591663964878,1922.523,2530.968,2454.235,2035.466,-0.05400252,0.03221898,0.09577426,-1.09599125385284,-0.438947349786758,0.673952698707581,-1.08843358680109,-0.468322565086308,0.673792239511893,0
2.72000122070313,-1.56780123710632,1.90899157524109,2.23629570007324,-1.77130202882336,2.20367460188472,2.23937742484041,2111.426,3563.209,3171.42,0,-0.0585448,0.0315672,0.09834103,-1.09270977973938,-0.434919804334641,0.65436863899231,-1.08549040888332,-0.467056197851165,0.671970272177789,0
2.74000549316406,-1.58967733383179,1.90034890174866,2.24969696998596,-1.79298473688851,2.19434513834902,2.25280005402337,1913.016,2527.875,2437.183,2044.783,-0.05141978,0.0317383,0.09310432,-1.09380781650543,-0.432136476039886,0.670064508914948,-1.08227143928024,-0.465671165158559,0.669977576652695,0
2.75999450683594,-1.61147654056549,1.89178967475891,2.26270079612732,-1.81458384274179,2.18505164650952,2.26617092945464,2095.345,3577.424,3151.243,0,-0.05606966,0.03107735,0.09564404,-1.0899578332901,-0.427952796220779,0.650197267532349,-1.07878069424208,-0.464169195088763,0.667816639186824,0
2.77999877929688,-1.63328337669373,1.88329017162323,2.27600383758545,-1.83612684690458,2.17578229366013,2.27950707526701,1896.838,2518.237,2434.033,2050.997,-0.04904317,0.03122592,0.09038626,-1.09033799171448,-0.424978762865067,0.665155053138733,-1.07501419914593,-0.462548577472581,0.665484999299265,0
2.80000305175781,-1.65500211715698,1.87487721443176,2.288902759552,-1.85759178470316,2.16654653058634,2.29279489428112,2103.584,3549.954,3149.152,0,-0.05372608,0.03048322,0.09272018,-1.08594393730164,-0.420653849840164,0.644941687583923,-1.07097597819164,-0.460811043810786,0.662985148161422,0
2.82000732421875,-1.67671525478363,1.86652648448944,2.30209875106812,-1.87897323600723,2.1573466894188,2.30603103117811,1882.993,2526.916,2423.497,2045.589,-0.04675872,0.03052786,0.08740886,-1.08566200733185,-0.417535573244095,0.659803628921509,-1.06666760390385,-0.458957270716794,0.660318059240952,0
2.83999633789063,-1.69832944869995,1.85826408863068,2.31488251686096,-1.90024960698239,2.14819206138118,2.31920211834584,2087.333,3551.499,3141.382,0,-0.05151352,0.02969636,0.08977827,-1.08070433139801,-0.413116246461868,0.639188051223755,-1.06209435025759,-0.456989527434725,0.657486997379635,0
2.86000061035156,-1.71992492675781,1.85006618499756,2.32796025276184,-1.9214480311499,2.13907097167731,2.33232495272651,1859.319,2522.864,2409.618,2065.372,-0.04442898,0.02966836,0.08450276,-1.07978212833405,-0.409895896911621,0.653889775276184,-1.05725102347782,-0.454905579228273,0.654488747383304,0
2.8800048828125,-1.74141108989716,1.84195852279663,2.3406183719635,-1.94254691640495,2.12999271078668,2.34538616777867,2083.947,3544.594,3129.274,0,-0.04913106,0.02875097,0.08688815,-1.07430005073547,-0.405384719371796,0.632904052734375,-1.0521429102862,-0.45270770082608,0.651326581984514,0
2.90000915527344,-1.76286673545837,1.83391737937927,2.35357141494751,-1.96354098577478,2.12095954924324,2.35838249680481,1844.141,2522.344,2383.34,2085.928,-0.04190005,0.02864472,0.08159959,-1.07277989387512,-0.402048617601395,0.64764791727066,-1.04677201701582,-0.450396755497224,0.648001743199023,0
2.91999816894531,-1.78420221805573,1.82596898078918,2.36609172821045,-1.98440911693069,2.11198057539494,2.37130086407726,2073.073,3545.447,3116.22,0,-0.04661757,0.02766036,0.08402978,-1.06676685810089,-0.397427141666412,0.626018822193146,-1.04114485287423,-0.447975543971863,0.644518260536375,0
2.94000244140625,-1.80549550056458,1.81808996200562,2.37890791893005,-2.00517798053537,2.10304431360073,2.38415778000673,1822.824,2514.229,2356.722,2120.879,-0.03916285,0.02751532,0.07867146,-1.06467032432556,-0.393953710794449,0.640807807445526,-1.03525504859546,-0.445441325732794,0.640872191117535,0
2.96000671386719,-1.82665860652924,1.81030607223511,2.39128279685974,-2.02582645724542,2.09415985092405,2.3969401707136,2064.227,3552.994,3094.836,0,-0.04386865,0.02650529,0.08111366,-1.05815672874451,-0.389201790094376,0.618738293647766,-1.02910913225408,-0.442796909628122,0.637067576131623,0
2.97999572753906,-1.84776794910431,1.80259490013123,2.40395069122314,-2.04633384260397,2.08533609591429,2.40963521915279,1811.683,2507.545,2329.232,2144.51,-0.03635481,0.02633629,0.07567015,-1.05546653270721,-0.385557591915131,0.633395791053772,-1.02271452148052,-0.440045487257004,0.633109007445237,0
3,-1.868736743927,1.79498147964478,2.41616201400757,-2.06672639957428,2.07656174835205,2.42225918334961,2053.376,3549.27,3086.465,0,-0.0411485,0.02530868,0.07806123,-1.04843962192535,-0.380661487579346,0.61057060956955,-1.01606400046349,-0.437183953857422,0.628992018127441,0
3.02000427246094,-1.88964033126831,1.78744459152222,2.42866969108582,-2.0869834279768,2.06784571494631,2.43479924890685,1796.51,2499.891,2304.144,2171.838,-0.033526,0.02512495,0.07246603,-1.04517865180969,-0.376854032278061,0.625381469726563,-1.00916501115878,-0.434215511495054,0.624721215103391,0
3.04000854492188,-1.91039383411407,1.78000783920288,2.44071364402771,-2.10709998486405,2.05919012250926,2.44725235590455,2036.205,3566.329,3063.857,0,-0.03841823,0.02411991,0.07487974,-1.03766214847565,-0.371833950281143,0.602199137210846,-1.00202031904361,-0.431141350077486,0.620298310335216,0
3.05999755859375,-1.93106937408447,1.7726503610611,2.45304369926453,-2.12705600675913,2.05060360379452,2.45960608409476,1782.669,2487.694,2291.587,2187.965,-0.03085219,0.02394823,0.06923758,-1.03377604484558,-0.367868155241013,0.61650812625885,-0.994638524886308,-0.427965170275055,0.615728628108227,0
3.08000183105469,-1.951584815979,1.76539587974548,2.46489977836609,-2.14687713595163,2.04207512564123,2.47187630727625,2036.526,3545.416,3062.46,0,-0.03579928,0.02292202,0.07149358,-1.02578723430634,-0.362731248140335,0.592798829078674,-0.987011339258122,-0.424683405378145,0.611007036871143,0
3.10000610351563,-1.97201085090637,1.75822353363037,2.47704362869263,-2.16654331551667,2.03361331798384,2.48405060925705,1769.695,2488.791,2277.403,2193.339,-0.02821672,0.02270387,0.06574758,-1.02131259441376,-0.358633667230606,0.607189893722534,-0.979147395688901,-0.421299770153459,0.606138881190213,0
3.1199951171875,-1.99226832389832,1.75115489959717,2.48870944976807,-2.18603502400946,2.02522658035469,2.49611690533293,2022.451,3555.018,3044.458,0,-0.03324637,0.02165451,0.06802136,-1.01285946369171,-0.353414088487625,0.583294987678528,-0.971056158224178,-0.417818336715394,0.601130019760458,0
3.13999938964844,-2.0124237537384,1.74417066574097,2.50065326690674,-2.20537738341953,2.01690410346351,2.50809074721212,1750.002,2482.927,2269.699,2203.755,-0.02570163,0.02140672,0.06231865,-1.0077645778656,-0.349209845066071,0.597186982631683,-0.962728579444533,-0.414235212212131,0.595974851798267,0
3.16000366210938,-2.03240132331848,1.73729240894318,2.51211214065552,-2.22455088103183,2.00865428308644,2.51996005559448,2030.438,3528.852,3040.64,0,-0.03074353,0.02027818,0.06445926,-0.998876988887787,-0.343915551900864,0.572949051856995,-0.954174163352092,-0.410554485950274,0.590679260733698,0
3.18000793457031,-2.05226540565491,1.73050010204315,2.52385091781616,-2.24355101420387,2.00047905658478,2.53172204312984,1733.274,2491.048,2252.357,2208.641,-0.02317856,0.01993867,0.05873628,-0.99321323633194,-0.339622437953949,0.586943566799164,-0.945396434568188,-0.406777674475913,0.585245428475253,0
3.19999694824219,-2.07194304466248,1.72381472587585,2.5350968837738,-2.2623590635174,1.99238647840124,2.54336512160655,2016.096,3531.692,3029.234,0,-0.02828437,0.01874006,0.06094566,-0.983886897563934,-0.334272265434265,0.562297403812408,-0.936405971974636,-0.402909329586355,0.579679903854719,0
3.22000122070313,-2.09149670600891,1.71721649169922,2.54662227630615,-2.28099938900442,1.98436606709459,2.55490437104486,1709.488,2486.703,2232.243,2235.228,-0.02058677,0.01834749,0.05525979,-0.977679967880249,-0.329904675483704,0.576271057128906,-0.927192788821982,-0.398945154262308,0.573976504598449,0
3.24000549316406,-2.11085605621338,1.7107264995575,2.55764651298523,-2.29945328359428,1.9764258717947,2.56632821087688,2013.032,3525.679,3015.682,0,-0.02567926,0.01709257,0.05749112,-0.967954576015472,-0.324488133192062,0.551212668418884,-0.91776751470058,-0.394889722119544,0.568141810929231,0
3.25999450683594,-2.13008046150208,1.70432615280151,2.5689525604248,-2.31770268688992,1.96857366338589,2.57762546085652,1693.822,2484.834,2205.032,2258.883,-0.01786182,0.01664886,0.0517823,-0.96123743057251,-0.320020854473114,0.56529700756073,-0.90814153446928,-0.390747931744771,0.562182870617026,0
3.27999877929688,-2.14910316467285,1.6980357170105,2.57974481582642,-2.33577134012187,1.96079922667992,2.58881081793642,2001.751,3525.494,3004.209,0,-0.02299533,0.01536266,0.05404825,-0.951121032238007,-0.314521670341492,0.539610922336578,-0.898304216251578,-0.386515208538549,0.556093102023818,0
3.30000305175781,-2.16798138618469,1.69183707237244,2.59082317352295,-2.35364119854729,1.95311032582551,2.59987311156116,1677.536,2477.548,2175.89,2291.086,-0.0150181,0.01489622,0.04825893,-0.94391793012619,-0.309939384460449,0.553917944431305,-0.888267004546666,-0.382196476749158,0.549879589839776,0
3.32000732421875,-2.18665027618408,1.68575000762939,2.60137939453125,-2.37130830610839,1.94550866300381,2.61080989274252,1990.565,3535.674,2982.616,0,-0.02022511,0.01361938,0.0505555,-0.933434009552002,-0.304347097873688,0.527805387973785,-0.878034183119985,-0.377793579561194,0.543544985919778,0
3.33999633789063,-2.20516467094421,1.6797571182251,2.61221671104431,-2.38875555478454,1.93800159931817,2.62161057080077,1662.302,2467.893,2156.22,2314.222,-0.01224149,0.01316279,0.04471305,-0.925725877285004,-0.299635797739029,0.541864097118378,-0.867618167158097,-0.373311858882592,0.53709697585572,0
3.36000061035156,-2.22346258163452,1.67387819290161,2.62252140045166,-2.406005803634,1.93057929915441,2.6322892965819,1988.146,3523.039,2975.923,0,-0.01752467,0.01188571,0.04690389,-0.914892017841339,-0.293954133987427,0.515229344367981,-0.857007552155826,-0.36874640767338,0.530528499715627,0
3.3800048828125,-2.24159646034241,1.66809558868408,2.63310885429382,-2.42304196557559,1.92324911460621,2.64283549236868,1649.082,2466.796,2138.949,2325.764,-0.009542638,0.01140881,0.0409692,-0.906688511371613,-0.289128452539444,0.529371380805969,-0.846214826007803,-0.364102599125748,0.523847288101157,0
3.40000915527344,-2.25950646400452,1.66242814064026,2.64315867424011,-2.43986044461333,1.91601259293018,2.6532469320683,1977.325,3528.266,2959.905,0,-0.01494353,0.01013352,0.04315273,-0.895510911941528,-0.283380806446075,0.502493560314178,-0.835244706287931,-0.359382463079953,0.517056261415284,0
3.41999816894531,-2.27724266052246,1.65685868263245,2.65348529815674,-2.45644516534361,1.90887665092339,2.66351366424015,1631.988,2462.944,2127.865,2336.549,-0.007043528,0.009647174,0.03723465,-0.886801958084106,-0.278471618890762,0.5163334608078,-0.824110582941664,-0.354591760855451,0.510163708672097,0
3.44000244140625,-2.29474854469299,1.65140509605408,2.66326594352722,-2.47281804716281,1.90183185728196,2.67364925803476,1977.054,3508.489,2958.798,0,-0.01251632,0.008340514,0.03933509,-0.875303864479065,-0.272685050964355,0.489029049873352,-0.812800388649434,-0.349725300221754,0.503162159625937,0
3.46000671386719,-2.31207132339478,1.64605057239532,2.67332720756531,-2.4889630419904,1.89488511704659,2.68364377892579,1615.297,2466.086,2112.412,2346.028,-0.004584898,0.007804417,0.03339975,-0.866124510765076,-0.267721027135849,0.503060400485992,-0.801327600455845,-0.344788879974649,0.496059957209413,0
3.47999572753906,-2.32915782928467,1.64081215858459,2.68283820152283,-2.50486489870395,1.88804299234919,2.69348778574196,1966.97,3512.565,2943.535,0,-0.01012481,0.006470489,0.03555931,-0.854321777820587,-0.261910408735275,0.475553452968597,-0.789706299681989,-0.339788558913217,0.488865818431069,0
3.5,-2.34605145454407,1.63567399978638,2.69262599945068,-2.5205447997813,1.88129636896134,2.70319439144611,1595.02,2462.688,2097.993,2363.406,-0.002169411,0.005909252,0.02969151,-0.844687044620514,-0.256901055574417,0.489394247531891,-0.777924000354857,-0.334718964672089,0.481572013878822,0
3.52000427246094,-2.36270356178284,1.63065314292908,2.70185661315918,-2.53598752699493,1.87465179486116,2.71275417523047,1972.429,3493.481,2936.433,0,-0.007733287,0.004526067,0.03179294,-0.832617044448853,-0.251066923141479,0.46153661608696,-0.765994882555673,-0.32958619854407,0.474187321698442,0
3.54000854492188,-2.37915468215942,1.62573289871216,2.71136784553528,-2.55119019794619,1.86811051026429,2.72216535275294,1579.019,2467.458,2077.102,2376.394,0.0002599126,0.003908161,0.02591942,-0.822559416294098,-0.246008515357971,0.475566685199738,-0.753924423002452,-0.324392617007921,0.466715132239272,0
3.55999755859375,-2.3953595161438,1.62092971801758,2.72031402587891,-2.56613872308604,1.86167857751006,2.73141920191151,1962.714,3494.117,2924.588,0,-0.005389173,0.002493096,0.02807221,-0.810231447219849,-0.240153670310974,0.447313964366913,-0.741727567798258,-0.319144650954242,0.459164697851087,0
3.58000183105469,-2.41135501861572,1.61622881889343,2.72954201698303,-2.58085326729328,1.85534732021446,2.74052820572674,1558.808,2464.12,2057.16,2400.661,0.002673108,0.001850679,0.02222247,-0.799774527549744,-0.235052719712257,0.461399495601654,-0.729391385793765,-0.313836736470737,0.451528013536464,0
3.60000610351563,-2.42709922790527,1.61164534091949,2.73819804191589,-2.59531978247425,1.84912278287974,2.74948366775945,1960.691,3488.052,2912.458,0,-0.003028014,0.0004183215,0.02438085,-0.787221789360046,-0.229175418615341,0.432799249887466,-0.716930938559024,-0.308475354130224,0.443814403124743,0
3.6199951171875,-2.44262719154358,1.60716485977173,2.74713754653931,-2.60952509409627,1.84301063413925,2.75827743234631,1544.744,2463.456,2035.899,2418.059,0.005049051,-0.0002466087,0.01852772,-0.776387214660645,-0.224024787545204,0.446980118751526,-0.704361775018033,-0.303067194200314,0.436033492140578,0
3.63999938964844,-2.45789980888367,1.60280215740204,2.75549626350403,-2.6234885835008,1.83700253474321,2.76692149746096,1952.535,3483.714,2903.588,1.464419,-0.0007360977,-0.001680455,0.02069827,-0.763628125190735,-0.218130469322205,0.417935818433762,-0.691670720740692,-0.297606588091786,0.428177124984152,0
3.66000366210938,-2.47294855117798,1.59854352474213,2.76414179801941,-2.63719712493647,1.83110413233575,2.77540773763803,1530.347,2460.39,2016.035,2437.559,0.007374415,-0.002354234,0.01482667,-0.752436339855194,-0.212939411401749,0.432275354862213,-0.678873453515702,-0.29210028151913,0.420255006953505,0
3.68000793457031,-2.48773837089539,1.59440279006958,2.77220773696899,-2.65064865588166,1.82531631436231,2.78373487607838,1932.404,3494.75,2875.275,20.06977,0.00160885,-0.003722034,0.01704766,-0.739497184753418,-0.207030937075615,0.403294771909714,-0.665976209205203,-0.286550957599616,0.412270998344358,0
3.69999694824219,-2.50229740142822,1.59036719799042,2.78054857254028,-2.66383127580226,1.81964420129024,2.79189554578451,1524.272,2454.876,2007.229,2438.48,0.009574677,-0.004353203,0.01123822,-0.727955222129822,-0.201790496706963,0.417043656110764,-0.65299527533123,-0.280965624398954,0.404235181908735,0
3.72000122070313,-2.51659464836121,1.58644962310791,2.78831934928894,-2.6767633032417,1.81407991116207,2.79990108680742,1911.037,3484.115,2842.241,68.35935,0.004021217,-0.00559903,0.01332636,-0.714873433113098,-0.195875227451324,0.388544917106628,-0.639917282339434,-0.275338529371411,0.396139281255611,0
3.74000549316406,-2.53065419197083,1.58263826370239,2.79634499549866,-2.6894328975087,1.80862853869646,2.80774416919516,1532.212,2460.706,2011.741,2400.489,0.01164926,-0.006176936,0.0075879,-0.70297759771347,-0.190575510263443,0.401280343532562,-0.626758665639204,-0.269676744214497,0.387993470686332,0
3.75999450683594,-2.54444932937622,1.57894480228424,2.80382037162781,-2.70182915057228,1.80329477731443,2.81541804035694,1891.607,3464.587,2802.676,132.0084,0.006338769,-0.007297594,0.009414936,-0.689757406711578,-0.184665620326996,0.373771816492081,-0.613536214864365,-0.263987493038594,0.379808143784027,0
3.77999877929688,-2.55799913406372,1.57535815238953,2.811518907547,-2.7139695770734,1.79807109095524,2.82293354268985,1538.721,2479.242,2033.221,2333.317,0.01339034,-0.007826498,0.003848109,-0.677492380142212,-0.17933651804924,0.384927451610565,-0.60023651686137,-0.258265004538452,0.371574997167698,0
3.80000305175781,-2.57128214836121,1.57188832759857,2.81869745254517,-2.72584333814708,1.79296214327972,2.83028396642013,1867.602,3431.489,2760.042,218.8356,0.008439347,-0.008825716,0.005346465,-0.664133489131927,-0.173477798700333,0.358925551176071,-0.586876524285838,-0.252516572968186,0.363304525338741,0
3.82000732421875,-2.58431220054626,1.56852507591248,2.82606148719788,-2.73744929742843,1.78796842323393,2.8374686080838,1550.697,2511.114,2064.355,2237.263,0.01474947,-0.009327988,7.77204E-05,-0.651503920555115,-0.168169230222702,0.3681960105896,-0.573463232144022,-0.246745208083563,0.355001058539243,0
3.83999633789063,-2.59707236289978,1.56527662277222,2.83294129371643,-2.74877791451009,1.78309403578861,2.84448156171422,1837.95,3388.251,2715.952,324.2584,0.01025441,-0.01021961,0.001253713,-0.638012588024139,-0.162416592240334,0.343993544578552,-0.560014026276881,-0.240958390526246,0.346675359432959,0
3.86000061035156,-2.60957312583923,1.56213283538818,2.83996510505676,-2.75984563331209,1.77833190558438,2.85133300688122,1560.893,2549.605,2101.935,2129.985,0.01582247,-0.01070538,-0.003607518,-0.625054538249969,-0.157182529568672,0.351196110248566,-0.546515580872635,-0.235150386571708,0.338319178707605,0
3.8800048828125,-2.62180185317993,1.55910181999207,2.84654664993286,-2.77064299647982,1.77368610185671,2.85801708903178,1811.059,3337.862,2667.456,439.8542,0.01191201,-0.01150912,-0.002749447,-0.611449837684631,-0.151571333408356,0.329078197479248,-0.532985466132484,-0.229328756186666,0.329943393154704,0
3.89999389648438,-2.63376665115356,1.5561728477478,2.85322999954224,-2.78116151864576,1.76916027562219,2.86452855531919,1575.21,2594.363,2137.094,2015.041,0.01673574,-0.01199221,-0.007147925,-0.598215997219086,-0.146432638168335,0.334170162677765,-0.519441457145543,-0.223501147495394,0.321559006401168,0
3.91999816894531,-2.64545679092407,1.55335354804993,2.85951209068298,-2.79141684911929,1.7647476934202,2.87087709341145,1782.346,3283.791,2618.273,562.3004,0.01345656,-0.01271873,-0.006597183,-0.584523260593414,-0.140979096293449,0.314110428094864,-0.505870408491346,-0.2176619043907,0.313157880805522,0
3.94000244140625,-2.65687847137451,1.55063462257385,2.86585545539856,-2.8014005971492,1.76045196555656,2.87705750903383,1589.715,2639.883,2168.895,1903.436,0.0175912,-0.01319756,-0.01053866,-0.571073055267334,-0.135942995548248,0.3171726167202,-0.492290296490434,-0.211818761581115,0.30475114456651,0
