t,x_s1,x_s2,x_s3,x_s_d1,x_s_d2,x_s_d3,propellers_rpms1,propellers_rpms2,propellers_rpms3,propellers_rpms4,rollRad,pitchRad,yawRad,v_s1,v_s2,v_s3,v_s_d1,v_s_d2,v_s_d3,insideCount
0,-0.0599999986588955,2.94000005722046,1.17999994754791,-0.0599999986588955,2.94000005722046,1.17999994754791,0,0,0,0,0,0,0,0,0,0,-1.06581410364015E-15,4.44089209850063E-16,4.44089209850063E-16,0
0.0200042724609375,-0.0599999986588955,2.94000005722046,1.1771354675293,-0.0600018701838461,2.93999925195556,1.18000110611101,0,0,0,0,0.0163538,-0.002474609,-2.024222E-05,3.71994488546079E-08,3.50004931704007E-08,-0.143225952982903,-0.000280105751305916,-0.000120521679537258,0.00017339880334547,5
0.040008544921875,-0.0599999986588955,2.94000005722046,1.17048275470734,-0.060014880898484,2.93999365380853,1.18000916036316,0,0,0,0,0.03270752,-0.004950816,-5.430172E-05,3.62924410524101E-08,3.44428769949445E-08,-0.332637369632721,-0.00111143977225461,-0.000478221483967637,0.00068803416424398,6
0.05999755859375,-0.0600004345178604,2.94013261795044,1.16416549682617,-0.0600498857373401,2.93997859220429,1.18003083002592,3185.406,2835.785,1501.1,2767.662,0.03127991,-0.00494336,-0.01646952,-2.17784399865195E-05,0.0066222520545125,-0.315860867500305,-0.00247936261166862,-0.00106680046642749,0.00153484356504269,6
0.0800018310546875,-0.0599162206053734,2.94038772583008,1.15857696533203,-0.0601175574246769,2.93994947496775,1.18007272202403,3065.603,3067.191,2155.165,2024.121,0.01897616,-0.004310593,-0.04351445,0.00421066209673882,0.0127498498186469,-0.279423803091049,-0.00437268608126799,-0.00188144466206175,0.00270690098422899,6
0.100006103515625,-0.0596375502645969,2.94068765640259,1.15374839305878,-0.0602282404704493,2.93990185114529,1.18014124010193,2640.55,3831.823,2620.117,1134.666,-0.00585203,-0.002888465,-0.070145,0.0139334313571453,0.0149977942928672,-0.241429135203362,-0.00677739276378709,-0.00291612276782231,0.00419552897277328,6
0.120010375976563,-0.0590848885476589,2.94089889526367,1.14957022666931,-0.0603920338334453,2.93983137543704,1.18024263599618,2092.257,4101.995,3169.267,755.9441,-0.04011946,-0.0004511395,-0.08993602,0.0276331827044487,0.010561915114522,-0.208908408880234,-0.00968041450003567,-0.00416521191989172,0.00599263771761404,5
0.139999389648438,-0.0582314617931843,2.94085621833801,1.14596676826477,-0.0606185767455666,2.93973390035084,1.18038287685052,1510.274,4074.836,3735.818,701.9628,-0.07649504,0.002388302,-0.09949889,0.0426713563501835,-0.00212969444692135,-0.180173456668854,-0.0130660253322238,-0.00562194567796536,0.00808849210174802,4
0.160003662109375,-0.0570994354784489,2.94039487838745,1.14297795295715,-0.0609177895434042,2.93960515744296,1.18056810382587,1134.647,3846.994,4070.114,880.1874,-0.1062798,0.00433567,-0.09869941,0.0566012784838676,-0.023067956790328,-0.149439349770546,-0.0169265510445065,-0.00728302204135792,0.0104783414199936,4
0.180007934570313,-0.0557377189397812,2.93938803672791,1.14071118831635,-0.0612988491946875,2.93944119812059,1.1808039979024,1101.343,3565.175,4009.854,1148.824,-0.1236287,0.004492098,-0.09000047,0.0680859312415123,-0.0503411144018173,-0.113338589668274,-0.0212468478482708,-0.00914192506089775,0.0131528109458008,3
0.199996948242188,-0.0541964657604694,2.9377772808075,1.13924860954285,-0.0617704296168641,2.93923829023936,1.18109592864822,1373.443,3339.828,3594.73,1386.127,-0.127877,0.00302261,-0.07724925,0.0770627707242966,-0.0805368423461914,-0.0731290802359581,-0.0260104776919234,-0.0111915819022102,0.0161017247421801,3
0.220001220703125,-0.0525142289698124,2.93557620048523,1.13858389854431,-0.0623420644491781,2.93899233174064,1.18144979784016,1790.29,3212.833,3017.192,1527.411,-0.1229747,0.0008612399,-0.06425888,0.084111824631691,-0.110051058232784,-0.033236488699913,-0.03121219533433,-0.0134297356845702,0.019321835755004,3
0.240005493164063,-0.0507195740938187,2.93284702301025,1.13860702514648,-0.0630219993990999,2.93869977472688,1.18187070996396,2159.743,3168.378,2517.042,1558.441,-0.1149628,-0.0009880328,-0.05362222,0.0897327065467834,-0.136454343795776,0.00115860626101494,-0.0368361158647881,-0.0158495515746756,0.0228033104678445,3
0.260009765625,-0.0488372482359409,2.92966485023499,1.13913786411285,-0.0638185570309634,2.93835703823113,1.18236381708338,2352.013,3159.412,2273.765,1495.506,-0.1090522,-0.001904693,-0.04623621,0.0941163077950478,-0.159107685089111,0.0265439357608557,-0.0428699302682246,-0.0184457333472145,0.0265385290140116,3
0.279998779296875,-0.0468917116522789,2.92608761787415,1.13999617099762,-0.0647390625194898,2.93796097043536,1.18293365383054,2352.616,3152.114,2324.222,1363.801,-0.1078197,-0.001744903,-0.04152241,0.0972766205668449,-0.178861856460571,0.0429139509797096,-0.0492963837173861,-0.0212108567320638,0.030516809833474,3
0.300003051757813,-0.0449087023735046,2.92214369773865,1.1410619020462,-0.0657927507678135,2.93750759781875,1.18358593705038,2228.539,3144.003,2573.283,1194.658,-0.1110906,-0.0007360977,-0.03798413,0.0991505533456802,-0.197190672159195,0.0532859116792679,-0.0561132031658829,-0.0241439437008635,0.0347367458022363,3
0.32000732421875,-0.0429168939590454,2.91783547401428,1.142294049263,-0.0669865614821475,2.93699393441958,1.18432496275165,2074.583,3132.379,2872.953,1032.57,-0.1169293,0.0006862616,-0.03398087,0.0995904207229614,-0.21540854871273,0.0616071633994579,-0.0633036493784043,-0.0272377918282996,0.0391879745362408,3
0.339996337890625,-0.0409489125013351,2.91315102577209,1.1437075138092,-0.068326768706371,2.93641728069206,1.18515461486636,1955.467,3107.796,3109.127,921.0769,-0.1228452,0.002069636,-0.02837385,0.0983994007110596,-0.234225735068321,0.070673480629921,-0.0708499516420146,-0.0304847548730522,0.0438594951176439,3
0.360000610351563,-0.0390401557087898,2.90807723999023,1.14534330368042,-0.0698225328270578,2.93577369517774,1.1860805641102,1903.863,3065.42,3222.775,881.333,-0.1267068,0.003093272,-0.020868,0.095437578856945,-0.253692746162415,0.0817914456129074,-0.0787518717320621,-0.0338847303337087,0.0487511600740379,3
0.3800048828125,-0.0372257195413113,2.90261030197144,1.14724361896515,-0.0714797725314022,2.93506063123087,1.18710647443246,1924.528,3020.975,3206.629,896.1696,-0.1274131,0.003642173,-0.01188622,0.0907221138477325,-0.273345023393631,0.0950184091925621,-0.0869921272359981,-0.0374302820709642,0.0538522707687797,3
0.400009155273438,-0.0355372875928879,2.89676117897034,1.14943170547485,-0.0733051402689975,2.93427522648826,1.18823646401636,1991.477,2989.806,3098.674,938.3961,-0.1250413,0.003790547,-0.00220776,0.0844215303659439,-0.292451411485672,0.109406314790249,-0.0955591682828665,-0.0411164404980124,0.0591556772815509,3
0.419998168945313,-0.034001998603344,2.89055466651917,1.15190613269806,-0.0753034649285836,2.93341540321397,1.18947352217404,2072.185,2974.161,2953.307,987.2515,-0.120508,0.003707658,0.007336726,0.0767646357417107,-0.310325592756271,0.123719803988934,-0.104434660908044,-0.0449353170220673,0.0646500300148815,3
0.44000244140625,-0.0326425582170486,2.88402462005615,1.15464150905609,-0.077483988232608,2.93247718495301,1.19082336997196,2135.583,2972.881,2826.178,1022.98,-0.1150816,0.003565184,0.01615218,0.06797194480896,-0.326506614685059,0.136771738529205,-0.113620829717891,-0.048887868829098,0.0703367061060819,4
0.460006713867188,-0.0314784571528435,2.8772075176239,1.15760171413422,-0.0798512213598696,2.93145863067119,1.19228880004469,2168.962,2977.208,2748.252,1039.728,-0.1098634,0.003475352,0.02394107,0.0582051165401936,-0.340853691101074,0.148011460900307,-0.123099793815011,-0.0529664022684887,0.0762046364278779,4
0.480010986328125,-0.0305268317461014,2.87013840675354,1.16074800491333,-0.0824109101018722,2.93035726811493,1.19387336931088,2168.592,2985.123,2732.592,1031.328,-0.1055475,0.003481769,0.03074964,0.0475816465914249,-0.353460431098938,0.157311946153641,-0.132860437136906,-0.0571661344090936,0.082246939608052,4
0.5,-0.0298037137836218,2.8628466129303,1.16405248641968,-0.085166398670376,2.92917165836334,1.1955791479969,2146.519,2988.878,2762.734,1010.245,-0.1022744,0.003568948,0.0367963,0.0361557267606258,-0.364584982395172,0.165222704410553,-0.142884000065179,-0.0614789935111996,0.0884520025491718,4
0.520004272460938,-0.0293244365602732,2.85535669326782,1.16749906539917,-0.088127196023106,2.92789770997757,1.19741202260058,2115.841,2992.636,2818.178,977.4754,-0.09984457,0.003687212,0.0424155,0.0239637289196253,-0.3744957447052,0.172326371073723,-0.153174893518032,-0.065906877469682,0.0948225558197254,4
0.540008544921875,-0.0291042495518923,2.8476881980896,1.17108619213104,-0.0912963635428427,2.92653410573011,1.19937388826368,2089.834,2991.271,2869.976,952.1167,-0.09781738,0.003777768,0.04785562,0.0110093057155609,-0.383429437875748,0.179354906082153,-0.163714777034477,-0.0704418948965508,0.101347245800684,4
0.55999755859375,-0.0291577726602554,2.83985805511475,1.17481660842896,-0.094676112580471,2.92507989413848,1.20146611391775,2071.348,2990.442,2908.866,932.2226,-0.09579444,0.003795154,0.05330012,-0.00267583504319191,-0.391506731510162,0.186522141098976,-0.17448465888317,-0.0750758741803766,0.108014315705644,5
0.580001831054688,-0.0294992178678513,2.83188247680664,1.17869865894318,-0.0982762614093182,2.92353085067394,1.20369477754168,2062.479,2984.351,2922.688,933.3072,-0.0933864,0.003718004,0.05874104,-0.0170722827315331,-0.398783802986145,0.194102853536606,-0.185490414529404,-0.0798113433697334,0.11482740272751,5
0.600006103515625,-0.0301415398716927,2.82377767562866,1.18274009227753,-0.102098762959148,2.92188613504538,1.20606108809202,2067.714,2984.797,2911.555,937.9503,-0.09049155,0.003538631,0.06411032,-0.0321164317429066,-0.405236750841141,0.202069357037544,-0.196713446836865,-0.0846403006364086,0.121774994352997,5
0.620010375976563,-0.031095877289772,2.81556153297424,1.18694269657135,-0.106147859919355,2.92014392174208,1.20856767199563,2074.946,2987.365,2887.039,950.9464,-0.08718017,0.003271681,0.06929349,-0.0477165207266808,-0.410808056592941,0.210130676627159,-0.20814339888717,-0.0895582896877615,0.128850679156259,5
0.639999389648438,-0.0323716439306736,2.80725240707397,1.19130575656891,-0.110424235525481,2.91830391678686,1.21121495220784,2082.481,2991.06,2854.959,970.1055,-0.08360195,0.00294076,0.07414681,-0.0637887194752693,-0.415460377931595,0.218154788017273,-0.219761081350814,-0.0945570538913933,0.136042578028218,5
0.660003662109375,-0.0339761599898338,2.79886889457703,1.19582259654999,-0.114938248900541,2.91636166293851,1.21400934151928,2086.948,2999.234,2828.556,982.1326,-0.08001201,0.002567563,0.07860488,-0.0802257210016251,-0.419170081615448,0.225840017199516,-0.231574097577923,-0.0996398647564507,0.143355397804799,5
0.680007934570313,-0.0359153933823109,2.79042935371399,1.20048832893372,-0.119690355154666,2.91431696437584,1.21695112166479,2088.566,3006.449,2804.913,996.3063,-0.07659092,0.002170243,0.08260209,-0.0969619154930115,-0.421975672245026,0.233284249901772,-0.243563621239988,-0.104798621839723,0.150777484091833,6
0.699996948242188,-0.0381932370364666,2.78195095062256,1.2052915096283,-0.124680083855354,2.91217002351282,1.22004000142426,2084.089,3017.129,2798.565,995.943,-0.0735613,0.001757801,0.08620282,-0.113892078399658,-0.423921823501587,0.240160822868347,-0.255710395848158,-0.11002503961202,0.158296916205407,6
0.720001220703125,-0.0408131293952465,2.77344870567322,1.21022713184357,-0.129918284978346,2.90991617190799,1.22328269744952,2073.091,3019.208,2797.87,1006.715,-0.07086885,0.001346516,0.08940201,-0.130994647741318,-0.425111651420593,0.246781304478645,-0.268023157655716,-0.11532287703907,0.16591910230247,6
0.740005493164063,-0.0437773279845715,2.7649359703064,1.21528995037079,-0.13540428105644,2.90755570105657,1.22667879035609,2067.624,3027.787,2803.459,999.4951,-0.06857853,0.000928209,0.09229995,-0.148210316896439,-0.425631612539291,0.253141760826111,-0.280482990349159,-0.120683994959631,0.173632332283853,6
0.760009765625,-0.0470875464379787,2.75642442703247,1.22047662734985,-0.141140917956636,2.9050873864615,1.23023004187122,2057.271,3030.316,2811.906,1000.861,-0.06659926,0.0005070809,0.0949451,-0.165510505437851,-0.425578534603119,0.259333938360214,-0.293080296154222,-0.126104263719567,0.181430664670081,6
0.779998779296875,-0.0507449768483639,2.74792385101318,1.22578585147858,-0.147126184485884,2.90251209348295,1.23393520697061,2050.06,3032.664,2819.066,1000.851,-0.06484158,8.252537E-05,0.0973779,-0.182871550321579,-0.425034433603287,0.265460759401321,-0.305795832832518,-0.131575403921268,0.189302187598958,6
0.800003051757813,-0.0547502376139164,2.7394425868988,1.23121631145477,-0.153371683173492,2.89982482987671,1.2378014681726,2044.338,3034.551,2824.748,1001.203,-0.0632293,-0.0003451457,0.09962762,-0.200262740254402,-0.424062490463257,0.271524995565414,-0.318639638509124,-0.13710173468952,0.197253115148089,6
0.82000732421875,-0.0591037683188915,2.73098802566528,1.23677098751068,-0.159875221826383,2.89702653888221,1.24182746840525,2043.917,3037.163,2820.176,1006.002,-0.06170544,-0.0007765777,0.1016768,-0.217676311731339,-0.422722458839417,0.277733623981476,-0.331592781842754,-0.14267511039705,0.205271727915392,6
0.839996337890625,-0.0638045370578766,2.72256708145142,1.2424453496933,-0.166633637018892,2.89411858163313,1.24601124935738,2042.829,3042.504,2820.364,1003.035,-0.06034616,-0.001213869,0.1035681,-0.235039249062538,-0.421045452356339,0.283720195293427,-0.344636106234817,-0.148287288494656,0.213346167053785,6
0.860000610351563,-0.0688517838716507,2.7141854763031,1.24824094772339,-0.173659158941841,2.89109569582005,1.2503603820997,2038.602,3041.087,2813.527,1017.833,-0.05904175,-0.001638377,0.1052291,-0.252362489700317,-0.419084399938583,0.289777904748917,-0.357780475378537,-0.153942943326036,0.221483157706883,6
0.8800048828125,-0.074243426322937,2.7058482170105,1.25415480136871,-0.180948461186242,2.88795931270381,1.25487280742661,2042.873,3049.005,2808.542,1012.376,-0.05794186,-0.002061287,0.1067034,-0.26958304643631,-0.416867285966873,0.295692503452301,-0.371007022483504,-0.159633957038354,0.229671020432672,6
0.900009155273438,-0.0799770802259445,2.69755935668945,1.26018476486206,-0.188503099076414,2.88470876307182,1.25954948815793,2039.426,3050.7,2804.54,1020.254,-0.05703479,-0.002467685,0.1079697,-0.286681741476059,-0.414444029331207,0.301496088504791,-0.384306908919572,-0.165356526615982,0.237904283698049,7
0.919998168945313,-0.0860495269298553,2.68932223320007,1.26632714271545,-0.196318384305134,2.8813460641717,1.26438752200817,2038.106,3054.312,2804.798,1020,-0.0563658,-0.002855441,0.1090506,-0.303624272346497,-0.411857694387436,0.307121515274048,-0.397661187980262,-0.171102499820431,0.246171218589148,7
0.94000244140625,-0.0924574583768845,2.68113899230957,1.27257943153381,-0.204407453948074,2.87786556348678,1.26939504145298,2034.564,3055.509,2807.883,1022.019,-0.05590987,-0.003218164,0.1099562,-0.320395916700363,-0.409157544374466,0.312616586685181,-0.411081631631503,-0.176876941799768,0.254479112513653,7
0.960006713867188,-0.0991973578929901,2.67301106452942,1.27894222736359,-0.212765478812529,2.87426933888379,1.27456905699201,2035.837,3058.924,2807.477,1021.004,-0.05567445,-0.003557451,0.1107007,-0.336995035409927,-0.406395643949509,0.3181411921978,-0.424549556012544,-0.182671813410681,0.262816399271726,7
0.979995727539063,-0.106264814734459,2.66493892669678,1.28541028499603,-0.22138664033507,2.87055989392801,1.27990596665734,2033.961,3062.117,2815.921,1014.159,-0.0557064,-0.003876497,0.1113455,-0.353372693061829,-0.403612166643143,0.323405474424362,-0.438046240701377,-0.188479059778567,0.271171490030365,7
1,-0.113656103610992,2.65692162513733,1.29198527336121,-0.230284798736574,2.86673126495361,1.28541435058594,2029.29,3058.99,2819.815,1022.158,-0.05585341,-0.00415826,0.1118535,-0.369565457105637,-0.400860726833344,0.328747123479843,-0.451584000205995,-0.194303979492187,0.279552008056641,7
1.02000427246094,-0.121366947889328,2.64895820617676,1.29866600036621,-0.239454009753966,2.86278600961093,1.2910905289958,2034.453,3064.058,2824.573,1011.026,-0.05620069,-0.004420847,0.1122845,-0.385541915893555,-0.398170173168182,0.334037125110626,-0.465144357597929,-0.200138622445408,0.287946515251652,7
1.04000854492188,-0.129393070936203,2.64104652404785,1.30545210838318,-0.248894644448595,2.85872396824263,1.29693473159157,2032.588,3063.437,2829.209,1013.13,-0.05668379,-0.004654673,0.112633,-0.401304960250854,-0.395579278469086,0.339307457208633,-0.47871923339115,-0.205979512261105,0.296350010028666,7
1.05999755859375,-0.137730032205582,2.63318419456482,1.31234312057495,-0.258599401509697,2.85454828239877,1.30294243851408,2033.884,3064.207,2834.441,1010.383,-0.05729152,-0.004860802,0.1129114,-0.416848838329315,-0.393114179372787,0.344549119472504,-0.492290296490434,-0.211818761581115,0.30475114456651,7
1.08000183105469,-0.146373406052589,2.62536835670471,1.31933808326721,-0.268583149539609,2.85025255453512,1.30912285413647,2034.187,3063.926,2841.099,1008.538,-0.05799193,-0.00503657,0.1131272,-0.43216934800148,-0.39079612493515,0.349750339984894,-0.50587040849135,-0.217661904390701,0.313157880805523,7
1.10000610351563,-0.155319213867188,2.61759543418884,1.32644081115723,-0.278838480013141,2.84583997233313,1.31547139222872,2039.537,3065.715,2839.921,1008.039,-0.05877117,-0.005184109,0.1132656,-0.447289705276489,-0.388651520013809,0.355138212442398,-0.519441457145546,-0.223501147495394,0.321559006401169,7
1.12001037597656,-0.164562210440636,2.60986161231995,1.33364605903625,-0.289365134970699,2.84131064678559,1.32198789310157,2042.134,3069.026,2849.885,996.9426,-0.05972884,-0.005311941,0.1133922,-0.462150812149048,-0.386685758829117,0.360260337591171,-0.532995796775449,-0.22933320117373,0.329949788314817,8
1.13999938964844,-0.174098759889603,2.60216283798218,1.34095931053162,-0.300154365346813,2.83666834237095,1.3286669406667,2041.239,3065.044,2849.012,1009.152,-0.06069184,-0.005399293,0.1134251,-0.476827561855316,-0.384935885667801,0.365660697221756,-0.546515580872639,-0.235150386571708,0.338319178707607,8
1.16000366210938,-0.183923333883286,2.59449505805969,1.34837257862091,-0.311222084148811,2.83190621216671,1.33551838583369,2046.574,3070.13,2865.509,987.444,-0.06183807,-0.005469067,0.1134836,-0.491227954626083,-0.38338565826416,0.37066251039505,-0.560014026276883,-0.240958390526247,0.34667535943296,8
1.18000793457031,-0.194033175706863,2.58685326576233,1.3558988571167,-0.322559451663168,2.82702805965467,1.34253675639879,2047.817,3065.045,2856.302,1008.282,-0.0629028,-0.005494101,0.1134228,-0.505493640899658,-0.382088959217072,0.376313835382462,-0.573473482003304,-0.246749618311663,0.355007403690405,8
1.19999694824219,-0.204421877861023,2.57923316955566,1.36352252960205,-0.334156660511822,2.8220381046756,1.34971598112778,2057.308,3076.064,2880.592,968.241,-0.06428231,-0.005521265,0.1134721,-0.519433557987213,-0.380999237298965,0.381183356046677,-0.58687652428584,-0.252516572968185,0.36330452533874,8
1.22000122070313,-0.21508763730526,2.57162928581238,1.3712614774704,-0.346030421585499,2.81692915700008,1.35706640485806,2047.884,3060.987,2869.834,1012.596,-0.06541096,-0.005482384,0.1133607,-0.533287703990936,-0.380196213722229,0.386944830417633,-0.600236516861372,-0.258265004538453,0.371574997167698,8
1.24000549316406,-0.226023823022842,2.56403732299805,1.37909853458405,-0.358170848086624,2.8117054706409,1.36458190719098,2068.086,3078.912,2895.771,953.5368,-0.06689594,-0.005460545,0.1134039,-0.54680997133255,-0.379600912332535,0.391854673624039,-0.613536214864368,-0.263987493038594,0.379808143784027,8
1.260009765625,-0.237229511141777,2.55645108222961,1.38705539703369,-0.37057666480527,2.80636759428526,1.37226169871082,2056.812,3062.061,2879.14,1008.148,-0.06808318,-0.005372661,0.1132751,-0.560282170772552,-0.379312545061111,0.397842586040497,-0.626768731761373,-0.26968107538565,0.387999702095469,8
1.27999877929688,-0.248697176575661,2.54886674880981,1.39510726928711,-0.383236695417198,2.80092033679326,1.3800988607405,2075.89,3081.171,2915.447,938.2864,-0.06968321,-0.005309278,0.1133607,-0.573384523391724,-0.37921816110611,0.4025938808918,-0.639917282339435,-0.275338529371412,0.396139281255613,8
1.30000305175781,-0.260427445173264,2.54127764701843,1.40328478813171,-0.396168722856641,2.79535604666509,1.38810440176341,2060.459,3057.533,2890.795,1013.369,-0.07079215,-0.005163337,0.1132083,-0.586515605449677,-0.379450142383575,0.40887725353241,-0.652995275331231,-0.280965624398954,0.404235181908735,8
1.32000732421875,-0.272412180900574,2.53368067741394,1.41155648231506,-0.409361504843077,2.78967956113998,1.39627136227237,2090.647,3086.491,2932.967,915.9822,-0.07244597,-0.005067995,0.1133496,-0.599234879016876,-0.379843294620514,0.413586109876633,-0.6659860834168,-0.286555206197011,0.41227711095171,8
1.33999633789063,-0.28465336561203,2.52606892585754,1.41996204853058,-0.422802873722428,2.78389611561957,1.40459220990988,2068.882,3056.461,2895.41,1017.836,-0.07348035,-0.004877846,0.1131846,-0.612059772014618,-0.380583137273788,0.420279115438461,-0.678873453515705,-0.29210028151913,0.420255006953505,8
1.36000061035156,-0.297140806913376,2.51844048500061,1.42845332622528,-0.436511415158101,2.77799771321212,1.41307845008695,2100.152,3090.838,2959.284,890.649,-0.07522844,-0.004758536,0.1134307,-0.624373316764832,-0.381425470113754,0.424563884735107,-0.691670720740693,-0.297606588091785,0.42817712498415,9
1.3800048828125,-0.309880286455154,2.51078724861145,1.43709421157837,-0.450474904562636,2.77198961381608,1.4217225152016,2073.467,3049.157,2893.333,1040.335,-0.07600874,-0.004510862,0.1131906,-0.636974632740021,-0.382662802934647,0.432045042514801,-0.704361775018035,-0.303067194200314,0.436033492140578,9
1.40000915527344,-0.322857648134232,2.50310921669006,1.44580817222595,-0.464691155755482,2.76587275808388,1.43052305190393,2121.737,3105.165,2987.079,841.2394,-0.0779731,-0.004394748,0.1136015,-0.64886873960495,-0.383901536464691,0.435700058937073,-0.716940488958393,-0.308479463400265,0.443820315276901,9
1.41999816894531,-0.3360835313797,2.49539685249329,1.45468974113464,-0.47914673136562,2.75965292774086,1.43947174182117,2069.137,3036.155,2888.01,1081.029,-0.07843222,-0.004082626,0.1132617,-0.661291718482971,-0.385615736246109,0.444078177213669,-0.729391385793766,-0.313836736470737,0.451528013536465,9
1.44000244140625,-0.349538385868073,2.48765325546265,1.46362411975861,-0.493861275572861,2.75332167044526,1.4485807456364,2141.894,3119.794,3027.437,779.6862,-0.08063146,-0.003976632,0.1138881,-0.672741770744324,-0.387185484170914,0.446720093488693,-0.741727567798258,-0.319144650954242,0.459164697851088,9
1.46000671386719,-0.363240331411362,2.47986602783203,1.47275686264038,-0.508821304757097,2.74688478782212,1.45784171634646,2064.473,3018.562,2868.196,1142.339,-0.08055156,-0.003589941,0.113364,-0.685101091861725,-0.389363974332809,0.456638723611832,-0.753933682518823,-0.324396601119133,0.466720864320996,9
1.47999572753906,-0.377161145210266,2.47204256057739,1.48191142082214,-0.524012471663969,2.74034845309416,1.46724577231745,2174.656,3147.721,3074.76,683.2726,-0.08321153,-0.003534547,0.1143174,-0.696040570735931,-0.391177386045456,0.457725286483765,-0.765994882555672,-0.329586198544069,0.474187321698441,9
1.5,-0.391329616308212,2.46416640281677,1.49130272865295,-0.539455198877605,2.73370387899399,1.4768055561018,2043.061,2988.371,2838.788,1243.05,-0.08239128,-0.003048787,0.1135228,-0.708425164222717,-0.393806129693985,0.469568490982056,-0.777924000354858,-0.334718964672088,0.481572013878822,9
1.52000427246094,-0.405705392360687,2.45625114440918,1.50067281723022,-0.555135099954955,2.72695725560613,1.48651216180595,2214.941,3183.292,3136.594,555.2905,-0.08563874,-0.003065831,0.1148918,-0.718787372112274,-0.395763576030731,0.468502134084702,-0.789706299681991,-0.339788558913217,0.48886581843107,9
1.54000854492188,-0.420332551002502,2.4482741355896,1.51033806800842,-0.571049184024557,2.72010986981902,1.49636373793799,2018.378,2951.402,2781.792,1382.779,-0.08382672,-0.002459163,0.1136816,-0.731358706951141,-0.398851186037064,0.483262717723846,-0.801336412291853,-0.344792671461508,0.496065412155667,9
1.55999755859375,-0.435151636600494,2.44025802612305,1.51991093158722,-0.587181951496087,2.71316839067337,1.50635068951315,2264.022,3235.131,3227.734,368.8573,-0.08807713,-0.002598713,0.1156813,-0.740956246852875,-0.400809705257416,0.478643834590912,-0.812800388649436,-0.349725300221754,0.503162159625937,9
1.58000183105469,-0.450230956077576,2.43216991424561,1.52986621856689,-0.60355483331529,2.70612359703193,1.51648628330776,1966.622,2889.062,2693.656,1608.793,-0.08470877,-0.001798699,0.1138012,-0.753964245319366,-0.404404580593109,0.497765362262726,-0.824110582941666,-0.354591760855452,0.510163708672098,9
1.60000610351563,-0.465482264757156,2.4240460395813,1.53962528705597,-0.620152298932711,2.69898217125626,1.52676090517188,2340.248,3316.149,3354.374,85.63167,-0.09047131,-0.002128931,0.1167225,-0.762563943862915,-0.406185507774353,0.487954944372177,-0.835253140422976,-0.35938609205264,0.51706148254665,9
1.62001037597656,-0.481009691953659,2.41583847999573,1.54989957809448,-0.636970945360177,2.69174557755711,1.53717244849371,1888.965,2801.515,2545.134,1950.114,-0.0848776,-0.001047688,0.1138282,-0.776374101638794,-0.410392135381699,0.513716161251068,-0.846223126656604,-0.364106170663034,0.523852426598179,9
1.63999938964844,-0.49669486284256,2.40759301185608,1.55993688106537,-0.653994195024907,2.68442094880091,1.54771065096602,2177.896,3637.423,3280.223,0,-0.09085268,-0.0005704491,0.1186499,-0.78425794839859,-0.412276744842529,0.501867353916168,-0.857007552155828,-0.368746407673381,0.530528499715628,9
1.66000366210938,-0.512656390666962,2.39926266670227,1.57049238681793,-0.671244443874359,2.67699864863716,1.55838937674714,1940.16,2616.734,2457.824,2179.229,-0.08409996,0.001373441,0.1151934,-0.798079013824463,-0.416518539190292,0.527777671813965,-0.867618167158098,-0.373311858882592,0.53709697585572,9
1.68000793457031,-0.528768539428711,2.39089918136597,1.58078753948212,-0.688705090349012,2.66948582025311,1.56919834868089,2191.337,3673.017,3239.257,0,-0.08985879,0.00273675,0.11956,-0.805606245994568,-0.418169379234314,0.51475727558136,-0.878042061913515,-0.377796969585941,0.543549863268291,9
1.69999694824219,-0.545148551464081,2.38246059417725,1.5915709733963,-0.706358800111611,2.66188992212981,1.58012683598675,2045.135,2540.185,2479.956,2137.751,-0.08360355,0.005267746,0.1149628,-0.819001317024231,-0.421933799982071,0.539174675941467,-0.888267004546665,-0.382196476749158,0.549879589839776,9
1.72000122070313,-0.561672866344452,2.37399387359619,1.6021089553833,-0.724228658537036,2.6542010212754,1.5911891296115,2193.025,3691.411,3230.806,0,-0.089797,0.00722196,0.1182705,-0.826213121414185,-0.423334807157516,0.526902258396149,-0.898304216251578,-0.386515208538549,0.556093102023817,9
1.74000549316406,-0.578445076942444,2.36546039581299,1.61307036876678,-0.742297311768984,2.64642658456943,1.60237448669139,2121.388,2526.358,2606.039,1950.248,-0.08540332,0.009949138,0.1132013,-0.838611781597137,-0.426673084497452,0.548070073127747,-0.908141534469281,-0.390747931744771,0.562182870617028,9
1.760009765625,-0.595355331897736,2.35689854621887,1.62381672859192,-0.760560719141003,2.63856835059778,1.61368040586141,2229.337,3603.03,3294.097,0,-0.09220609,0.01194487,0.1154114,-0.84551477432251,-0.42809596657753,0.537317395210266,-0.91777478390713,-0.394892849856044,0.568146310914365,9
1.77999877929688,-0.612493216991425,2.34826922416687,1.63493430614471,-0.779000609654483,2.63063418086074,1.62509557650306,2140.521,2569.469,2774.704,1718.38,-0.0895179,0.01440752,0.1106561,-0.856894850730896,-0.431471854448318,0.555879414081573,-0.927192788821983,-0.398945154262308,0.57397650459845,9
1.80000305175781,-0.629764258861542,2.33960318565369,1.64587354660034,-0.797640935141499,2.62261376955408,1.63663482594136,2251.764,3499.776,3383.259,0,-0.09628339,0.01600395,0.1125584,-0.863553762435913,-0.433299392461777,0.546959698200226,-0.936405971974637,-0.402909329586356,0.579679903854719,9
1.82000732421875,-0.647250235080719,2.33085989952087,1.65717041492462,-0.816463410111527,2.61451498441355,1.64828683458664,2130.422,2627.934,2883.549,1560.194,-0.09397337,0.01792553,0.1087277,-0.874296486377716,-0.43716761469841,0.564845085144043,-0.94540321420156,-0.406780591562751,0.585249625391268,9
1.83999633789063,-0.664865553379059,2.32206892967224,1.66831421852112,-0.835449117627072,2.60634596486888,1.66003989195343,2276.335,3431.477,3429.883,0,-0.1000353,0.01889061,0.1111016,-0.880765557289124,-0.439548224210739,0.55719256401062,-0.954174163352093,-0.410554485950274,0.590679260733698,9
1.86000061035156,-0.682690441608429,2.3131890296936,1.67982447147369,-0.854622615239374,2.59809614449182,1.6719092003358,2100.572,2668.652,2899.581,1532.657,-0.09685224,0.02023966,0.1082586,-0.891246795654297,-0.443990498781204,0.575510263442993,-0.962728579444532,-0.414235212212131,0.595974851798267,9
1.8800048828125,-0.700640797615051,2.30425477027893,1.69118440151215,-0.873964974649439,2.58977366760063,1.68388304221498,2306.299,3402.81,3427.889,0,-0.1019224,0.02058268,0.111335,-0.89752072095871,-0.446707934141159,0.567995548248291,-0.971056158224177,-0.417818336715394,0.601130019760457,9
1.90000915527344,-0.718801558017731,2.29522490501404,1.70293867588043,-0.893471623792247,2.58138050142717,1.69595858726494,2076.439,2693.951,2826.418,1606.674,-0.09735611,0.02148771,0.1090352,-0.908036470413208,-0.451489567756653,0.587716281414032,-0.979153483542501,-0.421302389586788,0.606142649861596,9
1.91999816894531,-0.737081587314606,2.28614139556885,1.71452105045319,-0.913122862707269,2.57292512231409,1.70812364027167,2304.162,3442.377,3387.323,0,-0.1018052,0.0214605,0.1128676,-0.914002418518066,-0.45417582988739,0.579116642475128,-0.987011339258123,-0.424683405378145,0.611007036871143,9
1.94000244140625,-0.755573987960815,2.27696347236633,1.72651898860931,-0.932943991899774,2.5643966441608,1.72039386345315,2051.909,2680.068,2731.51,1743.408,-0.09598086,0.02222019,0.110614,-0.924618601799011,-0.458898693323135,0.599894523620605,-0.994638524886308,-0.427965170275055,0.615728628108227,9
1.96000671386719,-0.774179577827454,2.26773881912231,1.7383189201355,-0.952915303453826,2.55580354673295,1.73275705667061,2292.934,3502.658,3336.728,0,-0.1001657,0.02213944,0.1148498,-0.930280745029449,-0.461231678724289,0.589998126029968,-1.00202586176059,-0.431143734953757,0.620301741541062,9
1.97999572753906,-0.792997777462006,2.2584285736084,1.75054156780243,-0.973016570682103,2.54715453300902,1.74520069864106,2051.055,2652.77,2658.759,1848.012,-0.09375659,0.02297251,0.1122788,-0.940912187099457,-0.465529412031174,0.611133694648743,-1.00916501115878,-0.434215511495054,0.624721215103391,9
2,-0.811923027038574,2.24908208847046,1.76253926753998,-0.993273599084619,2.53843849960327,1.7577407641983,2270.016,3548.644,3313.531,0,-0.09804321,0.02304062,0.1165375,-0.946260273456573,-0.467314839363098,0.599884808063507,-1.01606400046349,-0.437183953857422,0.628992018127441,9
2.02000427246094,-0.831059157848358,2.23966193199158,1.77495968341827,-1.01366615605493,2.52966415204104,1.77036472839513,2059.265,2620.564,2630.299,1903.646,-0.09149343,0.02405176,0.113471,-0.956807076931,-0.471011459827423,0.621018290519714,-1.02271452148052,-0.440045487257004,0.633109007445237,9
2.04000854492188,-0.850297212600708,2.23021650314331,1.78714680671692,-1.03418924440916,2.52083364047092,1.78306949773667,2247.959,3589.053,3295.595,0,-0.09595796,0.02435273,0.1175429,-0.961905419826508,-0.472257763147354,0.609355807304382,-1.02911391720548,-0.442798968459032,0.637070538244476,9
2.05999755859375,-0.869739592075348,2.22071075439453,1.79973459243774,-1.05482201812353,2.5119559343546,1.79584216754118,2076.623,2594.698,2651.295,1889.217,-0.08976824,0.02551995,0.114147,-0.972113132476807,-0.475293725728989,0.629387974739075,-1.03525504859546,-0.445441325732794,0.640872191117535,9
2.08000183105469,-0.889279007911682,2.21118974685669,1.81208610534668,-1.07559088172821,2.50301967256038,1.80869908347065,2252.313,3563.698,3315.92,0,-0.09432277,0.02591513,0.1177341,-0.97697114944458,-0.476033061742783,0.617573320865631,-1.04114485287423,-0.447975543971863,0.644518260536375,9
2.10000610351563,-0.909015119075775,2.20161962509155,1.82482826709747,-1.09647498538954,2.49403382618922,1.82162733848484,2090.328,2598.062,2683.531,1835.809,-0.08845264,0.02707211,0.1140959,-0.986809432506561,-0.478521525859833,0.63710629940033,-1.04677621342161,-0.450398561093403,0.648004340974112,9
2.12001037597656,-0.928842961788177,2.19204163551331,1.83734166622162,-1.11746913671118,2.48500062938421,1.83462371824305,2245.32,3560.739,3320.939,0,-0.09302688,0.02744079,0.1174582,-0.991396844387054,-0.478896081447601,0.625669240951538,-1.05214690704168,-0.452709420518306,0.651329056166548,9
2.13999938964844,-0.948857665061951,2.18242263793945,1.850226521492,-1.138551967509,2.47592927627801,1.8476749948214,2091.555,2602.769,2714.868,1788.424,-0.08743051,0.02849903,0.1138741,-1.0007358789444,-0.480952113866806,0.644244849681854,-1.05725102347782,-0.454905579228273,0.654488747383304,8
2.16000366210938,-0.968957483768463,2.17280268669128,1.86288011074066,-1.15975039167652,2.46680818657414,1.86079782920208,2256.853,3517.564,3343.9,0,-0.09187213,0.02868513,0.1170117,-1.00498819351196,-0.480998754501343,0.632680416107178,-1.0620943502576,-0.456989527434725,0.657486997379635,8
2.18000793457031,-0.989236533641815,2.16314792633057,1.87590849399567,-1.18104303873349,2.45764655539322,1.87397899203979,2082.026,2620.335,2715.662,1769.29,-0.08611331,0.02955069,0.1134457,-1.01395916938782,-0.482739210128784,0.651421725749969,-1.06667099276523,-0.458958728849171,0.660320157107579,8
2.19999694824219,-1.00959300994873,2.15349769592285,1.88870394229889,-1.20240821395574,2.44845371736898,1.88720505326679,2243.857,3531,3330.534,0,-0.09039088,0.02956416,0.1167328,-1.01782178878784,-0.48251748085022,0.639773607254028,-1.07097597819164,-0.460811043810786,0.662985148161421,7
2.22000122070313,-1.03012025356293,2.14381909370422,1.90186560153961,-1.22387315175433,2.43921795429519,1.90049287228091,2064.706,2618.06,2702.341,1787.765,-0.08436894,0.03029593,0.1132882,-1.02635395526886,-0.483928501605988,0.658080518245697,-1.07501419914593,-0.462548577472581,0.665484999299265,7
2.24000549316406,-1.05071616172791,2.13415193557739,1.91478228569031,-1.24541615591711,2.42994860144581,1.91382901809327,2255.509,3510.906,3324.6,0,-0.08844838,0.03011841,0.1165325,-1.02979755401611,-0.483361333608627,0.645835041999817,-1.07878069424208,-0.464169195088763,0.667816639186824,5
2.260009765625,-1.07147574424744,2.1244637966156,1.92807126045227,-1.26703177594152,2.42064800401982,1.92721011658316,2050.886,2625.932,2666.428,1816.507,-0.08209141,0.03071161,0.1129944,-1.03798317909241,-0.484412103891373,0.664449214935303,-1.08227399942825,-0.465672266718726,0.669979161506271,5
2.27999877929688,-1.09229445457458,2.11479425430298,1.94109904766083,-1.28869796983554,2.41132564607061,1.9406225227075,2232.346,3537.949,3304.051,0,-0.08613835,0.03044479,0.1163935,-1.04093265533447,-0.483473211526871,0.651388585567474,-1.08549040888332,-0.467056197851165,0.67197027217779,2
2.30000305175781,-1.11326885223389,2.10511207580566,1.95449721813202,-1.31044231452835,2.40196966201596,1.95408330789913,2032.962,2610.684,2632.145,1868.953,-0.07945115,0.03101563,0.1127317,-1.04871881008148,-0.484107822179794,0.669911503791809,-1.08843358680109,-0.468322565086307,0.673792239511894,0
2.32000732421875,-1.13429236412048,2.09545707702637,1.96761894226074,-1.33224276726637,2.39258953623693,1.96757882664355,2223.867,3549.828,3283.887,0,-0.08345868,0.03073072,0.1161039,-1.05118560791016,-0.482751458883286,0.656083643436432,-1.09109983431736,-0.469469776906228,0.675442773735451,0
2.33999633789063,-1.15546321868896,2.08579874038696,1.98110890388489,-1.35407709248145,2.38319483607731,1.98109531406483,2027.961,2600.035,2599.762,1901.458,-0.07663672,0.03130373,0.1122061,-1.05853343009949,-0.482917785644531,0.674495816230774,-1.09348640563071,-0.470496651869278,0.67692017506657,0
2.36000061035156,-1.17667233943939,2.07617616653442,1.99430358409882,-1.37597305876702,2.37377361348711,1.99464996024512,2202.909,3563.814,3272.975,0,-0.08073,0.03104614,0.1155119,-1.06046366691589,-0.481128454208374,0.659731507301331,-1.09559602313537,-0.471404361345641,0.678226128796969,0
2.3800048828125,-1.19801914691925,2.06655931472778,2.00786542892456,-1.39790843013262,2.36433543599182,2.00822900004707,2021.912,2583.962,2574.346,1932.694,-0.07379832,0.03165573,0.111325,-1.06733918190002,-0.480831861495972,0.678095400333405,-1.09742594550583,-0.472191725819537,0.679358937915576,0
2.40000915527344,-1.21939396858215,2.05698657035828,2.02112174034119,-1.41987760424917,2.35488271411715,2.02182896536211,2183.663,3586.2,3251.271,0,-0.07800399,0.03146432,0.1145462,-1.06874191761017,-0.478653609752655,0.662810146808624,-1.09897546783438,-0.472858441988871,0.680318166050934,0
2.41999816894531,-1.24089407920837,2.04742860794067,2.03472924232483,-1.44185817738692,2.34542508756209,2.03543598721428,2018.187,2566.318,2568.66,1940.472,-0.07120387,0.03211305,0.1101621,-1.07499718666077,-0.47790002822876,0.680380523204803,-1.10024313330221,-0.473403883025206,0.681102911362803,0
2.44000244140625,-1.26241111755371,2.037921667099,2.04801940917969,-1.46387808506052,2.33595053645515,2.04906735901791,2181.141,3568.099,3253.17,0,-0.07548517,0.03191978,0.1131013,-1.07585799694061,-0.475352793931961,0.664509117603302,-1.10123038958312,-0.473828671822132,0.681714070030222,0
2.46000671386719,-1.28404140472412,2.02843737602234,2.06165623664856,-1.48591492338117,2.32646870056377,2.06270921169857,2013.864,2565.239,2563.881,1931.733,-0.06877241,0.03252641,0.1085028,-1.08150637149811,-0.474213182926178,0.681846082210541,-1.10193578218388,-0.474132182551855,0.682150741652607,0
2.47999572753906,-1.30567765235901,2.01900959014893,2.0749716758728,-1.50794623031618,2.31698924467309,2.07634764018804,2165.369,3578.006,3238.688,0,-0.0731549,0.03230374,0.1113533,-1.0818122625351,-0.471388936042786,0.665769159793854,-1.10235882472314,-0.474314205938057,0.682412625136718,0
2.5,-1.32741236686707,2.00961112976074,2.08861589431763,-1.52999999932945,2.30750012397766,2.08999997377396,2000.471,2557.95,2568.932,1925.167,-0.06658595,0.03285612,0.1067359,-1.08674430847168,-0.46992689371109,0.682210445404053,-1.10250000050292,-0.474374949932098,0.682500019669533,0
2.52000427246094,-1.34914243221283,2.00027394294739,2.10193204879761,-1.55205376834272,2.29801100328223,2.10365230735988,2175.174,3546.176,3240.191,0,-0.07096632,0.03250764,0.1093526,-1.08650100231171,-0.466856777667999,0.665802597999573,-1.10235882472314,-0.474314205938057,0.682412625136718,0
2.54000854492188,-1.37095832824707,1.99097084999084,2.11557412147522,-1.57410188948011,2.28852431271001,2.11730114464159,1987.235,2569.384,2559.463,1915.535,-0.06443252,0.032918,0.1046836,-1.09078991413116,-0.465147823095322,0.682100713253021,-1.10193535162022,-0.474131997292339,0.682150475113189,0
2.55999755859375,-1.39275729656219,1.98173320293427,2.12887811660767,-1.59612191359838,2.27904971150017,2.13093258853001,2157.683,3548.752,3232.714,0,-0.06885017,0.03244137,0.1073471,-1.08995127677917,-0.461889684200287,0.665205419063568,-1.10123038958312,-0.473828671822132,0.681714070030222,0
2.58000183105469,-1.41462957859039,1.97253346443176,2.14250469207764,-1.61814182127198,2.26957516039323,2.14456396033363,1963.569,2564.961,2541.762,1939.558,-0.06213474,0.03275533,0.1026943,-1.09361660480499,-0.459982424974442,0.681332945823669,-1.10024313330221,-0.473403883025206,0.681102911362804,0
2.60000610351563,-1.43647360801697,1.96340274810791,2.1557834148407,-1.64013916343638,2.26011031859448,2.15818136301212,2152.126,3546.373,3218.076,0,-0.0664757,0.03217291,0.1053866,-1.09220719337463,-0.456537961959839,0.663933277130127,-1.09897439291323,-0.472857979480329,0.680317500623536,0
2.6199951171875,-1.45837938785553,1.95431447029114,2.16938495635986,-1.66209156852628,2.2506648119635,2.17177094750084,1949.283,2562.362,2509.868,1966.926,-0.05956532,0.03240415,0.1006759,-1.09528267383575,-0.454417556524277,0.680073320865631,-1.09742594550583,-0.472191725819537,0.679358937915576,0
2.63999938964844,-1.48024463653564,1.94529914855957,2.18262076377869,-1.68402693989188,2.24122663446822,2.18534998730279,2135.426,3552.096,3205.656,0,-0.06391001,0.03175838,0.1034198,-1.09326648712158,-0.450761139392853,0.661786139011383,-1.09559602313537,-0.471404361345641,0.67822612879697,0
2.66000366210938,-1.50216054916382,1.93633103370667,2.1961841583252,-1.70592290617745,2.23180541187802,2.19890463348308,1933.446,2550.767,2471.556,2012.047,-0.05671521,0.03196287,0.09853932,-1.09578728675842,-0.448408901691437,0.678172528743744,-1.09348640563071,-0.470496651869278,0.67692017506657,0
2.68000793457031,-1.52402424812317,1.92744016647339,2.20936942100525,-1.72777388024004,2.22240354818443,2.21243142733407,2115.917,3577.905,3176.05,0,-0.06111688,0.0313349,0.1013397,-1.0931841135025,-0.444536209106445,0.659261643886566,-1.09109790637238,-0.469468947365361,0.675441580245664,0
2.69999694824219,-1.54592525959015,1.91860198974609,2.22287201881409,-1.74955768413056,2.21303058593937,2.22591663964878,1921.948,2531.86,2448.12,2043.582,-0.05388321,0.03156614,0.09630985,-1.09505319595337,-0.441910922527313,0.675133168697357,-1.08843358680109,-0.468322565086308,0.673792239511893,0
2.72000122070313,-1.5677627325058,1.90984606742859,2.23598170280457,-1.77130202882336,2.20367460188472,2.23937742484041,2111.789,3567.292,3168.541,0,-0.05836105,0.03094322,0.09892318,-1.09186744689941,-0.437801331281662,0.655478835105896,-1.08549040888332,-0.467056197851165,0.671970272177789,0
2.74000549316406,-1.58962452411652,1.90114760398865,2.24940705299377,-1.79298473688851,2.19434513834902,2.25280005402337,1913.558,2526.212,2430.642,2054.265,-0.05113695,0.0311583,0.09366811,-1.09309542179108,-0.434916794300079,0.671267569065094,-1.08227143928024,-0.465671165158559,0.669977576652695,0
2.760009765625,-1.61141133308411,1.89253520965576,2.26243329048157,-1.81460030360772,2.18504456385877,2.26618111951479,2094.345,3582.612,3148.202,0,-0.05576073,0.03054602,0.09621985,-1.08933317661285,-0.43062436580658,0.651315212249756,-1.07877792518082,-0.464168003639063,0.667814925005998,0
2.77999877929688,-1.63320779800415,1.88398456573486,2.27576041221619,-1.83612684690458,2.17578229366013,2.27950707526701,1900.938,2516.295,2427.458,2056.784,-0.04871348,0.03074698,0.09090983,-1.08982944488525,-0.427525967359543,0.666354477405548,-1.07501419914593,-0.462548577472581,0.665484999299265,0
2.80000305175781,-1.65491759777069,1.87552309036255,2.28867816925049,-1.85759178470316,2.16654653058634,2.29279489428112,2095.129,3555.489,3152.524,0,-0.05340916,0.03007347,0.09326135,-1.08549571037292,-0.423081159591675,0.645893692970276,-1.07097597819164,-0.460811043810786,0.662985148161422,0
2.82000732421875,-1.6766242980957,1.86712646484375,2.30189728736877,-1.87897323600723,2.1573466894188,2.30603103117811,1886.681,2520.414,2418.268,2054.9,-0.04636404,0.0301882,0.08786334,-1.08533132076263,-0.419834196567535,0.660955250263214,-1.06666760390385,-0.458957270716794,0.660318059240952,0
2.83999633789063,-1.69823288917542,1.85882043838501,2.31470394134521,-1.90024960698239,2.14819206138118,2.31920211834584,2078.885,3565.85,3135.558,0,-0.05111405,0.02945113,0.09026118,-1.08043825626373,-0.415297895669937,0.640328049659729,-1.06209435025759,-0.456989527434725,0.657486997379635,0
2.86000061035156,-1.71982443332672,1.85058176517487,2.32780027389526,-1.9214480311499,2.13907097167731,2.33232495272651,1866.14,2514.18,2411.459,2064.958,-0.04406253,0.02950211,0.08493537,-1.07957458496094,-0.411933839321136,0.654816269874573,-1.05725102347782,-0.454905579228273,0.654488747383304,0
2.8800048828125,-1.74130725860596,1.84243583679199,2.34047627449036,-1.94254691640495,2.12999271078668,2.34538616777867,2088.583,3537.594,3131.692,0,-0.04877153,0.02864235,0.08720957,-1.07415127754211,-0.407300412654877,0.633796215057373,-1.0521429102862,-0.45270770082608,0.651326581984514,0
2.90000915527344,-1.76276063919067,1.83435940742493,2.35344457626343,-1.96354098577478,2.12095954924324,2.35838249680481,1848.974,2522.856,2389.802,2073.688,-0.04162468,0.02857128,0.08185313,-1.07266783714294,-0.40382981300354,0.648417294025421,-1.04677201701582,-0.450396755497224,0.648001743199023,0
2.91999816894531,-1.78409469127655,1.82637703418732,2.36598229408264,-1.98440911693069,2.11198057539494,2.37130086407726,2071.311,3545.843,3117.188,0,-0.04636883,0.02761765,0.08422567,-1.06669723987579,-0.399110972881317,0.626888036727905,-1.04114485287423,-0.447975543971863,0.644518260536375,0
2.94000244140625,-1.80538690090179,1.81846618652344,2.37881135940552,-2.00517798053537,2.10304431360073,2.38415778000673,1824.662,2515.586,2365.017,2107.97,-0.03902223,0.02748579,0.07887655,-1.06460964679718,-0.395534038543701,0.641457974910736,-1.03525504859546,-0.445441325732794,0.640872191117535,0
2.96000671386719,-1.82654976844788,1.81065201759338,2.39119982719421,-2.02582645724542,2.09415985092405,2.3969401707136,2066.908,3544.11,3100.233,0,-0.04373816,0.02646896,0.08126811,-1.05812954902649,-0.390707582235336,0.619421541690826,-1.02910913225408,-0.442796909628122,0.637067576131623,0
2.97999572753906,-1.84765887260437,1.80291223526001,2.40388059616089,-2.04633384260397,2.08533609591429,2.40963521915279,1810.151,2511.445,2334.276,2135.879,-0.03625201,0.02628674,0.07584795,-1.05546188354492,-0.386989951133728,0.634044110774994,-1.02271452148052,-0.440045487257004,0.633109007445237,0
3,-1.86862814426422,1.79527139663696,2.4161057472229,-2.06672639957428,2.07656174835205,2.42225918334961,2052.061,3548.074,3087.74,0,-0.04102067,0.025242,0.07826272,-1.04846477508545,-0.382035762071609,0.611262381076813,-1.01606400046349,-0.437183953857422,0.628992018127441,0
3.02000427246094,-1.88953292369843,1.7877082824707,2.42862701416016,-2.0869834279768,2.06784571494631,2.43479924890685,1794.639,2501.187,2303.608,2171.449,-0.03336302,0.02504559,0.07270872,-1.04523646831512,-0.378163844347,0.626064240932465,-1.00916501115878,-0.434215511495054,0.624721215103391,0
3.04000854492188,-1.91028785705566,1.78024673461914,2.44068336486816,-2.10709998486405,2.05919012250926,2.44725235590455,2037.198,3563.774,3063.882,0,-0.03821529,0.0240214,0.0751447,-1.03774833679199,-0.373080670833588,0.602817833423615,-1.00202031904361,-0.431141350077486,0.620298310335216,0
3.05999755859375,-1.93096590042114,1.77286601066589,2.45302748680115,-2.12705600675913,2.05060360379452,2.45960608409476,1780.981,2487.95,2286.214,2193.541,-0.03057149,0.02384185,0.06950359,-1.03390860557556,-0.369040489196777,0.617207467556,-0.994638524886308,-0.427965170275055,0.615728628108227,0
3.08000183105469,-1.95148479938507,1.76558923721313,2.46489548683167,-2.14687713595163,2.04207512564123,2.47187630727625,2034.655,3549.333,3058.728,0,-0.03549408,0.02281398,0.07178959,-1.02594375610352,-0.363829255104065,0.593406021595001,-0.987011339258122,-0.424683405378145,0.611007036871143,0
3.10000610351563,-1.97191512584686,1.75839638710022,2.47705173492432,-2.16654331551667,2.03361331798384,2.48405060925705,1769.144,2486.368,2271.233,2201.135,-0.02785826,0.02260542,0.06602057,-1.02150881290436,-0.359641283750534,0.607807695865631,-0.979147395688901,-0.421299770153459,0.606138881190213,0
3.1199951171875,-1.99217641353607,1.75130975246429,2.48872756958008,-2.18603502400946,2.02522658035469,2.49611690533293,2021.612,3557.29,3041.462,0,-0.03289111,0.02156804,0.06828626,-1.01307463645935,-0.354337573051453,0.583790123462677,-0.971056158224178,-0.417818336715394,0.601130019760458,0
3.13999938964844,-2.01233673095703,1.74430918693542,2.50068092346191,-2.20537738341953,2.01690410346351,2.50809074721212,1750.504,2480.64,2265.63,2208.4,-0.02533838,0.02133732,0.06253483,-1.00800776481628,-0.350035935640335,0.597667694091797,-0.962728579444533,-0.414235212212131,0.595974851798267,0
3.16000366210938,-2.03231954574585,1.73741579055786,2.51214790344238,-2.22455088103183,2.00865428308644,2.51996005559448,2028.136,3531.996,3038.419,0,-0.03040851,0.02023043,0.06465378,-0.999131381511688,-0.344660609960556,0.573345243930817,-0.954174163352092,-0.410554485950274,0.590679260733698,0
3.18000793457031,-2.05218911170959,1.7306102514267,2.52389311790466,-2.24355101420387,2.00047905658478,2.53172204312984,1733.929,2488.816,2252.067,2209.223,-0.02287868,0.01991137,0.05889015,-0.993477821350098,-0.340277850627899,0.587257444858551,-0.945396434568188,-0.406777674475913,0.585245428475253,0
3.19999694824219,-2.07187223434448,1.72391307353973,2.53514456748962,-2.2623590635174,1.99238647840124,2.54336512160655,2015.012,3531.495,3029.368,0,-0.02801592,0.01873073,0.06106265,-0.984157204627991,-0.334859281778336,0.562568545341492,-0.936405971974636,-0.402909329586355,0.579679903854719,0
3.22000122070313,-2.09143090248108,1.71730494499207,2.54667377471924,-2.28099938900442,1.98436606709459,2.55490437104486,1710.002,2486.053,2234.253,2232.131,-0.02036519,0.01835055,0.05534991,-0.977949202060699,-0.33041912317276,0.576465666294098,-0.927192788821982,-0.398945154262308,0.573976504598449,0
3.24000549316406,-2.11079549789429,1.71080577373505,2.55770182609558,-2.29945328359428,1.9764258717947,2.56632821087688,2012.194,3524.693,3016.448,0,-0.02547953,0.0171039,0.05755309,-0.96822452545166,-0.324950575828552,0.5514075756073,-0.91776751470058,-0.394889722119544,0.568141810929231,0
3.260009765625,-2.13002562522888,1.70439696311951,2.56901025772095,-2.31771654397337,1.96856770107001,2.57763403905129,1693.754,2485.102,2207.237,2255.229,-0.01769937,0.01666342,0.05183711,-0.961500108242035,-0.320429086685181,0.565426528453827,-0.908134108040216,-0.390744736359816,0.562178273303667,0
3.27999877929688,-2.14905309677124,1.69809937477112,2.57980608940125,-2.33577134012187,1.96079922667992,2.58881081793642,2003.454,3523.85,3003.181,0,-0.02285472,0.01537244,0.05407818,-0.951383650302887,-0.314891934394836,0.539789915084839,-0.898304216251578,-0.386515208538549,0.556093102023818,0
3.30000305175781,-2.16793632507324,1.69189405441284,2.5908842086792,-2.35364119854729,1.95311032582551,2.59987311156116,1673.39,2478.508,2181.555,2287.157,-0.01491104,0.01490415,0.0483112,-0.944163680076599,-0.310269802808762,0.553906381130219,-0.888267004546666,-0.382196476749158,0.549879589839776,0
3.32000732421875,-2.18661022186279,1.68580102920532,2.6014416217804,-2.37130830610839,1.94550866300381,2.61080989274252,1996.469,3527.469,2984.271,0,-0.02009568,0.01360213,0.05055666,-0.933682441711426,-0.304647564888,0.527871370315552,-0.878034183119985,-0.377793579561194,0.543544985919778,0
3.33999633789063,-2.20512938499451,1.67980289459229,2.61228013038635,-2.38875555478454,1.93800159931817,2.62161057080077,1660.957,2473.486,2157.128,2308.03,-0.01213336,0.01311917,0.04473208,-0.925962507724762,-0.299903213977814,0.541922688484192,-0.867618167158097,-0.373311858882592,0.53709697585572,0
3.36000061035156,-2.22343158721924,1.67391896247864,2.62258553504944,-2.406005803634,1.93057929915441,2.6322892965819,1988.409,3521.171,2976.455,0,-0.01742347,0.01181143,0.0469296,-0.915122151374817,-0.294197469949722,0.5152707695961,-0.857007552155826,-0.36874640767338,0.530528499715627,0
3.3800048828125,-2.24157023429871,1.66813206672668,2.63317513465881,-2.42304196557559,1.92324911460621,2.64283549236868,1645.575,2468.899,2135.863,2329.347,-0.009416938,0.01131485,0.04101126,-0.906916737556458,-0.289347022771835,0.529474496841431,-0.846214826007803,-0.364102599125748,0.523847288101157,0
3.40000915527344,-2.2594850063324,1.66246044635773,2.64322566986084,-2.43986044461333,1.91601259293018,2.6532469320683,1975.898,3529.624,2958.81,0,-0.0148173,0.0100241,0.04322546,-0.895734190940857,-0.283575475215912,0.502521991729736,-0.835244706287931,-0.359382463079953,0.517056261415284,0
3.41999816894531,-2.27722549438477,1.65688800811768,2.6535542011261,-2.45644516534361,1.90887665092339,2.66351366424015,1629.873,2461.847,2123.06,2343.859,-0.006868825,0.00953413,0.03730378,-0.887031614780426,-0.278636902570724,0.516430139541626,-0.824110582941664,-0.354591760855451,0.510163708672097,0
3.44000244140625,-2.29473638534546,1.65143156051636,2.66333508491516,-2.47281804716281,1.90183185728196,2.67364925803476,1975.943,3511.119,2956.296,0,-0.01233789,0.00822975,0.03941973,-0.875531613826752,-0.272819727659225,0.489047855138779,-0.812800388649434,-0.349725300221754,0.503162159625937,0
3.46000671386719,-2.31206321716309,1.64607512950897,2.67339706420898,-2.4889630419904,1.89488511704659,2.68364377892579,1615.144,2463.892,2108.367,2351.823,-0.004379302,0.007703105,0.03345786,-0.866356432437897,-0.267816871404648,0.503100275993347,-0.801327600455845,-0.344788879974649,0.496059957209413,0
3.47999572753906,-2.32915449142456,1.64083552360535,2.68290781974792,-2.50486489870395,1.88804299234919,2.69348778574196,1966.449,3514.583,2941.315,0,-0.00993146,0.006382434,0.03560368,-0.854549765586853,-0.261971920728683,0.475533664226532,-0.789706299681989,-0.339788558913217,0.488865818431069,0
3.5,-2.34605264663696,1.63569712638855,2.69269466400146,-2.5205447997813,1.88129636896134,2.70319439144611,1595.692,2461.166,2096.484,2365.233,-0.001992045,0.005835279,0.02970064,-0.844908773899078,-0.256923198699951,0.489346295595169,-0.777924000354857,-0.334718964672089,0.481572013878822,0
3.52000427246094,-2.36270904541016,1.63067603111267,2.70192384719849,-2.53598752699493,1.87465179486116,2.71275417523047,1971.876,3494.19,2935.786,0,-0.007584683,0.004467288,0.0317731,-0.832828938961029,-0.25106093287468,0.461458444595337,-0.765994882555673,-0.32958619854407,0.474187321698442,0
3.54000854492188,-2.37916421890259,1.62575626373291,2.71143269538879,-2.55119019794619,1.86811051026429,2.72216535275294,1579.421,2467.136,2078.234,2374.71,0.0003651766,0.003861053,0.02587579,-0.822754323482513,-0.245974838733673,0.475438505411148,-0.753924423002452,-0.324392617007921,0.466715132239272,0
3.55999755859375,-2.39537286758423,1.62095415592194,2.72037649154663,-2.56613872308604,1.86167857751006,2.73141920191151,1962.076,3493.603,2925.421,0,-0.005313006,0.002456013,0.02800528,-0.810411691665649,-0.240105077624321,0.447188079357147,-0.741727567798258,-0.319144650954242,0.459164697851087,0
3.58000183105469,-2.4113712310791,1.61625456809998,2.72960114479065,-2.58085326729328,1.85534732021446,2.74052820572674,1558.615,2464.565,2059.312,2397.853,0.002709651,0.001819216,0.02215071,-0.799933254718781,-0.234993070363998,0.461236953735352,-0.729391385793765,-0.313836736470737,0.451528013536464,0
3.60000610351563,-2.42711853981018,1.61167216300964,2.73825430870056,-2.59531978247425,1.84912278287974,2.74948366775945,1960.423,3486.896,2913.629,0,-0.003006709,0.0003893125,0.02429965,-0.787364721298218,-0.229112908244133,0.43265700340271,-0.716930938559024,-0.308475354130224,0.443814403124743,0
3.6199951171875,-2.4426486492157,1.60719275474548,2.74719071388245,-2.60952509409627,1.84301063413925,2.75827743234631,1544.144,2464.168,2037.479,2416.025,0.005051813,-0.0002764361,0.01845506,-0.776509761810303,-0.223962903022766,0.44682389497757,-0.704361775018033,-0.303067194200314,0.436033492140578,0
3.63999938964844,-2.457923412323,1.60283148288727,2.75554704666138,-2.6234885835008,1.83700253474321,2.76692149746096,1951.849,3483.187,2903.369,2.677895,-0.0007265104,-0.001709749,0.02062871,-0.76373702287674,-0.218071311712265,0.417819380760193,-0.691670720740692,-0.297606588091786,0.428177124984152,0
3.66000366210938,-2.47297382354736,1.59857392311096,2.76418972015381,-2.63719712493647,1.83110413233575,2.77540773763803,1530.426,2460.835,2016.421,2436.289,0.007379515,-0.002385127,0.01476918,-0.752528548240662,-0.212882980704308,0.432139366865158,-0.678873453515702,-0.29210028151913,0.420255006953505,0
3.68000793457031,-2.4877655506134,1.59443426132202,2.77225351333618,-2.65064865588166,1.82531631436231,2.78373487607838,1932.059,3493.934,2874.051,22.26657,0.001630428,-0.003752394,0.01698825,-0.739578723907471,-0.20697645843029,0.403194397687912,-0.665976209205203,-0.286550957599616,0.412270998344358,0
3.69999694824219,-2.50232577323914,1.59039974212646,2.7805917263031,-2.66383127580226,1.81964420129024,2.79189554578451,1524.793,2455.407,2007.202,2437.139,0.009590151,-0.004384096,0.01118428,-0.72802209854126,-0.20173616707325,0.416910648345947,-0.65299527533123,-0.280965624398954,0.404235181908735,0
3.72000122070313,-2.51662445068359,1.58648324012756,2.78836059570313,-2.6767633032417,1.81407991116207,2.79990108680742,1910.918,3483.398,2840.727,70.60278,0.00404698,-0.005628325,0.01326297,-0.714930355548859,-0.195821046829224,0.388446420431137,-0.639917282339434,-0.275338529371411,0.396139281255611,0
3.74000549316406,-2.53068494796753,1.58267283439636,2.79638314247131,-2.6894328975087,1.80862853869646,2.80774416919516,1532.685,2461.543,2012.161,2398.496,0.01165552,-0.006205698,0.007527725,-0.703019499778748,-0.190520823001862,0.401133328676224,-0.626758665639204,-0.269676744214497,0.387993470686332,0
3.760009765625,-2.54448080062866,1.5789806842804,2.80385637283325,-2.70183851231475,1.80329074921818,2.81542383572149,1891.189,3463.738,2801.56,134.4002,0.006348488,-0.007323693,0.00934322,-0.689788937568665,-0.184612542390823,0.373663336038589,-0.613526094901139,-0.263983138701136,0.379801879044709,0
3.77999877929688,-2.55803108215332,1.57539486885071,2.81155228614807,-2.7139695770734,1.79807109095524,2.82293354268985,1540.217,2480.511,2033.289,2330.355,0.01336373,-0.007853662,0.003779599,-0.677509009838104,-0.179286152124405,0.384791016578674,-0.60023651686137,-0.258265004538452,0.371574997167698,0
3.80000305175781,-2.57131409645081,1.57192599773407,2.81872725486755,-2.72584333814708,1.79296214327972,2.83028396642013,1864.46,3430.781,2761.719,220.9739,0.008409353,-0.008847021,0.0052829,-0.66413950920105,-0.173435404896736,0.358754128217697,-0.586876524285838,-0.252516572968186,0.363304525338741,0
3.82000732421875,-2.58434414863586,1.56856346130371,2.82608866691589,-2.73744929742843,1.78796842323393,2.8374686080838,1551.65,2510.666,2064.169,2237.139,0.01472564,-0.009348228,1.264463E-05,-0.651498973369598,-0.168135672807693,0.368075579404831,-0.573463232144022,-0.246745208083563,0.355001058539243,0
3.83999633789063,-2.5971040725708,1.56531548500061,2.83296585083008,-2.74877791451009,1.78309403578861,2.84448156171422,1838.057,3389.296,2716.717,322.3335,0.01021858,-0.01023932,0.001202419,-0.637998044490814,-0.162389978766441,0.343853533267975,-0.560014026276881,-0.240958390526246,0.346675359432959,0
3.86000061035156,-2.6096043586731,1.56217217445374,2.83998775482178,-2.75984563331209,1.77833190558438,2.85133300688122,1560.542,2548.728,2101.512,2131.786,0.01579702,-0.01072348,-0.003657053,-0.625032126903534,-0.157165050506592,0.351089835166931,-0.546515580872635,-0.235150386571708,0.338319178707605,0
3.8800048828125,-2.62183308601379,1.55914080142975,2.84656691551208,-2.77064299647982,1.77368610185671,2.85801708903178,1811.299,3338.457,2667.727,438.7797,0.01188333,-0.01152669,-0.002789395,-0.611420810222626,-0.151560068130493,0.328958779573441,-0.532985466132484,-0.229328756186666,0.329943393154704,0
3.90000915527344,-2.63379669189453,1.55621218681335,2.85324835777283,-2.78116944461445,1.76915686529929,2.86453346187138,1575.089,2593.724,2136.76,2016.288,0.01671686,-0.01200873,-0.007187872,-0.598181188106537,-0.146428421139717,0.334070652723312,-0.519431110871129,-0.223496695782554,0.321552601564443,0
3.91999816894531,-2.64548635482788,1.5533926486969,2.8595290184021,-2.79141684911929,1.7647476934202,2.87087709341145,1783.815,3284.342,2617.35,561.3359,0.01342875,-0.01273524,-0.006636597,-0.584483206272125,-0.140978991985321,0.314029484987259,-0.505870408491346,-0.2176619043907,0.313157880805522,0
