t,x_s1,x_s2,x_s3,x_s_d1,x_s_d2,x_s_d3,propellers_rpms1,propellers_rpms2,propellers_rpms3,propellers_rpms4,rollRad,pitchRad,yawRad,v_s1,v_s2,v_s3,v_s_d1,v_s_d2,v_s_d3,insideCount
0,-0.0599999986588955,2.94000005722046,1.17999994754791,-0.0599999986588955,2.94000005722046,1.17999994754791,0,0,0,0,0,0,0,0,0,0,-1.06581410364015E-15,4.44089209850063E-16,4.44089209850063E-16,0
0.019989013671875,-0.0599999986588955,2.94000005722046,1.1771354675293,-0.0600018659130177,2.93999925379318,1.18000110346716,0,0,0,0,0.0163538,-0.002474609,-2.024222E-05,3.71994488546079E-08,3.50004931704007E-08,-0.143225952982903,-0.000279680311988734,-0.000120338624884473,0.000173135436141649,5
0.03997802734375,-0.0599999986588955,2.94000005722046,1.17048275470734,-0.060014847005691,2.93999366839165,1.1800091393819,0,0,0,0,0.03270752,-0.004950816,-5.430172E-05,3.62924410524101E-08,3.44428769949445E-08,-0.332637369632721,-0.00110975851463131,-0.000477498085781228,0.000686993385685745,6
0.05999755859375,-0.0600004345178604,2.94013261795044,1.16416549682617,-0.0600498857373401,2.93997859220429,1.18003083002592,3185.316,2835.736,1501.19,2767.685,0.03128079,-0.00494336,-0.01646952,-2.17781544051832E-05,0.00662216590717435,-0.315863490104675,-0.00247936261166862,-0.00106680046642749,0.00153484356504269,6
0.079986572265625,-0.0599162168800831,2.94038772583008,1.1585773229599,-0.0601174907153006,2.93994950367094,1.18007268072775,3066.254,3067.415,2154.564,2023.858,0.01897243,-0.004311658,-0.04351499,0.00421092426404357,0.0127503918483853,-0.279410123825073,-0.00437104534358026,-0.00188073869847162,0.00270588528944111,6
0.0999755859375,-0.0596375688910484,2.94068765640259,1.15374839305878,-0.0602280337026576,2.93990194011169,1.18014111210282,2639.7,3831.725,2620.663,1134.984,-0.005857889,-0.002887932,-0.07014393,0.0139324627816677,0.014997560530901,-0.241444140672684,-0.00677334142420609,-0.00291437958958193,0.00419302100058057,6
0.1199951171875,-0.0590849332511425,2.94089889526367,1.14956998825073,-0.0603918861403606,2.93983143898525,1.18024254456713,2091.887,4101.831,3169.709,756.0782,-0.04011999,-0.0004500742,-0.08993282,0.0276317521929741,0.010559931397438,-0.208919882774353,-0.00967801353495435,-0.00416417885169243,0.00599115140585487,5
0.139984130859375,-0.0582315176725388,2.94085621833801,1.14596664905548,-0.0606183773949454,2.93973398612584,1.18038275344299,1511.156,4074.768,3735.415,701.5958,-0.07649344,0.002388022,-0.09949676,0.0426707305014133,-0.00213289726525545,-0.18016429245472,-0.0130632593357409,-0.00562075554695178,0.00808677981816243,4
0.15997314453125,-0.0570995099842548,2.94039487838745,1.14297783374786,-0.0609172730813211,2.93960537966217,1.18056778411123,1134.499,3847.131,4070.006,880.2444,-0.1062782,0.004335437,-0.09869781,0.0566004179418087,-0.0230695754289627,-0.149438455700874,-0.0169203082141145,-0.00728033592584475,0.0104744768105937,4
0.17999267578125,-0.0557378232479095,2.93938803672791,1.14071094989777,-0.0612985250199726,2.93944133760391,1.18080379722281,1100.794,3565.041,4010.054,1149.261,-0.1236218,0.004492231,-0.08999886,0.068084292113781,-0.0503413155674934,-0.113345712423325,-0.0212433804254414,-0.00914043312572283,0.0131506644458931,3
0.199981689453125,-0.0541965812444687,2.9377772808075,1.13924860954285,-0.0617700327574899,2.93923846099686,1.18109568297336,1374.452,3339.728,3594.236,1385.732,-0.1278711,0.003022227,-0.07725137,0.0770622044801712,-0.0805376097559929,-0.0731195956468582,-0.0260066742439309,-0.011189945384795,0.0160993702266893,3
0.219970703125,-0.052514337003231,2.93557620048523,1.13858377933502,-0.0623411120546116,2.93899274152942,1.18144920826256,1789.968,3213.188,3017.277,1527.221,-0.1229741,0.0008614569,-0.06426048,0.0841122418642044,-0.110048584640026,-0.0332418978214264,-0.0312039351396938,-0.0134261815535814,0.0193167223010366,3
0.239990234375,-0.0507196858525276,2.93284726142883,1.13860666751862,-0.0630214373585105,2.93870001655724,1.18187036203406,2159.02,3168.054,2517.539,1558.961,-0.1149585,-0.0009875001,-0.05362435,0.0897326320409775,-0.136450588703156,0.0011431872844696,-0.0368316683029241,-0.015847637913056,0.022800557215184,3
0.259979248046875,-0.048837348818779,2.92966508865356,1.13913774490356,-0.0638172488896441,2.93835760108779,1.18236300728159,2353.063,3159.362,2273.193,1495.13,-0.1090485,-0.001904693,-0.04624206,0.0941169783473015,-0.159106284379959,0.0265545397996902,-0.0428604193878216,-0.0184416410810803,0.0265326413259761,3
0.279998779296875,-0.0468917861580849,2.92608785629272,1.13999557495117,-0.0647390625194898,2.93796097043536,1.18293365383054,2351.544,3152.598,2324.852,1363.641,-0.1078181,-0.001744371,-0.04152294,0.0972782671451569,-0.178856655955315,0.0428941175341606,-0.0492963837173861,-0.0212108567320638,0.030516809833474,3
0.29998779296875,-0.044908732175827,2.92214417457581,1.14106178283691,-0.0657918945890516,2.93750796620855,1.18358540703494,2230.24,3143.404,2572.159,1194.789,-0.1110916,-0.000737163,-0.03799212,0.0991528034210205,-0.19718986749649,0.0533091463148594,-0.0561078595514081,-0.0241416444928383,0.0347334378503248,3
0.319976806640625,-0.0429168492555618,2.91783618927002,1.14229321479797,-0.0669846297797139,2.93699476557717,1.18432376693582,2072.836,3133.379,2874.102,1032.006,-0.116941,0.0006867017,-0.03397874,0.0995942279696465,-0.215402275323868,0.0615741573274136,-0.0632924014512957,-0.0272329521594955,0.0391810115335476,3
0.339996337890625,-0.0409488454461098,2.91315174102783,1.1437064409256,-0.068326768706371,2.93641728069206,1.18515461486636,1954.887,3106.299,3109.562,922.8142,-0.1228372,0.00207031,-0.02837598,0.0984004139900208,-0.234223484992981,0.0706593990325928,-0.0708499516420146,-0.0304847548730522,0.0438594951176439,3
0.3599853515625,-0.0390400439500809,2.90807795524597,1.14534294605255,-0.0698213312158394,2.93577421219747,1.18607982025561,1906.341,3066.313,3221.182,879.6426,-0.1267047,0.003091436,-0.02087386,0.0954397842288017,-0.253695040941238,0.0818261876702309,-0.0787457139191101,-0.0338820807988248,0.0487473480944833,3
0.379974365234375,-0.0372254922986031,2.90261125564575,1.14724254608154,-0.0714771179380247,2.93506177342824,1.1871048311127,1922.695,3021.662,3207.865,895.8654,-0.1274232,0.003641681,-0.01188036,0.0907275676727295,-0.273339092731476,0.0949829667806625,-0.0869793044824472,-0.0374247647983375,0.0538443328734993,3
0.399993896484375,-0.0355370342731476,2.89676237106323,1.14943051338196,-0.0733036822025899,2.9342758538535,1.18823556140379,1990.768,2987.917,3098.846,940.9276,-0.1250264,0.00379068,-0.002210424,0.084422878921032,-0.292449712753296,0.10939808934927,-0.0955525119207663,-0.0411135764513579,0.0591515566763244,3
0.41998291015625,-0.0340017005801201,2.89055585861206,1.15190541744232,-0.075301871434707,2.93341608884986,1.18947253572543,2074.198,2975.423,2952.039,985.2662,-0.1204958,0.003706089,0.007332788,0.0767669081687927,-0.31032532453537,0.123745605349541,-0.104427768518458,-0.0449323514193797,0.064645763297398,3
0.439971923828125,-0.0326421335339546,2.88402581214905,1.15464055538177,-0.0774805210173447,2.93247867679888,1.19082122360055,2135.096,2973.321,2826.414,1022.632,-0.1150832,0.00356356,0.01615323,0.0679782629013062,-0.326500862836838,0.136759370565414,-0.113606589893581,-0.0488817418305121,0.0703278909764972,4
0.459991455078125,-0.0314779207110405,2.87720894813538,1.15760028362274,-0.0798493430620752,2.93145943885026,1.19228763728888,2167.651,2976.057,2749.04,1041.382,-0.1098543,0.003475332,0.02393901,0.058210875838995,-0.340846538543701,0.147986173629761,-0.123092454730403,-0.0529632444654124,0.0762000931848968,4
0.47998046875,-0.0305262077599764,2.87013983726501,1.16074705123901,-0.082406855753501,2.93035901258777,1.1938708594761,2170.307,2985.472,2731.134,1030.822,-0.1055363,0.003480404,0.03074027,0.0475854724645615,-0.353456854820251,0.157341033220291,-0.132845337826091,-0.057159637597476,0.0822375924153778,4
0.5,-0.0298028811812401,2.86284828186035,1.16405045986176,-0.085166398670376,2.92917165836334,1.1955791479969,2145.148,2989.837,2764.538,1008.608,-0.1022787,0.00356848,0.03680032,0.0361664220690727,-0.364573180675507,0.165171191096306,-0.142884000065179,-0.0614789935111996,0.0884520025491718,4
0.519989013671875,-0.0293235536664724,2.85535836219788,1.16749835014343,-0.0881248588203387,2.92789871561062,1.19741057576073,2117.789,2991.069,2814.968,980.5989,-0.09983552,0.003685278,0.04239809,0.0239661894738674,-0.374494880437851,0.172397300601006,-0.153166947611899,-0.0659034585682559,0.0948176369253132,4
0.53997802734375,-0.0291030183434486,2.84769010543823,1.17108345031738,-0.0912913676125048,2.92653625533937,1.19937079554481,2087.995,2994.046,2873.772,946.9561,-0.09785359,0.003776589,0.04786822,0.011026949621737,-0.383415281772614,0.179254457354546,-0.16369851368286,-0.0704348972306956,0.101337178011302,4
0.55999755859375,-0.0291564762592316,2.83985996246338,1.17481422424316,-0.094676112580471,2.92507989413848,1.20146611391775,2069.661,2985.769,2908.044,939.8179,-0.09576993,0.003797,0.05328646,-0.00267287064343691,-0.391504734754562,0.186538100242615,-0.17448465888317,-0.0750758741803766,0.108014315705644,5
0.579986572265625,-0.0294977985322475,2.83188438415527,1.17869699001312,-0.0982734311149,2.92353206847056,1.2036930254546,2066.908,2988.709,2920.873,926.28,-0.09339333,0.003715019,0.05873896,-0.01706587895751,-0.398781269788742,0.194140672683716,-0.185481935470438,-0.0798076950675377,0.114822153786096,5
0.5999755859375,-0.030139833688736,2.82377982139587,1.18273711204529,-0.102092760004862,2.92188871794891,1.20605737197736,2064.516,2983.585,2913.898,939.7849,-0.09051073,0.003536928,0.06411985,-0.0321020260453224,-0.405229270458221,0.202005788683891,-0.196696165293826,-0.0846328648712294,0.121764296254622,5
0.6199951171875,-0.031094066798687,2.81556367874146,1.18693971633911,-0.106144683970236,2.92014528826426,1.20856570593183,2074.011,2985.066,2886.811,954.6431,-0.08715514,0.003273092,0.06928764,-0.047711618244648,-0.410805702209473,0.210132122039795,-0.208134604141382,-0.0895545055543457,0.128845234789665,5
0.639984130859375,-0.0323697328567505,2.80725455284119,1.19130349159241,-0.110420882305709,2.91830535958365,1.21121287640506,2085.68,2993.627,2853.244,966.0358,-0.0835881,0.00293878,0.0741446,-0.0637837946414948,-0.415457010269165,0.21819032728672,-0.219752140575416,-0.0945532069255159,0.136037043262338,5
0.65997314453125,-0.0339740253984928,2.79887127876282,1.19581985473633,-0.114931182097002,2.91636470358665,1.21400496683125,2085.93,2999.198,2829.036,982.5078,-0.08001574,0.002564687,0.07860913,-0.0802142173051834,-0.41916286945343,0.225820317864418,-0.231555939228262,-0.0996320517258771,0.143344156921357,5
0.67999267578125,-0.0359130464494228,2.79043197631836,1.20048499107361,-0.119686638739014,2.91431856344567,1.21694882102647,2086.818,3004.83,2805.851,998.7418,-0.076576,0.002170035,0.08260009,-0.0969510823488235,-0.421967387199402,0.233254447579384,-0.243554411173546,-0.104794659005432,0.150771782621969,6
0.699981689453125,-0.0381908155977726,2.78195357322693,1.20528924465179,-0.124676182095571,2.91217170233105,1.22003758604909,2086.536,3018.109,2795.982,995.2333,-0.07354373,0.001756551,0.0861911,-0.113888047635555,-0.423915714025497,0.240215569734573,-0.25570106256044,-0.110021023759057,0.158291138455704,6
0.719970703125,-0.0408103279769421,2.77345156669617,1.21022367477417,-0.129910105849058,2.90991969115882,1.22327763417886,2072.563,3020.598,2799.988,1003.415,-0.07089069,0.001343347,0.08940835,-0.130976125597954,-0.425099432468414,0.246720507740974,-0.268004259419652,-0.115314745656047,0.165907403394098,6
0.739990234375,-0.0437743104994297,2.76493906974792,1.21528625488281,-0.135400001298574,2.90755754251682,1.2266761409821,2065.069,3024.669,2803.627,1005.193,-0.06856149,0.0009299186,0.09229019,-0.148199841380119,-0.425622850656509,0.253130853176117,-0.280473432677602,-0.12067988256057,0.173626415629864,6
0.759979248046875,-0.0470843501389027,2.75642776489258,1.22047352790833,-0.141131974150567,2.90509123473139,1.23022450522921,2060.576,3032.762,2810.356,996.6805,-0.0665966,0.0005055396,0.09493794,-0.165501490235329,-0.425569593906403,0.259363442659378,-0.293060978423328,-0.126095951839638,0.181418706074426,6
0.779998779296875,-0.0507413409650326,2.74792742729187,1.22578108310699,-0.147126184485884,2.90251209348295,1.23393520697061,2047.705,3032.155,2822.132,1000.373,-0.06485223,8.112854E-05,0.09738518,-0.182849898934364,-0.425021171569824,0.265377908945084,-0.305795832832518,-0.131575403921268,0.189302187598958,6
0.79998779296875,-0.0547467060387135,2.73944616317749,1.23121476173401,-0.153366821193532,2.89982692185086,1.2377984583754,2046.817,3033.796,2817.914,1006.804,-0.063208,-0.0003451457,0.09960247,-0.200267761945724,-0.424060374498367,0.27168133854866,-0.318629798715703,-0.137097500901303,0.197247023847227,6
0.819976806640625,-0.0590993799269199,2.73099207878113,1.23676478862762,-0.159865102720482,2.89703089285078,1.24182120419666,2042.507,3040.578,2829.468,993.8283,-0.06178214,-0.0007829693,0.1017102,-0.217634245753288,-0.422706961631775,0.277498602867126,-0.331572942526109,-0.142666574093344,0.205259446433311,6
0.839996337890625,-0.0638003796339035,2.72257113456726,1.24244225025177,-0.166633637018892,2.89411858163313,1.24601124935738,2038.57,3034.286,2813.849,1023.117,-0.06027266,-0.001204281,0.10353,-0.235050052404404,-0.421047776937485,0.283874779939651,-0.344636106234817,-0.148287288494656,0.213346167053785,6
0.8599853515625,-0.068847119808197,2.71418976783752,1.24823617935181,-0.173653699721778,2.89109804476993,1.25035700258242,2047.81,3051.341,2816.57,994.5864,-0.0590998,-0.001646899,0.1052523,-0.252336353063583,-0.419073969125748,0.289695531129837,-0.357770416714212,-0.153938615363784,0.221476930914505,6
0.879974365234375,-0.0742386728525162,2.70585250854492,1.25415098667145,-0.180937139259224,2.88796418421271,1.25486579861444,2034.801,3041.482,2806.397,1030.513,-0.05792535,-0.002058091,0.1066912,-0.269578576087952,-0.416868090629578,0.295738339424133,-0.370986786595025,-0.159625250100867,0.229658493453734,6
0.899993896484375,-0.0799717754125595,2.69756388664246,1.26017808914185,-0.18849723509595,2.8847112861788,1.25954585807468,2041.764,3053.717,2810.083,1008.989,-0.0570497,-0.002468218,0.1079872,-0.286654144525528,-0.41443595290184,0.301357209682465,-0.384296738353309,-0.165352150505452,0.237897987633041,7
0.91998291015625,-0.0860445499420166,2.68932676315308,1.26632475852966,-0.196312316554895,2.88134867495511,1.26438376578173,2039.005,3051.903,2795.81,1031.227,-0.05630082,-0.00285118,0.1090197,-0.303640067577362,-0.411859899759293,0.307333797216415,-0.397650971463704,-0.171098103938772,0.246164894078718,7
0.939971923828125,-0.0924516320228577,2.68114399909973,1.2725727558136,-0.204394909045252,2.877870961208,1.26938727556053,2036.92,3061.578,2816.492,1003.87,-0.05597805,-0.003228284,0.1099951,-0.320354253053665,-0.409144043922424,0.312398105859756,-0.411061119720526,-0.176868116097511,0.254466414663641,7
0.959991455078125,-0.0991918295621872,2.67301607131958,1.27893924713135,-0.212759000778906,2.87427212620069,1.27456504678061,2028.863,3049.743,2799.688,1045.971,-0.05558709,-0.003547863,0.1106613,-0.337009966373444,-0.406397432088852,0.318323791027069,-0.424539267042903,-0.182667386354485,0.262810029909387,7
0.97998046875,-0.106258571147919,2.66494417190552,1.28540396690369,-0.221379956358585,2.87056276985637,1.27990182895749,2042.712,3071.773,2822.493,988.2112,-0.0557634,-0.003885552,0.1113748,-0.353335946798325,-0.403596609830856,0.323235809803009,-0.438035925118965,-0.188474621271639,0.271165104193453,7
1,-0.113650128245354,2.65692687034607,1.29198276996613,-0.230284798736574,2.86673126495361,1.28541435058594,2022.439,3051.246,2811.423,1046.001,-0.05579642,-0.004152401,0.111816,-0.369578838348389,-0.400860965251923,0.328941226005554,-0.451584000205995,-0.194303979492187,0.279552008056641,7
1.01998901367188,-0.121360123157501,2.64896368980408,1.298659324646,-0.239446912293295,2.86278906344998,1.29108613532954,2040.748,3071.989,2832.631,987.783,-0.05629709,-0.0044315,0.1123163,-0.385499566793442,-0.398157387971878,0.333830803632736,-0.46513400752272,-0.200134169097193,0.287940108062054,7
1.03997802734375,-0.129386335611343,2.64105200767517,1.30544805526733,-0.248880035413094,2.85873025410248,1.29692568790267,2023.955,3054.324,2823.785,1037.297,-0.05664437,-0.004645085,0.1125988,-0.401312232017517,-0.395584434270859,0.339434415102005,-0.478698517198992,-0.205970598662363,0.296337185718871,7
1.05999755859375,-0.137722387909889,2.63318991661072,1.31233358383179,-0.258599401509697,2.85454828239877,1.30294243851408,2039.273,3070.646,2845.609,986.5518,-0.0573517,-0.00486453,0.1129474,-0.416801959276199,-0.393102496862411,0.344276398420334,-0.492290296490434,-0.211818761581115,0.30475114456651,7
1.07998657226563,-0.146366700530052,2.62537360191345,1.31933760643005,-0.268575430648764,2.85025587575821,1.30911807577533,2033.664,3058.571,2822.415,1034.63,-0.05789126,-0.005025385,0.1130658,-0.432216048240662,-0.390810966491699,0.350198864936829,-0.50586005237609,-0.217657448443621,0.313151469876847,7
1.0999755859375,-0.155310735106468,2.61760091781616,1.32642889022827,-0.278822628233634,2.845846792911,1.31546157922208,2043.054,3076.236,2863.274,968.28,-0.05894588,-0.005203817,0.1133605,-0.447200983762741,-0.388632148504257,0.354565471410751,-0.519420764586993,-0.223492244065532,0.321546196721701,7
1.1199951171875,-0.164555206894875,2.60986661911011,1.33364593982697,-0.289357002179081,2.84131414609862,1.32198285851614,2029.124,3050.3,2825.56,1055.865,-0.05950727,-0.005283711,0.1132907,-0.462225317955017,-0.386711955070496,0.360849678516388,-0.532985466132485,-0.229328756186667,0.329943393154705,8
1.13998413085938,-0.174089819192886,2.60216856002808,1.34094667434692,-0.300146026259498,2.83667193044725,1.3286617783744,2061.228,3088.291,2874.5,937.3755,-0.06088519,-0.005426457,0.1135382,-0.476729422807693,-0.384906232357025,0.365035176277161,-0.546505271550557,-0.235145950758426,0.338312796746137,8
1.15997314453125,-0.183916360139847,2.59450030326843,1.34837567806244,-0.311204994190806,2.83191356549821,1.33550780633558,2027.007,3046.738,2832.644,1066.547,-0.06158826,-0.005440305,0.1133573,-0.491327702999115,-0.383417248725891,0.371452778577805,-0.559993461530388,-0.240949542090342,0.346662628875245,8
1.17999267578125,-0.194023251533508,2.58685946464539,1.35588145256042,-0.322550701230474,2.8270318247214,1.34253133946411,2065.946,3090.255,2898.135,918.8559,-0.06318349,-0.005528722,0.1135841,-0.505343496799469,-0.382040292024612,0.375290364027023,-0.573463232144024,-0.246745208083563,0.355001058539242,8
1.19998168945313,-0.204415246844292,2.5792384147644,1.36353087425232,-0.334147705564643,2.8220419577392,1.34971043758889,2036.017,3045.052,2827.278,1079.202,-0.06388444,-0.005473861,0.1132622,-0.519601702690125,-0.381048798561096,0.38246887922287,-0.586866312357874,-0.25251217906087,0.363298203668868,8
1.219970703125,-0.215076461434364,2.57163596153259,1.37123882770538,-0.346012104131023,2.81693703848901,1.35705506548116,2077.71,3102.136,2933.132,871.5888,-0.06589673,-0.005540973,0.1136118,-0.533060193061829,-0.380118161439896,0.385396689176559,-0.600216179640808,-0.2582562540006,0.371562407459373,8
1.239990234375,-0.22601743042469,2.56404232978821,1.37911105155945,-0.358161486344149,2.81170949873715,1.36457611182642,2026.096,3026.828,2823.05,1128.236,-0.06631804,-0.005384912,0.1131044,-0.547049880027771,-0.379678606987,0.393612712621689,-0.613526094901141,-0.263983138701136,0.379801879044709,8
1.25997924804688,-0.237217009067535,2.55645823478699,1.38702619075775,-0.370557537648727,2.80637582416637,1.37224985808977,2107.902,3124.005,2964.642,800.4221,-0.06874311,-0.005450958,0.1136223,-0.559977829456329,-0.379202604293823,0.395756125450134,-0.626748599474006,-0.269672413024826,0.387987239250554,8
1.27999877929688,-0.248691529035568,2.5488715171814,1.39512717723846,-0.383236695417198,2.80092033679326,1.3800988607405,2016.068,3009.811,2813.925,1181.726,-0.06888852,-0.005205947,0.1129572,-0.573725998401642,-0.379335343837738,0.405048370361328,-0.639917282339435,-0.275338529371412,0.396139281255613,8
1.29998779296875,-0.260413557291031,2.54128551483154,1.40324783325195,-0.396158759015336,2.79536033382764,1.388098233671,2131.343,3142.514,3007.353,728.2903,-0.07171946,-0.005270929,0.1136937,-0.586104333400726,-0.379299193620682,0.406033426523209,-0.652985332144132,-0.280961346123326,0.404229026602261,8
1.31997680664063,-0.272407919168472,2.53368496894836,1.41158699989319,-0.409341180862083,2.78968830598122,1.39625878075997,2006.705,2988.461,2793.453,1252.285,-0.07138177,-0.004922587,0.1128021,-0.59971684217453,-0.380024373531342,0.416959643363953,-0.665966334939128,-0.286546708978778,0.412264885703281,8
1.33999633789063,-0.284637272357941,2.52607774734497,1.4199081659317,-0.422802873722428,2.78389611561957,1.40459220990988,2159.84,3169.159,3069.034,622.8193,-0.07475173,-0.0050142,0.1138876,-0.611468851566315,-0.380361258983612,0.416057884693146,-0.678873453515705,-0.29210028151913,0.420255006953505,8
1.3599853515625,-0.297140210866928,2.51844334602356,1.42850542068481,-0.436500861174643,2.77800225429635,1.41307191666844,1994.212,2957.808,2740.147,1371.007,-0.073589,-0.004536428,0.1126036,-0.625143885612488,-0.381721049547195,0.429865300655365,-0.69166099897751,-0.297602405088682,0.428171106749628,9
1.37997436523438,-0.309861809015274,2.51079702377319,1.43701732158661,-0.45045340944128,2.77199886256629,1.42170920869753,2204.067,3218.483,3158.668,447.4814,-0.07799653,-0.004718056,0.1142924,-0.636079847812653,-0.382318705320358,0.425593286752701,-0.704342498157629,-0.303058899905815,0.436021558845703,9
1.39999389648438,-0.322862803936005,2.50310969352722,1.44588768482208,-0.464680216184654,2.76587746507559,1.43051627978847,1946.387,2896.107,2664.053,1582.354,-0.07542818,-0.004030961,0.1123799,-0.65004825592041,-0.384371727705002,0.443516105413437,-0.716930938559026,-0.308475354130225,0.443814403124744,9
1.41998291015625,-0.336063176393509,2.49540758132935,1.4545830488205,-0.479135601808478,2.75965771647838,1.43946485209513,2281.417,3297.391,3270.905,184.0871,-0.08128873,-0.00436279,0.1149046,-0.660022258758545,-0.385102093219757,0.434765696525574,-0.729381927869995,-0.313832666990362,0.451522158631107,9
1.43997192382813,-0.349554002285004,2.4876492023468,1.46374917030334,-0.493838640129536,2.75333140984416,1.4485667332187,1876.991,2815.21,2547.83,1877.799,-0.07687481,-0.003409911,0.1121429,-0.674541056156158,-0.387919932603836,0.458304286003113,-0.741708845898107,-0.319136595443637,0.459153108103047,9
1.45999145507813,-0.363226354122162,2.47987246513367,1.47266697883606,-0.508809800712713,2.74688973769103,1.45783459479497,2230.429,3501.773,3304.81,0,-0.08359982,-0.003378486,0.1161274,-0.683614730834961,-0.38884025812149,0.445888042449951,-0.753924423002454,-0.324392617007921,0.466715132239272,9
1.47998046875,-0.377197265625,2.47202801704407,1.48213291168213,-0.524000783579472,2.74035348215039,1.46723853683636,1876.515,2677.1,2421.655,2165.117,-0.07748094,-0.001816276,0.1125445,-0.698546588420868,-0.392226308584213,0.473294734954834,-0.76598572865452,-0.329582259876133,0.474181654997567,9
1.5,-0.391339540481567,2.46416091918945,1.49133205413818,-0.539455198877605,2.73370387899399,1.4768055561018,2108.842,3723.094,3212.958,0,-0.0839961,-0.0007068029,0.1174402,-0.707116544246674,-0.393361002206802,0.459957659244537,-0.777924000354858,-0.334718964672088,0.481572013878822,9
1.51998901367188,-0.405772745609283,2.45622730255127,1.50104117393494,-0.555123050061237,2.72696244033876,1.48650470234772,1985.212,2526.015,2409.111,2229.955,-0.07781491,0.001716115,0.113097,-0.721661031246185,-0.396682947874069,0.4854576587677,-0.789697369743256,-0.339784716610053,0.488860290373601,9
1.53997802734375,-0.420371234416962,2.44827270507813,1.5104820728302,-0.571024729446907,2.7201203919406,1.49634859938949,2165.553,3686.913,3209.549,0,-0.08448186,0.003559295,0.1167606,-0.729923248291016,-0.39772754907608,0.472042918205261,-0.801318788528229,-0.344785088448372,0.496054502206448,9
1.55999755859375,-0.435244470834732,2.44025707244873,1.52038073539734,-0.587181951496087,2.71316839067337,1.50635068951315,2076.384,2501.688,2521.496,2062.164,-0.07975528,0.006318611,0.1115327,-0.743662178516388,-0.400784492492676,0.494930446147919,-0.812800388649436,-0.349725300221754,0.503162159625937,9
1.57998657226563,-0.450277924537659,2.43221759796143,1.5300577878952,-0.603542258451077,2.7061290076447,1.51647849886779,2193.044,3657.49,3230.988,0,-0.08699482,0.008421491,0.1140291,-0.751676738262177,-0.401977241039276,0.483851820230484,-0.82410201904291,-0.354588076049064,0.510158407210813,9
1.5999755859375,-0.465561866760254,2.4241156578064,1.54011332988739,-0.620126809287134,2.69899313873865,1.52674512586702,2122.128,2537.318,2710.117,1794.901,-0.08455909,0.01104836,0.1090657,-0.764193117618561,-0.405097037553787,0.502775490283966,-0.835236272052476,-0.359378834064062,0.517051040221759,9
1.6199951171875,-0.48100072145462,2.41598057746887,1.54998207092285,-0.636958033083316,2.69175113334911,1.53716445517924,2252.143,3494.054,3352.755,0,-0.09206867,0.01276561,0.1107152,-0.771943688392639,-0.406757265329361,0.4934401512146,-0.846214826007804,-0.364102599125749,0.523847288101157,9
1.63998413085938,-0.496676534414291,2.40776968002319,1.56022214889526,-0.653981118189727,2.68442657539777,1.54770255578211,2115.228,2622.15,2846.952,1588.551,-0.09048196,0.01481995,0.1065223,-0.783790946006775,-0.410548537969589,0.512002348899841,-0.856999388527105,-0.368742895092007,0.53052344604056,9
1.65997314453125,-0.512503087520599,2.39950919151306,1.5703102350235,-0.671217966514002,2.67701004110563,1.55837298599979,2240.491,3455.156,3414.033,0,-0.0974962,0.01597214,0.1088248,-0.791328310966492,-0.41302090883255,0.504404067993164,-0.86760212115283,-0.373304954734798,0.537087042614082,9
1.67999267578125,-0.528560280799866,2.39115571975708,1.58077263832092,-0.688691692550512,2.66949158495151,1.56919005480539,2086.246,2654.383,2894.278,1543.268,-0.09518457,0.01748993,0.1058552,-0.802860975265503,-0.41767618060112,0.52311784029007,-0.878034183119987,-0.377793579561193,0.543544985919778,9
1.69998168945313,-0.544766366481781,2.38274002075195,1.59109675884247,-0.706345246291743,2.66189575395985,1.5801184455266,2292.787,3398.53,3426.303,0,-0.1010803,0.01800115,0.1088469,-0.810302317142487,-0.420780509710312,0.516206502914429,-0.88825927318574,-0.382193150160541,0.549874803759068,9
1.719970703125,-0.56120377779007,2.37421894073486,1.60181879997253,-0.724201244699276,2.65421281668394,1.59117215914002,2063.684,2687.251,2849.678,1586.459,-0.09735984,0.01902935,0.1066113,-0.821873843669891,-0.42604923248291,0.536103487014771,-0.898289055119065,-0.386508685126782,0.556083716560567,9
1.739990234375,-0.577786266803741,2.36563158035278,1.6123902797699,-0.74228345468553,2.64643254688532,1.60236590849663,2307.835,3414.746,3400.392,0,-0.1023538,0.01908459,0.11035,-0.829124867916107,-0.429370433092117,0.528571367263794,-0.908134108040217,-0.390744736359816,0.562178273303667,9
1.75997924804688,-0.594604790210724,2.35693407058716,1.62339568138123,-0.760532711099173,2.63858040167573,1.61366306754931,2053.522,2693.764,2742.445,1708.802,-0.09724107,0.0198687,0.1082653,-0.840925991535187,-0.434874892234802,0.550269067287445,-0.917760245372929,-0.394886594330938,0.568137310869129,9
1.77999877929688,-0.611562311649323,2.34817314147949,1.63422048091888,-0.779000609654483,2.63063418086074,1.62509557650306,2283.293,3494.696,3348.989,0,-0.1019597,0.01983476,0.1126815,-0.847874224185944,-0.438041359186172,0.541239500045776,-0.927192788821983,-0.398945154262308,0.57397650459845,9
1.79998779296875,-0.62875884771347,2.33930611610413,1.64549279212952,-0.797626646773287,2.62261991743975,1.63662598076079,2046.403,2655.613,2659.301,1848.544,-0.09596967,0.02071378,0.110335,-0.859826982021332,-0.443357288837433,0.563615262508392,-0.936399026186941,-0.402906341007953,0.579675604081262,9
1.81997680664063,-0.646089613437653,2.33038353919983,1.65656042098999,-0.816434558901977,2.61452739828301,1.64826897431355,2265,3555.854,3313.48,0,-0.1006797,0.0208742,0.114886,-0.866542160511017,-0.446126013994217,0.55338042974472,-0.945389654806995,-0.406774757334075,0.585241231480109,9
1.83999633789063,-0.663658916950226,2.32136487960815,1.66806733608246,-0.835449117627072,2.60634596486888,1.66003989195343,2059.144,2615.661,2640.27,1905.023,-0.09451132,0.02197808,0.1120873,-0.878462553024292,-0.450934499502182,0.575343787670135,-0.954174163352093,-0.410554485950274,0.590679260733698,9
1.8599853515625,-0.681360244750977,2.31229996681213,1.67936849594116,-0.854607925216182,2.59810246519841,1.67190010651166,2269.91,3578.393,3295.919,0,-0.09933857,0.02236236,0.1162707,-0.885066390037537,-0.453246176242828,0.565055370330811,-0.962722140342816,-0.41423244164655,0.595970865687568,9
1.87997436523438,-0.699293911457062,2.30315113067627,1.69108092784882,-0.873935340558452,2.5897864183221,1.683864697301,2082.216,2603.985,2679.422,1860.309,-0.09373581,0.02359114,0.1131715,-0.896687209606171,-0.457446724176407,0.585620582103729,-0.971043628570469,-0.417812945555442,0.601122263307942,9
1.89999389648438,-0.717357039451599,2.29396462440491,1.70258820056915,-0.893456683142228,2.58138692997148,1.69594933829086,2280.891,3539.095,3332.461,0,-0.09867544,0.02401847,0.1167973,-0.903154313564301,-0.459325879812241,0.575363993644714,-0.979147395688901,-0.421299770153459,0.606138881190213,9
1.91998291015625,-0.735647857189178,2.28470253944397,1.71450543403625,-0.91310780215452,2.5729316024492,1.70811431707208,2099.053,2622.11,2714.626,1794.743,-0.09344926,0.02518804,0.1135093,-0.914546370506287,-0.463110148906708,0.595859289169312,-0.98700543065471,-0.424680863071164,0.611003379164165,9
1.93997192382813,-0.754063904285431,2.27540802955627,1.72622263431549,-0.932913638115654,2.56440970454612,1.72037507301483,2255.741,3549.521,3349.281,0,-0.09840913,0.02559448,0.1171249,-0.920797944068909,-0.464724987745285,0.585862576961517,-0.9946270711101,-0.427960242035134,0.615721537675136,9
1.95999145507813,-0.77270120382309,2.26604413986206,1.7383371591568,-0.952900013794853,2.55581012544606,1.73274759164336,2096.099,2616.403,2747.744,1768.257,-0.09317069,0.02670479,0.1139576,-0.931869626045227,-0.468197852373123,0.605727732181549,-1.00202031904361,-0.431141350077486,0.620298310335216,9
1.97998046875,-0.79146021604538,2.25665259361267,1.75026023387909,-0.973001172086935,2.54716115859433,1.74519116617712,2280.709,3518.786,3354.37,0,-0.09783495,0.0269661,0.1174132,-0.937951683998108,-0.469575941562653,0.596152126789093,-1.0091596546337,-0.434213206731958,0.624717899159203,9
2,-0.810433924198151,2.24719786643982,1.76256990432739,-0.993273599084619,2.53843849960327,1.7577407641983,2094.423,2632.935,2762.657,1733.734,-0.09252886,0.02790457,0.1143669,-0.948684811592102,-0.472733855247498,0.615484595298767,-1.01606400046349,-0.437183953857422,0.628992018127441,9
2.01998901367188,-0.829523980617523,2.23772144317627,1.7746856212616,-1.01365055070775,2.52967086658596,1.77035506794184,2295.797,3491.899,3361.645,0,-0.09695025,0.02792903,0.1177306,-0.954501748085022,-0.47382727265358,0.605787336826324,-1.02270954399163,-0.440043345582587,0.633105926142498,9
2.03997802734375,-0.848823547363281,2.22818756103516,1.7871915102005,-1.03415783849082,2.52084715356021,1.78305005597715,2080.875,2651.58,2748.618,1737.027,-0.09135494,0.0286715,0.1147343,-0.96497517824173,-0.476690262556076,0.625294804573059,-1.02910434715509,-0.442794850733705,0.637064613927399,9
2.05999755859375,-0.868231952190399,2.21863842010498,1.79949140548706,-1.05482201812353,2.5119559343546,1.79584216754118,2280.178,3503.255,3357.242,0,-0.09557286,0.02852664,0.1182812,-0.970422387123108,-0.477459222078323,0.614997029304504,-1.03525504859546,-0.445441325732794,0.640872191117535,9
2.07998657226563,-0.887846231460571,2.2090380191803,1.81219577789307,-1.07557499515204,2.50302650811029,1.80868924892322,2072.679,2651.743,2698.643,1788.195,-0.08948967,0.02917442,0.1152241,-0.980717182159424,-0.480015069246292,0.635217666625977,-1.04114045847258,-0.4479736531836,0.644515540192423,9
2.0999755859375,-0.907560408115387,2.19942998886108,1.82467186450958,-1.09644304044274,2.49404757120739,1.82160756304102,2249.974,3542.32,3336.614,0,-0.09365379,0.02901478,0.1190542,-0.985706984996796,-0.480397492647171,0.623806059360504,-1.04676782045836,-0.450394949835787,0.647999145330045,9
2.1199951171875,-0.927475452423096,2.18977952003479,1.83755338191986,-1.11745308225396,2.48500753716864,1.83461377976925,2058.534,2621.675,2660.203,1862.168,-0.08704329,0.02973216,0.1157859,-0.995754718780518,-0.48251861333847,0.64407867193222,-1.0521429102862,-0.45270770082608,0.651326581984514,9
2.13998413085938,-0.947482943534851,2.18013048171997,1.85019767284393,-1.13853583516761,2.47593621757383,1.84766500813359,2248.411,3568.875,3301.027,0,-0.09111793,0.02965051,0.1195413,-1.00037038326263,-0.48245245218277,0.632212460041046,-1.05724722779031,-0.454903946049977,0.654486397671922,9
2.15997314453125,-0.967682003974915,2.17045068740845,1.86322867870331,-1.15971797923886,2.46682213274057,1.86077776435915,2063.429,2605.671,2648.387,1873.374,-0.08458253,0.03042874,0.1160272,-1.00995814800262,-0.483993917703629,0.651548206806183,-1.06208716414724,-0.456986435452193,0.657482548835001,8
2.17999267578125,-0.987964808940887,2.16078233718872,1.87600660324097,-1.18102676265167,2.45765355853653,1.8739689163698,2251.851,3547.746,3307.569,0,-0.08873653,0.03035283,0.1194059,-1.01413333415985,-0.483415067195892,0.638895273208618,-1.06666760390386,-0.458957270716794,0.660318059240953,7
2.19998168945313,-1.00843119621277,2.15109324455261,1.88917529582977,-1.20239187218348,2.44846074877705,1.8871949369313,2067.525,2610.889,2631.872,1869.958,-0.08230606,0.0311083,0.1155395,-1.02332389354706,-0.484454751014709,0.658432602882385,-1.07097279461286,-0.460809674005774,0.6629831773745,7
2.219970703125,-1.02897095680237,2.14142370223999,1.90207982063293,-1.22384034501537,2.43923207011845,1.90047256334669,2210.558,3585.17,3296.788,0,-0.08667418,0.03109472,0.1189572,-1.02698040008545,-0.483483105897903,0.645224630832672,-1.07500824518964,-0.462546015651526,0.665481313516697,7
2.239990234375,-1.04968309402466,2.13174200057983,1.91535925865173,-1.24539969505118,2.42995568409656,1.91381882803312,2057.665,2586.195,2637.012,1883.85,-0.08028632,0.0319027,0.1149772,-1.03561544418335,-0.484081029891968,0.663971543312073,-1.07877792518082,-0.464168003639063,0.667814925005999,6
2.25997924804688,-1.07045984268188,2.12208676338196,1.92837297916412,-1.26699874763832,2.42066221517598,1.92718967049012,2223.245,3566.967,3288.194,0,-0.08463686,0.03187688,0.1181212,-1.03883993625641,-0.482762664556503,0.650688350200653,-1.08226887897249,-0.465670063529659,0.669975991700231,4
2.27999877929688,-1.09139680862427,2.11242771148682,1.94174242019653,-1.28869796983554,2.41132564607061,1.9406225227075,2055.146,2588.64,2651.788,1852.253,-0.07847431,0.03261649,0.1140675,-1.04684090614319,-0.482943147420883,0.668469429016113,-1.08549040888332,-0.467056197851165,0.67197027217779,4
2.29998779296875,-1.11238849163055,2.10280179977417,1.95484173297882,-1.31042570636616,2.40197680804417,1.95407302665558,2231.681,3535.945,3295.335,0,-0.08282325,0.03245255,0.1169346,-1.04958713054657,-0.481313437223434,0.654965937137604,-1.08843144721369,-0.468321644481621,0.673790915005368,0
2.31997680664063,-1.13352847099304,2.09317827224731,1.96829116344452,-1.33220946960077,2.39260386329221,1.96755821380235,2041.731,2603.192,2653.072,1832.849,-0.07671928,0.03303858,0.112854,-1.05700707435608,-0.481180340051651,0.672472894191742,-1.09109597826566,-0.469468117754907,0.675440386655758,0
2.33999633789063,-1.15471279621124,2.08359241485596,1.98146116733551,-1.35407709248145,2.38319483607731,1.98109531406483,2214.584,3532.439,3297.538,0,-0.08101176,0.03272702,0.115759,-1.0592075586319,-0.479298025369644,0.658501088619232,-1.09348640563071,-0.470496651869278,0.67692017506657,0
2.3599853515625,-1.17603552341461,2.07401371002197,1.99498999118805,-1.37595634130987,2.37378080654189,1.99463961134278,2030.154,2606.744,2618.525,1857.957,-0.07465959,0.03319451,0.1116564,-1.06614887714386,-0.478938221931458,0.676441133022308,-1.09559452046326,-0.471403714787811,0.678225198571351,0
2.37997436523438,-1.19739031791687,2.06447744369507,2.00822043418884,-1.39787493938994,2.36434984612278,2.00820826768196,2185.423,3555.492,3282.542,0,-0.07894355,0.03282411,0.1147991,-1.06774115562439,-0.476816415786743,0.66151750087738,-1.09742336725307,-0.472190616469403,0.679357341854299,0
2.39999389648438,-1.21887397766113,2.05495381355286,2.02180957794189,-1.41986083522252,2.35488992936084,2.02181858453579,2008.562,2582.707,2585.118,1918.645,-0.07213065,0.03330012,0.1105876,-1.0741913318634,-0.476186543703079,0.679460525512695,-1.09897439291323,-0.472857979480329,0.680317500623536,0
2.41998291015625,-1.24037933349609,2.04547810554504,2.0350923538208,-1.4418413890156,2.34543231112926,2.03542559441269,2184.898,3572.191,3246.753,0,-0.07630915,0.03293752,0.1137041,-1.07526206970215,-0.473785310983658,0.664141118526459,-1.10024227275454,-0.473403512755585,0.681102378642803,0
2.43997192382813,-1.26200079917908,2.03602266311646,2.04871726036072,-1.46384447819578,2.33596499655018,2.04904655476771,2003.952,2570.589,2566.664,1933.681,-0.06950478,0.03341446,0.1093467,-1.08107304573059,-0.472776979207993,0.681249976158142,-1.10122909805959,-0.473828116115641,0.681713270515638,0
2.45999145507813,-1.28363215923309,2.02662205696106,2.06201863288879,-1.48589810917879,2.32647593524532,2.06269880290633,2188.314,3548.638,3247.502,0,-0.07373867,0.03300021,0.1121749,-1.08156406879425,-0.470034629106522,0.665074646472931,-1.10193535162022,-0.474131997292339,0.68215047511319,0
2.47998046875,-1.30536866188049,2.01724791526794,2.07566952705383,-1.50792940965705,2.3169964821328,2.07633722739875,1999.41,2576.395,2537.056,1944.478,-0.06693909,0.03341693,0.1075257,-1.08682715892792,-0.468699514865875,0.682539045810699,-1.10235860927677,-0.474314113237503,0.682412491765153,0
2.5,-1.32710218429565,2.00793409347534,2.08898282051086,-1.52999999932945,2.30750012397766,2.08999997377396,2145.137,3588.754,3228.912,0,-0.07139722,0.03303834,0.110479,-1.08667945861816,-0.4657062292099,0.665662169456482,-1.10250000050292,-0.474374949932098,0.682500019669533,0
2.51998901367188,-1.34892797470093,1.99865210056305,2.10263609886169,-1.5520369476803,2.29801824074336,2.10364189456856,1986.206,2551.551,2521.277,1977.656,-0.06458911,0.03350041,0.1057168,-1.09129679203033,-0.464098930358887,0.682659149169922,-1.10235904000526,-0.474314298567936,0.682412758406603,0
2.53997802734375,-1.37073922157288,1.9894345998764,2.11593914031982,-1.57406826106879,2.28853878207593,2.11728032705303,2138.346,3581.086,3222.859,0,-0.06909465,0.03315224,0.1085484,-1.09056258201599,-0.460873812437057,0.665154278278351,-1.10193621258339,-0.474132367740737,0.682151008090402,0
2.55999755859375,-1.39262962341309,1.98025465011597,2.12957239151001,-1.59612191359838,2.27904971150017,2.13093258853001,1976.615,2538.502,2520.365,1981.109,-0.06224659,0.03361607,0.1036321,-1.09451687335968,-0.458994120359421,0.681668043136597,-1.10123038958312,-0.473828671822132,0.681714070030222,0
2.57998657226563,-1.41449475288391,1.97114312648773,2.14285802841187,-1.61812503288753,2.26958238396605,2.14455356752391,2143.685,3578.114,3200.786,0,-0.06674308,0.03323563,0.1062645,-1.09325861930847,-0.455573499202728,0.664285600185394,-1.1002439936861,-0.473404253224357,0.681103443981416,0
2.5999755859375,-1.43642330169678,1.96207451820374,2.15645170211792,-1.64010562536668,2.26012474908893,2.15816060134934,1968.804,2541.731,2529.107,1954.177,-0.06018584,0.03361555,0.1013575,-1.0964275598526,-0.453438878059387,0.679681897163391,-1.09897654259203,-0.472858904427064,0.680318831377119,0
2.6199951171875,-1.45831501483917,1.95307779312134,2.16968727111816,-1.66209156852628,2.2506648119635,2.17177094750084,2154.345,3531.13,3216.585,0,-0.06472227,0.03306444,0.103703,-1.09458434581757,-0.449833303689957,0.661775946617126,-1.09742594550583,-0.472191725819537,0.679358937915576,0
2.63998413085938,-1.48025798797607,1.94412672519684,2.18324112892151,-1.6840102224118,2.24123382753286,2.18533963838626,1953.487,2561.76,2508.655,1950.576,-0.05813254,0.03326816,0.09871516,-1.09714674949646,-0.44756144285202,0.677698254585266,-1.09559752564474,-0.471405007833448,0.678227058921845,0
2.65997314453125,-1.50215148925781,1.93524932861328,2.19642615318298,-1.70588953556828,2.23181977031887,2.19888397548635,2113.357,3564.254,3201.033,0,-0.06276112,0.03263224,0.1013542,-1.09467363357544,-0.4438636302948,0.65925657749176,-1.09348983658457,-0.470498128112872,0.676922298990445,0
2.67999267578125,-1.52408361434937,1.92641973495483,2.2099244594574,-1.72775723139253,2.2224107117184,2.21242112090437,1925.53,2541.666,2487.99,1997.157,-0.05587845,0.03280273,0.09644996,-1.09660649299622,-0.441483110189438,0.674921095371246,-1.09109983431736,-0.469469776906228,0.675442773735451,0
2.69998168945313,-1.54595565795898,1.9176664352417,2.22304701805115,-1.74954107593572,2.21303773198162,2.22590635838503,2124.116,3553.487,3179.326,0,-0.06038505,0.03209247,0.09906042,-1.09360373020172,-0.437656819820404,0.656127214431763,-1.08843572622736,-0.468323485621663,0.673793563918671,0
2.719970703125,-1.56785356998444,1.90896475315094,2.23647475242615,-1.77126890221328,2.20368885533958,2.23935691789074,1910.791,2539.206,2468.927,2012.085,-0.05338306,0.03219636,0.09411343,-1.09490120410919,-0.435092121362686,0.671388924121857,-1.08549510920706,-0.467058220269158,0.671973181902092,0
2.739990234375,-1.58968031406403,1.90034294128418,2.24951314926147,-1.79296822271738,2.1943522439355,2.25278983096475,2121.299,3540.082,3173.904,0,-0.05784333,0.03139535,0.09662373,-1.09133958816528,-0.431088179349899,0.651924669742584,-1.08227399942825,-0.465672266718727,0.669979161506271,0
2.75997924804688,-1.6115220785141,1.8917760848999,2.26286697387695,-1.81456738183361,2.18505872917844,2.26616073936833,1901.523,2543.213,2429.543,2037.219,-0.05067996,0.03141798,0.09151337,-1.09208106994629,-0.428341001272202,0.667687296867371,-1.07878346314437,-0.464170386470068,0.667818353269249,0
2.77999877929688,-1.63328039646149,1.88329231739044,2.27581524848938,-1.83612684690458,2.17578229366013,2.27950707526701,2087.077,3572.177,3152.47,0,-0.05528349,0.03061636,0.09419499,-1.08791720867157,-0.424178183078766,0.647417187690735,-1.07501419914593,-0.462548577472581,0.665484999299265,0
2.79998779296875,-1.65504169464111,1.87486743927002,2.28907656669617,-1.85757544288233,2.1665535620153,2.29278477791556,1883.604,2520.506,2399.406,2086.83,-0.04795075,0.03067222,0.08896681,-1.08806240558624,-0.42124804854393,0.663068294525146,-1.07097916161324,-0.460812413548163,0.662987118851036,0
2.81997680664063,-1.67670857906342,1.86652934551239,2.30191898345947,-1.87894068379188,2.15736069572766,2.30601087980613,2075.898,3577.21,3136.414,0,-0.0525969,0.02991624,0.09160986,-1.08334743976593,-0.416913598775864,0.642126441001892,-1.0666743814704,-0.458960186914335,0.660322254877504,0
2.83999633789063,-1.69836568832397,1.85825395584106,2.31506681442261,-1.90024960698239,2.14819206138118,2.31920211834584,1871.863,2503.941,2387.597,2105.931,-0.04518425,0.03000426,0.08622125,-1.08285772800446,-0.413762718439102,0.65738970041275,-1.06209435025759,-0.456989527434725,0.657486997379635,0
2.8599853515625,-1.71991860866547,1.85006880760193,2.3277952671051,-1.92143189875059,2.13907791299805,2.33231496600284,2081.177,3574.927,3112.58,0,-0.04987195,0.02925137,0.0886626,-1.07764446735382,-0.409260869026184,0.636427700519562,-1.05725481901126,-0.454907212340279,0.654491096999312,0
2.87997436523438,-1.74144685268402,1.8419508934021,2.3408100605011,-1.94251480742951,2.13000652638179,2.34536629079331,1861.901,2505.083,2391.325,2088.128,-0.04274374,0.02929879,0.08323352,-1.07641959190369,-0.405895888805389,0.650737941265106,-1.05215090364426,-0.452711140144745,0.65133153025393,0
2.89999389648438,-1.76286041736603,1.83392572402954,2.35339617729187,-1.96352501326936,2.1209664217661,2.35837260906308,2087.351,3535.868,3124.312,0,-0.04752304,0.02843542,0.08540066,-1.07066988945007,-0.401254177093506,0.629306733608246,-1.04677621342161,-0.450398561093403,0.648004340974112,0
2.91998291015625,-1.78423690795898,1.82597029209137,2.36627674102783,-1.98439323028747,2.1119874109737,2.37129102948832,1847.459,2521.287,2375.158,2082.472,-0.04044436,0.02834833,0.07989456,-1.06882381439209,-0.397777169942856,0.644026637077332,-1.0411492471255,-0.447977434695422,0.644520980787238,0
2.93997192382813,-1.80548715591431,1.81810855865479,2.37872004508972,-2.00514638691846,2.10305790745146,2.38413822205285,2052.238,3559.463,3112.303,0,-0.04534777,0.02742296,0.08228453,-1.06251335144043,-0.393078297376633,0.622162103652954,-1.03526422946899,-0.445445276006189,0.640877874515594,0
2.95999145507813,-1.82668828964233,1.81031775474548,2.3914532661438,-2.02581075424974,2.0941666074844,2.39693044981124,1819.664,2505.485,2359.964,2118.749,-0.0380619,0.0273045,0.0768744,-1.0600506067276,-0.389533817768097,0.636661171913147,-1.02911391720548,-0.442798968459032,0.637070538244476,0
2.97998046875,-1.84775364398956,1.80262267589569,2.40374445915222,-2.04631823718085,2.08534281049189,2.40962555865248,2061.984,3545.731,3094.093,0,-0.04286624,0.02630909,0.07923871,-1.05327212810516,-0.38475826382637,0.61456423997879,-1.0227194988233,-0.440047628868552,0.633112088657521,0
3,-1.86875772476196,1.79500079154968,2.41631960868835,-2.06672639957428,2.07656174835205,2.42225918334961,1802.834,2505.584,2342.98,2130.484,-0.0354781,0.02612191,0.07383445,-1.0502063035965,-0.381091505289078,0.628760874271393,-1.01606400046349,-0.437183953857422,0.628992018127441,0
3.01998901367188,-1.88961696624756,1.7874767780304,2.42844390869141,-2.0869680292999,2.06785234056679,2.43478971639231,2065.391,3530.427,3083.829,0,-0.04026061,0.02502699,0.07610693,-1.04295587539673,-0.376206427812576,0.606218039989471,-1.00917036754089,-0.434217816196637,0.624724530959079,0
3.03997802734375,-1.91040301322937,1.78002858161926,2.44085383415222,-2.10706940546153,2.05920327997188,2.4472334257977,1783.234,2510.605,2318.705,2148.33,-0.03276487,0.02475295,0.0706495,-1.03931796550751,-0.372405529022217,0.62049800157547,-1.00203140433628,-0.431146119769234,0.620305172659443,0
3.05999755859375,-1.9310348033905,1.77268052101135,2.45280075073242,-2.12705600675913,2.05060360379452,2.45960608409476,2048.557,3535.352,3072.581,0,-0.03757561,0.02359634,0.0729791,-1.0315797328949,-0.367406934499741,0.597348153591156,-0.994638524886308,-0.427965170275055,0.615728628108227,0
3.07998657226563,-1.95158290863037,1.76541090011597,2.46504139900208,-2.14686207530873,2.04208160581513,2.47186698402085,1770.23,2505.973,2280,2183.848,-0.02991848,0.02327525,0.06743916,-1.02741205692291,-0.363473236560822,0.612031817436218,-0.987017247723776,-0.424685947625853,0.611010694492843,0
3.0999755859375,-1.97196674346924,1.75824391841888,2.47680258750916,-2.16651343412374,2.03362617511243,2.48403211125138,2024.068,3552.974,3055.402,0,-0.03484374,0.02212968,0.06990138,-1.01918888092041,-0.35835799574852,0.588060617446899,-0.979159571260203,-0.421305008961644,0.606146418448853,0
3.1199951171875,-1.99225652217865,1.75115835666656,2.48885631561279,-2.18603502400946,2.02522658035469,2.49611690533293,1748.925,2484.777,2255.129,2229.928,-0.02696504,0.02184577,0.06425507,-1.01448583602905,-0.354272842407227,0.602687478065491,-0.971056158224178,-0.417818336715394,0.601130019760458,0
3.13998413085938,-2.01237344741821,1.74417781829834,2.50042629241943,-2.20536269329809,2.01691042421237,2.50808165332716,2023.828,3558.258,3028.304,0,-0.03190201,0.02073755,0.06663792,-1.00584554672241,-0.349023103713989,0.578500509262085,-0.962735018414262,-0.414237982720922,0.59597883782726,0
3.15997314453125,-2.03238391876221,1.7372829914093,2.51227569580078,-2.22452176174551,2.00866681230185,2.51994202936911,1739.048,2478.165,2245.495,2233.541,-0.02414848,0.0204663,0.06091933,-1.00054085254669,-0.344750851392746,0.592470288276672,-0.954187384555097,-0.410560174664568,0.590687445288169,0
3.17999267578125,-2.05221319198608,1.73049569129944,2.52363085746765,-2.24353658854737,2.00048526354177,2.53171311296128,2027.938,3529.735,3031.069,0,-0.02916641,0.01932263,0.06306036,-0.991468787193298,-0.339372754096985,0.567755520343781,-0.945403214201559,-0.406780591562751,0.585249625391267,0
3.19998168945313,-2.07192516326904,1.72379612922668,2.53527188301086,-2.26234477504321,1.99239262633251,2.54335627636037,1729.117,2487.007,2226.283,2233.735,-0.02147786,0.01898185,0.05720735,-0.985602736473083,-0.334966033697128,0.582052052021027,-0.936412917636688,-0.402912318110697,0.579684203550396,0
3.219970703125,-2.0914466381073,1.71720600128174,2.54641032218933,-2.2809710931091,1.98437824202785,2.55488685453773,1998.797,3548.895,3017.852,0,-0.02666836,0.01783018,0.05946399,-0.976076483726501,-0.329517960548401,0.55692458152771,-0.927207006545169,-0.398951271751399,0.573985306046387,0
3.239990234375,-2.11083936691284,1.71070539951324,2.55782914161682,-2.2994392795179,1.97643189735754,2.5663195416865,1705.302,2473.704,2215.167,2259.649,-0.01892496,0.01748844,0.05365302,-0.969641864299774,-0.325029969215393,0.570939540863037,-0.917774783907129,-0.394892849856044,0.568146310914365,0
3.25997924804688,-2.13003396987915,1.7043149471283,2.56874203681946,-2.31768882969315,1.96857962575054,2.57761688259161,2006.503,3533.383,3003.772,0,-0.02411705,0.01630195,0.05583208,-0.959730625152588,-0.319522142410278,0.545643508434296,-0.908148960779607,-0.390751127078637,0.562187467856884,0
3.27999877929688,-2.14908885955811,1.69801580905914,2.5799286365509,-2.33577134012187,1.96079922667992,2.58881081793642,1687.952,2476.178,2205.83,2261.979,-0.01640241,0.01591047,0.05004521,-0.952738881111145,-0.314945042133331,0.559331297874451,-0.898304216251578,-0.386515208538549,0.556093102023818,0
3.29998779296875,-2.1679379940033,1.69182801246643,2.59060287475586,-2.35362764460945,1.95311615770631,2.59986472102797,2009.684,3513.675,2998.543,0,-0.02161901,0.01464292,0.05213047,-0.942449867725372,-0.309382289648056,0.533713698387146,-0.888274735793772,-0.382199803288803,0.549884375850026,0
3.31997680664063,-2.18663644790649,1.68573355674744,2.60155296325684,-2.37128151039117,1.94552019245235,2.61079330491711,1667.646,2483.534,2188.159,2271.813,-0.01385856,0.01416722,0.04635246,-0.934936344623566,-0.304732501506805,0.54750394821167,-0.878049940595779,-0.377800359562814,0.543554740547926,0
3.33999633789063,-2.20512199401855,1.67975115776062,2.61198139190674,-2.38875555478454,1.93800159931817,2.62161057080077,1996.913,3512.083,2990.285,0,-0.01910019,0.01283293,0.04850576,-0.924272358417511,-0.299122750759125,0.521424174308777,-0.867618167158097,-0.373311858882592,0.53709697585572,0
3.3599853515625,-2.22344779968262,1.67386317253113,2.62269377708435,-2.40599272667425,1.93058492580486,2.63228120132087,1653.208,2481.851,2154.697,2300.906,-0.01119593,0.01229512,0.04271809,-0.916285812854767,-0.294401466846466,0.535619378089905,-0.857015715678588,-0.368749920209162,0.530533553325099,0
3.37997436523438,-2.24155330657959,1.66808843612671,2.6328706741333,-2.42301614089521,1.92326022624472,2.64281950566132,1979.134,3521.478,2975.315,0,-0.01651959,0.01094704,0.04500407,-0.905267775058746,-0.288734614849091,0.508848607540131,-0.846231427202182,-0.364109742155906,0.523857565031302,0
3.39999389648438,-2.25948977470398,1.66241025924683,2.64333319664001,-2.43984769972619,1.91601807669906,2.65323904237604,1631.532,2466.772,2128.618,2343.184,-0.008398012,0.01041798,0.03916895,-0.896831572055817,-0.283922255039215,0.523123383522034,-0.835253140422974,-0.35938609205264,0.51706148254665,0
3.41998291015625,-2.27720022201538,1.65684652328491,2.65325546264648,-2.45643259034873,1.90888206159239,2.66350587971929,1979.26,3524.833,2950.215,0,-0.01373712,0.009088011,0.04142528,-0.885509848594666,-0.278171926736832,0.496112734079361,-0.824119146742881,-0.354595445619869,0.510169010073001,0
3.43997192382813,-2.29473209381104,1.65138208866119,2.66345500946045,-2.47279324219826,1.90184253016523,2.67363390258008,1619.003,2461.921,2113.1,2354.813,-0.005682121,0.008567953,0.03555034,-0.876597046852112,-0.273232728242874,0.509974777698517,-0.812817768079999,-0.3497327781052,0.503172918321354,0
3.45999145507813,-2.31203126907349,1.64603364467621,2.67310380935669,-2.48895081463434,1.8948903781363,2.68363620960993,1982.1,3502.161,2949.092,0,-0.01111124,0.007219247,0.03763521,-0.864972770214081,-0.267406731843948,0.482440292835236,-0.80133641229185,-0.344792671461508,0.496065412155666,0
3.47998046875,-2.32914352416992,1.64078617095947,2.68303632736206,-2.50485284867397,1.88804817714046,2.69348032619939,1608.272,2468.153,2092.573,2360.944,-0.00311217,0.006652351,0.03165762,-0.855598032474518,-0.262373745441437,0.496626883745193,-0.789715229532172,-0.33979240117828,0.488871346433721,0
3.5,-2.34601640701294,1.63565623760223,2.69241046905518,-2.5205447997813,1.88129636896134,2.70319439144611,1959.283,3515.962,2936.515,0,-0.008719722,0.005311257,0.03383357,-0.843660414218903,-0.256511062383652,0.468703836202621,-0.777924000354857,-0.334718964672089,0.481572013878822,0
3.51998901367188,-2.36269307136536,1.63062763214111,2.70206642150879,-2.53597583877076,1.87465682397749,2.71274693966292,1589.68,2458.92,2077.269,2383.875,-0.0007334346,0.004749076,0.02788719,-0.833836436271667,-0.251433402299881,0.482797384262085,-0.766004036374581,-0.329590137176618,0.474192988348404,0
3.53997802734375,-2.37912607192993,1.62571632862091,2.71115612983704,-2.55116718971613,1.86812041006291,2.72215110956251,1956.522,3504.125,2930.506,0,-0.00640437,0.003409892,0.03004974,-0.821632623672485,-0.24555678665638,0.454482585191727,-0.753942941956194,-0.324400585196356,0.466726596353819,0
3.55999755859375,-2.39535355567932,1.62090754508972,2.72052764892578,-2.56613872308604,1.86167857751006,2.73141920191151,1571.66,2455.899,2065.907,2397.183,0.001644775,0.0028357,0.02411107,-0.811387121677399,-0.240443170070648,0.468573927879333,-0.741727567798258,-0.319144650954242,0.459164697851087,0
3.57998657226563,-2.41133236885071,1.61621642112732,2.729332447052,-2.58084213759183,1.85535210901407,2.74052131591136,1959.428,3498.553,2913.513,0,-0.004047472,0.001477914,0.02624009,-0.798944354057312,-0.234549909830093,0.440237313508987,-0.72940084364523,-0.31384080592,0.451533868397061,0
3.5999755859375,-2.42709827423096,1.6116281747818,2.7384135723114,-2.59529790318687,1.84913219692586,2.7494701234383,1555.848,2459.483,2054.427,2401.031,0.003922099,0.0008739663,0.0203625,-0.788281142711639,-0.229395762085915,0.454054862260818,-0.716950039288888,-0.308483572640672,0.443826227386424,0
3.6199951171875,-2.44261026382446,1.60715854167938,2.74691915512085,-2.60952509409627,1.84301063413925,2.75827743234631,1963.686,3473.603,2914.494,0,-0.001835983,-0.0005411544,0.02240288,-0.775615513324738,-0.223501056432724,0.425280809402466,-0.704361775018033,-0.303067194200314,0.436033492140578,0
3.63998413085938,-2.45790195465088,1.60279202461243,2.75571036338806,-2.623478029369,1.83700707589127,2.76691496395061,1541.174,2467.822,2031.655,2412.729,0.006158988,-0.001217065,0.01650885,-0.76456892490387,-0.218328431248665,0.439565092325211,-0.691680442442073,-0.297610771068296,0.428183143180413,0
3.65997314453125,-2.47293543815613,1.59854316711426,2.76392197608948,-2.63717640706374,1.8311130466576,2.77539491228788,1938.135,3490.96,2893.957,8.642697,0.0003308716,-0.002623214,0.01871634,-0.751690328121185,-0.212442949414253,0.410576909780502,-0.678893054168409,-0.29210871513241,0.420267140691237,0
3.67999267578125,-2.48774147033691,1.59439778327942,2.77241444587708,-2.65063849381582,1.82532068681534,2.78372858527554,1523.919,2457.93,2015.54,2436.814,0.008361833,-0.00328421,0.01291406,-0.740293622016907,-0.207256615161896,0.424628257751465,-0.665986083416798,-0.286555206197011,0.41227711095171,0
3.69998168945313,-2.50228691101074,1.59037053585052,2.78033471107483,-2.66382131180924,1.81964848851807,2.79188937759817,1923.573,3489.129,2856.973,44.23249,0.002716896,-0.004604073,0.01509568,-0.727266728878021,-0.201367437839508,0.396016180515289,-0.653005218467595,-0.280969902652754,0.404241337183804,0
3.719970703125,-2.51659727096558,1.58644819259644,2.78851699829102,-2.67674377421065,1.81408831395855,2.7998889974069,1524.801,2458.563,2013.006,2417.812,0.01052034,-0.005217133,0.009380273,-0.715529501438141,-0.19612318277359,0.409116148948669,-0.639937296597115,-0.275347140947358,0.396151671034529,0
3.739990234375,-2.53064489364624,1.58264350891113,2.79614281654358,-2.68942333385363,1.80863265367006,2.80773824883709,1901.517,3470.049,2818.47,108.3264,0.005188605,-0.006407033,0.01132976,-0.702376246452332,-0.190225854516029,0.381288141012192,-0.62676873176137,-0.26968107538565,0.387999702095468,0
3.75997924804688,-2.5444507598877,1.57894539833069,2.80400586128235,-2.70181978867538,1.80329880547712,2.81541224489679,1540.666,2473.41,2021.276,2358.794,0.01250701,-0.006975351,0.00570281,-0.690283954143524,-0.184913471341133,0.393151938915253,-0.6135463347885,-0.263991847359231,0.379814408499146,0
3.77999877929688,-2.55799031257629,1.57536482810974,2.81133413314819,-2.7139695770734,1.79807109095524,2.82293354268985,1876.077,3445.43,2779.103,183.5186,0.007422748,-0.008036887,0.007353295,-0.676992833614349,-0.17903271317482,0.366413593292236,-0.60023651686137,-0.258265004538452,0.371574997167698,0
3.79998779296875,-2.57128119468689,1.57189035415649,2.81886672973633,-2.72583438304408,1.79296599641037,2.83027842278479,1548.968,2496.496,2046.236,2281.956,0.01408416,-0.008560465,0.001925612,-0.664535820484161,-0.173709556460381,0.376625627279282,-0.586886736182787,-0.252520966862155,0.36331084698941,0
3.81997680664063,-2.58430337905884,1.56853222846985,2.82589530944824,-2.73743179640664,1.78797595343468,2.83745777411762,1849.469,3410.389,2739.153,272.757,0.00934366,-0.009503757,0.003266672,-0.651105165481567,-0.167905032634735,0.351427346467972,-0.573483731835694,-0.246754028528195,0.355013748824923,0
3.83999633789063,-2.59706926345825,1.56527948379517,2.83308935165405,-2.74877791451009,1.78309403578861,2.84448156171422,1555.781,2528.927,2082.605,2185.625,0.01529279,-0.009997507,-0.001812015,-0.638301908969879,-0.162636250257492,0.359704434871674,-0.560014026276881,-0.240958390526246,0.346675359432959,0
3.8599853515625,-2.60956430435181,1.56214046478271,2.83981990814209,-2.75983729406747,1.77833549372837,2.85132784449154,1826.146,3364.978,2691.631,378.3939,0.01105672,-0.01084759,-0.0007882957,-0.624747157096863,-0.156955763697624,0.336529642343521,-0.546525890176286,-0.235154822377061,0.338325560657667,0
3.87997436523438,-2.62179708480835,1.55910503864288,2.84667253494263,-2.77062673073895,1.77369310055059,2.85800701976334,1565.648,2571.314,2121.171,2073.785,0.0162423,-0.01133175,-0.00540888,-0.611642003059387,-0.151777431368828,0.342634379863739,-0.533006127404299,-0.22933764615472,0.329956183466192,0
3.89999389648438,-2.63375687599182,1.55618000030518,2.85310411453247,-2.78116151864576,1.76916027562219,2.86452855531919,1796.198,3310.025,2643.196,502.119,0.01266265,-0.01209608,-0.004701545,-0.597990155220032,-0.146252572536469,0.32157900929451,-0.519441457145543,-0.223501147495394,0.321559006401168,0
3.91998291015625,-2.6454496383667,1.55335640907288,2.85961723327637,-2.79140913007042,1.76475101471128,2.87087231495249,1584.12,2617.725,2153.148,1956.786,0.01713404,-0.01258184,-0.008861402,-0.584641337394714,-0.141171082854271,0.325660020112991,-0.505880764601328,-0.217666360335509,0.313164291730931,0
3.93997192382813,-2.65686821937561,1.55064022541046,2.86574935913086,-2.80138557332546,1.7604584298882,2.87704820857125,1769.498,3257.291,2593.59,621.8609,0.01415868,-0.01327533,-0.008453405,-0.570915162563324,-0.13580197095871,0.306602329015732,-0.492311016653647,-0.211827676888493,0.304763971334578,0
