t,x_s1,x_s2,x_s3,x_s_d1,x_s_d2,x_s_d3,propellers_rpms1,propellers_rpms2,propellers_rpms3,propellers_rpms4,rollRad,pitchRad,yawRad,v_s1,v_s2,v_s3,v_s_d1,v_s_d2,v_s_d3,insideCount
0,-0.0599999986588955,2.94000005722046,1.17999994754791,-0.0599999986588955,2.94000005722046,1.17999994754791,0,0,0,0,0,0,0,0,0,0,-1.06581410364015E-15,4.44089209850063E-16,4.44089209850063E-16,0
0.0200004577636719,-0.0599999986588955,2.94000005722046,1.1771354675293,-0.0600018691155303,2.93999925241522,1.18000110544967,0,0,0,0,0.0163538,-0.002474609,-2.024222E-05,3.71994488546079E-08,3.50004931704007E-08,-0.143225952982903,-0.000279999361409376,-0.000120475902936966,0.000173332942931458,5
0.0399971008300781,-0.0599999986588955,2.94000005722046,1.17048275470734,-0.0600148681826738,2.93999365927978,1.18000915249146,0,0,0,0,0.03270752,-0.004950816,-5.430172E-05,3.62924410524101E-08,3.44428769949445E-08,-0.332637369632721,-0.00111080915396111,-0.000477950146533378,0.000687643781479785,6
0.05999755859375,-0.0600004345178604,2.94013261795044,1.16416549682617,-0.0600498857373401,2.93997859220429,1.18003083002592,3185.327,2835.745,1501.183,2767.688,0.0312807,-0.00494336,-0.01646952,-2.17782071558759E-05,0.0066221822053194,-0.315862983465195,-0.00247936261166862,-0.00106680046642749,0.00153484356504269,6
0.0799980163574219,-0.0599162168800831,2.94038772583008,1.15857708454132,-0.0601175407449857,2.93994948214456,1.18007271169851,3065.889,3067.279,2154.909,2024.011,0.01897576,-0.004311125,-0.04351499,0.00421079527586699,0.0127501804381609,-0.279417842626572,-0.00437227586895222,-0.00188126815916228,0.00270664704326441,6
0.0999984741210938,-0.0596375539898872,2.94068765640259,1.15374839305878,-0.0602281887669101,2.93990187339187,1.18014120809498,2640.299,3831.799,2620.253,1134.771,-0.005853628,-0.002888465,-0.070145,0.0139331696555018,0.0149980382993817,-0.241433054208755,-0.00677637982016689,-0.00291568692648091,0.00419490191241918,6
0.119998931884766,-0.0590848997235298,2.94089889526367,1.14957010746002,-0.0603919230601972,2.93983142309968,1.18024256742227,2092.131,4101.959,3169.405,755.9783,-0.04011999,-0.0004511395,-0.08993548,0.0276327729225159,0.0105617847293615,-0.208912149071693,-0.00967861374975049,-0.00416443710735115,0.00599152296740588,5
0.139999389648438,-0.0582314804196358,2.94085621833801,1.14596664905548,-0.0606185767455666,2.93973390035084,1.18038287685052,1510.276,4074.798,3735.842,701.9816,-0.07649344,0.002388297,-0.09949782,0.0426709391176701,-0.00213014334440231,-0.180174320936203,-0.0130660253322238,-0.00562194567796536,0.00808849210174802,4
0.159999847412109,-0.0570994503796101,2.94039487838745,1.14297795295715,-0.0609177249752248,2.93960518522485,1.18056806385509,1135.155,3846.989,4069.844,879.9616,-0.1062793,0.004335378,-0.09870048,0.056601520627737,-0.0230685286223888,-0.149433255195618,-0.0169257706321904,-0.00728268625174051,0.0104778583075938,4
0.180000305175781,-0.0557377301156521,2.93938803672791,1.14071106910706,-0.0612986871007165,2.9394412678651,1.18080389755851,1100.956,3565.296,4009.968,1148.941,-0.1236298,0.00449213,-0.09000047,0.0680860206484795,-0.05034039914608,-0.11334216594696,-0.0212451141043368,-0.00914117907931815,0.0131517376757159,3
0.199996948242188,-0.0541964806616306,2.9377772808075,1.13924837112427,-0.0617704296168641,2.93923829023936,1.18109592864822,1373.32,3339.686,3594.831,1386.297,-0.1278759,0.003022997,-0.07724925,0.0770624876022339,-0.0805364102125168,-0.0731322020292282,-0.0260104776919234,-0.0111915819022102,0.0161017247421801,3
0.219997406005859,-0.0525142438709736,2.93557620048523,1.13858377933502,-0.0623419453860714,2.93899238297017,1.18144972413443,1790.69,3212.88,3017.002,1527.173,-0.1229747,0.0008613032,-0.06425995,0.0841119289398193,-0.110051348805428,-0.0332324616611004,-0.0312111627562649,-0.0134292913950757,0.0193211965399932,3
0.239997863769531,-0.0507195889949799,2.93284702301025,1.13860690593719,-0.0630217183703222,2.93869989564571,1.18187053599376,2159.397,3168.488,2517.219,1558.473,-0.1149639,-0.0009880328,-0.05362168,0.0897328406572342,-0.13645350933075,0.00115351751446724,-0.0368338920540454,-0.0158485947310391,0.02280193382306,3
0.259998321533203,-0.0488372705876827,2.92966485023499,1.13913774490356,-0.063818066443955,2.93835724931701,1.18236351338666,2351.927,3159.192,2273.852,1495.736,-0.1090506,-0.00190416,-0.04623621,0.0941160246729851,-0.15910741686821,0.0265412833541632,-0.04286636357961,-0.0184441987007453,0.0265363210638542,3
0.279998779296875,-0.0468917451798916,2.92608761787415,1.13999605178833,-0.0647390625194898,2.93796097043536,1.18293365383054,2352.63,3152.186,2324.218,1363.713,-0.1078149,-0.001744903,-0.04152241,0.0972763225436211,-0.178861439228058,0.0429132804274559,-0.0492963837173861,-0.0212108567320638,0.030516809833474,3
0.299999237060547,-0.0449087247252464,2.92214369773865,1.14106202125549,-0.065792536715479,2.93750768991949,1.18358580454179,2229.254,3144.052,2572.741,1194.445,-0.1110879,-0.000737163,-0.03798626,0.0991509631276131,-0.197190701961517,0.0532978884875774,-0.0561118672418845,-0.0241433688900884,0.0347359188016424,3
0.319999694824219,-0.0429168939590454,2.91783547401428,1.14229393005371,-0.0669860785243584,2.93699414222283,1.18432466377777,2074.002,3132.626,2873.269,1032.517,-0.1169325,0.0006862853,-0.03398034,0.0995916351675987,-0.215405941009521,0.0615976899862289,-0.0633008373176985,-0.0272365818771378,0.0391862337367069,3
0.340000152587891,-0.040948897600174,2.91315102577209,1.14370727539063,-0.0683270389802989,2.93641716440073,1.1851547821788,1955.229,3107.317,3109.308,921.641,-0.1228436,0.002069939,-0.02837492,0.0983998402953148,-0.234224021434784,0.0706678926944733,-0.0708514254995047,-0.0304853890327553,0.0438604075056398,3
0.359996795654297,-0.0390401259064674,2.90807723999023,1.14534330368042,-0.0698222324154443,2.93577382443646,1.1860803781411,1904.647,3065.717,3222.316,880.7499,-0.1267089,0.0030928,-0.02087066,0.0954384356737137,-0.25369268655777,0.0818015038967133,-0.0787503322603694,-0.0338840679420472,0.0487502070677249,3
0.379997253417969,-0.0372256487607956,2.90261030197144,1.14724338054657,-0.0714791088463715,2.935060916796,1.18710606357981,1923.687,3021.197,3207.275,896.077,-0.1274195,0.003642489,-0.01188409,0.0907238274812698,-0.273342281579971,0.0950014516711235,-0.0869889214763108,-0.0374289027221294,0.0538502862508218,3
0.399997711181641,-0.0355372279882431,2.89676117897034,1.14943146705627,-0.0733040467096699,2.93427569701629,1.18823578705104,1991.384,2989.097,3098.659,939.2767,-0.125037,0.003791016,-0.002208826,0.0844212472438812,-0.29245138168335,0.109406098723412,-0.0955541759940907,-0.0411142924556206,0.059152586816983,3
0.419998168945313,-0.0340019352734089,2.89055466651917,1.15190577507019,-0.0753034649285836,2.93341540321397,1.18947352217404,2072.381,2974.65,2953.34,986.5042,-0.1205016,0.003707643,0.007338343,0.0767647549510002,-0.310324609279633,0.123717926442623,-0.104434660908044,-0.0449353170220673,0.0646500300148815,3
0.439998626708984,-0.0326424986124039,2.88402462005615,1.15464162826538,-0.0774835548069347,2.93247737144397,1.19082310166083,2136.468,2972.787,2825.179,1023.213,-0.1150757,0.003564046,0.01614992,0.067971795797348,-0.326507270336151,0.136794254183769,-0.113619049702587,-0.0488871029382406,0.0703356041918149,4
0.459999084472656,-0.0314783416688442,2.8772075176239,1.15760147571564,-0.0798502821969742,2.93145903476675,1.19228821865812,2168.281,2977.711,2748.905,1039.129,-0.1098682,0.003474827,0.02394414,0.0582081228494644,-0.340849727392197,0.147992998361588,-0.123096124252221,-0.0529648233581361,0.0762023647937057,4
0.479999542236328,-0.03052669018507,2.87013840675354,1.16074764728546,-0.0824093896672336,2.93035792231548,1.19387242808941,2168.208,2984.086,2732.582,1032.831,-0.1055421,0.003482012,0.03074663,0.0475823432207108,-0.353458404541016,0.157310500741005,-0.13285477482153,-0.0571636980729742,0.0822434343651008,4
0.5,-0.0298035442829132,2.86284685134888,1.16405189037323,-0.085166398670376,2.92917165836334,1.1955791479969,2146.727,2989.565,2763.031,1009.024,-0.1022702,0.003569086,0.03679626,0.0361574217677116,-0.364581286907196,0.165213704109192,-0.142884000065179,-0.0614789935111996,0.0884520025491718,4
0.520000457763672,-0.0293242651969194,2.8553569316864,1.16749894618988,-0.0881266117110474,2.92789796139072,1.19741166088358,2116.711,2992.481,2816.985,978.0112,-0.09984031,0.003686367,0.04241029,0.0239638201892376,-0.374494552612305,0.172353029251099,-0.153172907027918,-0.0659060227384819,0.0948213260877149,4
0.539997100830078,-0.0291039757430553,2.84768843650818,1.17108547687531,-0.0912944900108037,2.92653491185861,1.1993727284581,2089.095,2991.964,2871.099,950.8882,-0.09782856,0.003777201,0.04785918,0.0110145937651396,-0.383423805236816,0.17932465672493,-0.163708678212627,-0.0704392707438901,0.101343470339432,4
0.55999755859375,-0.0291574597358704,2.83985829353333,1.17481589317322,-0.094676112580471,2.92507989413848,1.20146611391775,2070.526,2988.921,2908.948,934.5967,-0.09578698,0.003795843,0.05329606,-0.00267448369413614,-0.391504198312759,0.186518669128418,-0.17448465888317,-0.0750758741803766,0.108014315705644,5
0.579998016357422,-0.029498890042305,2.83188271522522,1.17869830131531,-0.0982755538235842,2.92353115512831,1.2036943395124,2064.114,2985.617,2921.789,931.3286,-0.09338588,0.003717124,0.05873823,-0.0170711725950241,-0.398782193660736,0.194122642278671,-0.185488294752812,-0.0798104312890852,0.11482609048482,5
0.599998474121094,-0.0301411151885986,2.82377815246582,1.18273913860321,-0.102097262171133,2.92188678079254,1.20606015903275,2066.795,2984.804,2912.485,937.8187,-0.09050114,0.003537969,0.06411415,-0.0321111157536507,-0.405232608318329,0.202044308185577,-0.196709126405959,-0.0846384416756885,0.121772319800455,5
0.619998931884766,-0.0310954116284847,2.8155620098114,1.18694186210632,-0.106145477944935,2.92014494663912,1.20856619743999,2074.478,2986.258,2886.774,952.8936,-0.08717325,0.003272183,0.06929015,-0.0477153621613979,-0.410806775093079,0.210135743021965,-0.208136802817102,-0.0895554515830839,0.128846595874672,5
0.639999389648438,-0.0323711149394512,2.80725288391113,1.1913046836853,-0.110424235525481,2.91830391678686,1.21121495220784,2082.945,2991.943,2855.51,968.1434,-0.08359823,0.002940726,0.07414914,-0.0637849718332291,-0.415456682443619,0.218139782547951,-0.219761081350814,-0.0945570538913933,0.136042578028218,5
0.659999847412109,-0.0339756608009338,2.79886960983276,1.19582235813141,-0.114937365519793,2.91636204303257,1.21400879466451,2087.794,2998.958,2826.577,983.6407,-0.08000296,0.002566724,0.07859895,-0.0802272632718086,-0.419169783592224,0.225885555148125,-0.231571827761751,-0.0996388881179631,0.143353992680462,5
0.680000305175781,-0.035914707928896,2.79043030738831,1.20048701763153,-0.119688496929273,2.91431776391831,1.21694997133476,2087.958,3007.466,2806.825,993.7417,-0.07660743,0.002168415,0.08261009,-0.0969528630375862,-0.42196998000145,0.233234405517578,-0.243559016194652,-0.104796640417365,0.150774633349401,6
0.699996948242188,-0.0381925739347935,2.78195190429688,1.20529079437256,-0.124680083855354,2.91217002351282,1.22004000142426,2083.103,3014.922,2797.436,1000.5,-0.07354692,0.001759245,0.08619368,-0.113893002271652,-0.423921138048172,0.240186586976051,-0.255710395848158,-0.11002503961202,0.158296916205407,6
0.719997406005859,-0.040812361985445,2.77344965934753,1.21022617816925,-0.129917262555645,2.90991661182791,1.22328206452116,2074.945,3021.571,2798.317,1001.926,-0.07088056,0.001345239,0.08940459,-0.130989164113998,-0.42510798573494,0.246767982840538,-0.26802079535749,-0.115321860608138,0.165917639927336,6
0.739997863769531,-0.0437765009701252,2.76493716239929,1.21528899669647,-0.135402141159277,2.90755662179454,1.22667746565781,2066.086,3026.292,2803.492,1002.551,-0.06858013,0.0009286266,0.09229766,-0.148207142949104,-0.425630003213882,0.253139227628708,-0.280478211503383,-0.120681938755799,0.173629373950669,6
0.759998321533203,-0.0470866076648235,2.75642561912537,1.22047531604767,-0.141137563960274,2.90508882959244,1.2302279655877,2057.506,3030.677,2812.651,999.4986,-0.0666014,0.0005076117,0.09494609,-0.16550549864769,-0.425576120615005,0.259314656257629,-0.293073051970232,-0.126101146749576,0.181426180175103,6
0.779998779296875,-0.0507440008223057,2.74792504310608,1.22578465938568,-0.147126184485884,2.90251209348295,1.23393520697061,2049.967,3032.242,2818.739,1001.749,-0.06483039,8.36854E-05,0.09737563,-0.182869717478752,-0.425032585859299,0.265467584133148,-0.305795832832518,-0.131575403921268,0.189302187598958,6
0.799999237060547,-0.0547492541372776,2.7394437789917,1.23121583461761,-0.153370467664426,2.8998253528763,1.23780071571459,2045.856,3035.591,2823.21,1000.174,-0.06322664,-0.0003462109,0.09962532,-0.200262561440468,-0.424061179161072,0.271559357643127,-0.318637178554805,-0.1371006762399,0.197251592319181,6
0.819999694824219,-0.0591025836765766,2.73098945617676,1.23676955699921,-0.159872691993147,2.89702762739878,1.24182590231796,2042.684,3037.072,2821.884,1005.432,-0.06171982,-0.0007781757,0.1016833,-0.21766722202301,-0.422719031572342,0.277688890695572,-0.331587821991737,-0.142672976311719,0.205268657531342,6
0.840000152587891,-0.0638033896684647,2.72256851196289,1.24244439601898,-0.166634951706069,2.89411801595997,1.24601206321137,2042.065,3040.973,2819.381,1006.515,-0.06033285,-0.001211738,0.1035605,-0.235039472579956,-0.42104497551918,0.283742189407349,-0.344638604388044,-0.148288363380199,0.213347713529636,6
0.859996795654297,-0.0688505619764328,2.71418690681458,1.24823999404907,-0.173657794122436,2.89109628306371,1.25035953721147,2040.887,3043.23,2813.222,1013.631,-0.05905453,-0.001639975,0.1052298,-0.252358555793762,-0.419082760810852,0.289782583713531,-0.357777960707973,-0.153941861333544,0.221481601006014,6
0.879997253417969,-0.0742420554161072,2.70584964752197,1.25415313243866,-0.180945630646592,2.88796053060595,1.25487105518773,2040.65,3047.712,2810.021,1014.371,-0.05795358,-0.002060754,0.1067061,-0.269575357437134,-0.416866272687912,0.295655161142349,-0.371001963495383,-0.159631780297098,0.229667888678032,6
0.899997711181641,-0.0799756646156311,2.69756078720093,1.2601832151413,-0.188498701076517,2.88471065540831,1.25954676558649,2039.527,3050.122,2804.139,1021.29,-0.05702573,-0.002465022,0.1079652,-0.286680549383163,-0.414444625377655,0.301505893468857,-0.384299280991351,-0.165353244531568,0.237899561647111,7
0.919998168945313,-0.086048036813736,2.68932366371155,1.26632511615753,-0.196318384305134,2.8813460641717,1.26438752200817,2038.849,3055.213,2805.757,1017.299,-0.05636261,-0.002855441,0.1090546,-0.303618133068085,-0.411855727434158,0.307097941637039,-0.397661187980262,-0.171102499820431,0.246171218589148,7
0.939998626708984,-0.0924560725688934,2.68114042282104,1.27257907390594,-0.204405885800988,2.87786623821667,1.26939407069523,2035.416,3055.377,2804.379,1024.968,-0.05589336,-0.003217631,0.1099475,-0.320402234792709,-0.409158796072006,0.312699258327484,-0.411079067636589,-0.176875838584386,0.254477525278661,7
0.959999084472656,-0.0991956293582916,2.67301249504089,1.27893996238708,-0.212762239776093,2.87427073255068,1.27456705187416,2035.386,3060.232,2811.381,1015.812,-0.05570427,-0.003561179,0.1107168,-0.336978524923325,-0.406391650438309,0.318043351173401,-0.424544411524882,-0.18266959988136,0.262813214588797,7
0.979999542236328,-0.106263279914856,2.66494011878967,1.28540980815887,-0.221388311353785,2.87055917493534,1.27990700109753,2031.882,3058.752,2812.385,1023.619,-0.05567125,-0.003871704,0.1113279,-0.353381603956223,-0.403614819049835,0.323489964008331,-0.438048819599778,-0.188480169406503,0.271173086491326,7
1,-0.11365433037281,2.6569230556488,1.29198348522186,-0.230284798736574,2.86673126495361,1.28541435058594,2033.352,3063.403,2822.321,1010.784,-0.0558891,-0.004163053,0.1118664,-0.369552373886108,-0.400857001543045,0.328683584928513,-0.451584000205995,-0.194303979492187,0.279552008056641,7
1.01999664306641,-0.121365249156952,2.64895963668823,1.29866528511047,-0.239450461003889,2.86278753653895,1.29108833215045,2030.543,3060.345,2822.309,1021.253,-0.05619004,-0.004418184,0.1122728,-0.385546565055847,-0.398173600435257,0.334090918302536,-0.465139182559269,-0.200136395770846,0.2879433116562,7
1.03999710083008,-0.129390999674797,2.64104819297791,1.30544912815094,-0.248889165986195,2.85872632547195,1.29693134016237,2034.065,3065.572,2834.052,1004.345,-0.05671202,-0.004656271,0.1126482,-0.401287406682968,-0.395576506853104,0.339190572500229,-0.478711464817306,-0.205976169660809,0.296345200911388,7
1.05999755859375,-0.137728244066238,2.63318586349487,1.31234240531921,-0.258599401509697,2.85454828239877,1.30294243851408,2032.316,3061.161,2829.668,1020.323,-0.05724252,-0.004854943,0.1128915,-0.416862785816193,-0.39311870932579,0.344666361808777,-0.492290296490434,-0.211818761581115,0.30475114456651,7
1.07999801635742,-0.146371349692345,2.62537002563477,1.3193359375,-0.268581219802083,2.85025338484727,1.30912165953701,2038.775,3068.952,2843.941,995.514,-0.05802442,-0.005042429,0.1131459,-0.432155132293701,-0.390792012214661,0.349679291248322,-0.50586781946303,-0.217660790404144,0.31315627807366,7
1.09999847412109,-0.155317321419716,2.61759686470032,1.32644045352936,-0.278834517009062,2.84584167750307,1.31546893894041,2034.784,3061.252,2836.257,1021.297,-0.05874241,-0.005180913,0.1132516,-0.447299093008041,-0.388655841350555,0.355225145816803,-0.519436284009554,-0.223498921639497,0.321555803983559,7
1.11999893188477,-0.164559930562973,2.60986328125,1.33364307880402,-0.289359035362208,2.84131327127672,1.32198411715334,2044.662,3072.138,2855.244,985.459,-0.0597592,-0.005315669,0.1134114,-0.462130725383759,-0.386680513620377,0.360128849744797,-0.532988048794549,-0.229329867434001,0.329944991945551,8
1.13999938964844,-0.174096807837486,2.60216450691223,1.34095907211304,-0.300154365346813,2.83666834237095,1.3286669406667,2038.53,3061.111,2843.359,1022.075,-0.06063432,-0.005392901,0.1134004,-0.476844221353531,-0.384939700365067,0.365797013044357,-0.546515580872639,-0.235150386571708,0.338319178707607,8
1.15999984741211,-0.183920994400978,2.59449696540833,1.34837019443512,-0.311219947869739,2.83190713134792,1.33551706337518,2051.883,3075.874,2869.686,971.5419,-0.06188281,-0.005475992,0.1135045,-0.491208553314209,-0.38337779045105,0.370557397603989,-0.560011455688534,-0.240957284473894,0.346673768116318,8
1.17999649047852,-0.194031104445457,2.58685517311096,1.35589873790741,-0.322552888823985,2.82703088346102,1.34253269368871,2042.165,3059.696,2851.503,1024.619,-0.06286924,-0.005489307,0.1134012,-0.505506277084351,-0.382092922925949,0.376427173614502,-0.573465794611364,-0.246746310641672,0.355002644828593,8
1.19999694824219,-0.204419180750847,2.57923531532288,1.36351847648621,-0.334156660511822,2.8220381046756,1.34971598112778,2060.301,3079.967,2888.582,952.6833,-0.06432866,-0.005525527,0.1134979,-0.519404172897339,-0.380988985300064,0.380987763404846,-0.58687652428584,-0.252516572968185,0.36330452533874,8
1.21999740600586,-0.21508564054966,2.57163119316101,1.37126290798187,-0.346028131869748,2.8169301422008,1.35706498741494,2046.031,3056.546,2858.348,1031.426,-0.0653396,-0.005474394,0.1133176,-0.533321499824524,-0.380206018686295,0.387220859527588,-0.600233974716476,-0.258263910724523,0.371573423458908,8
1.23999786376953,-0.226020738482475,2.56403946876526,1.37909305095673,-0.358166167196084,2.81170748469733,1.36457900949675,2072.32,3086.437,2910.04,926.0541,-0.06700779,-0.005472796,0.1134594,-0.546757698059082,-0.379584074020386,0.391505509614944,-0.613531154887641,-0.263985315871967,0.379805011417393,8
1.2599983215332,-0.237227469682693,2.55645275115967,1.3870575428009,-0.370569492049568,2.80637068052165,1.37225725843336,2048.154,3050.803,2863.273,1045.705,-0.06795695,-0.005355617,0.1132096,-0.560334026813507,-0.379331350326538,0.398226410150528,-0.626761182173783,-0.269677827009021,0.387995028541113,8
1.27999877929688,-0.248693689703941,2.54886889457703,1.39509963989258,-0.383236695417198,2.80092033679326,1.3800988607405,2086.614,3094.443,2935.56,892.1119,-0.06982169,-0.005326322,0.113441,-0.573313295841217,-0.379192471504211,0.402104288339615,-0.639917282339435,-0.275338529371412,0.396139281255613,8
1.29999923706055,-0.26042577624321,2.54127931594849,1.40329039096832,-0.396166231882091,2.79535711846185,1.3881028597315,2049.603,3042.644,2863.401,1069.118,-0.07059827,-0.005140434,0.1131074,-0.58660501241684,-0.379481822252274,0.409538120031357,-0.652992789539212,-0.280964554832093,0.404233643085061,8
1.31999969482422,-0.272408217191696,2.53368330001831,1.41154599189758,-0.409356423791328,2.7896817473746,1.39626821685929,2104.747,3106.272,2966.021,845.6029,-0.07269684,-0.005097823,0.1134834,-0.599118709564209,-0.379801720380783,0.412779837846756,-0.665981146317813,-0.286553081901244,0.412274054652251,8
1.34000015258789,-0.284652054309845,2.5260705947876,1.41997051239014,-0.422805463423808,2.78389500134342,1.4045938130584,2047.812,3030.273,2856.37,1108.308,-0.07317355,-0.004837899,0.1130292,-0.612194836139679,-0.380634635686874,0.42122346162796,-0.678875903610019,-0.292101335726266,0.4202565236786,8
1.3599967956543,-0.297136396169662,2.51844334602356,1.42843985557556,-0.436508776648329,2.77799884848916,1.41307681672372,2127.683,3123.533,3004.285,780.5714,-0.07558903,-0.004800082,0.1136184,-0.62421578168869,-0.381366163492203,0.423467874526978,-0.691668290305691,-0.297605542343502,0.428175620429107,9
1.37999725341797,-0.309879660606384,2.51078844070435,1.43710672855377,-0.450469530727146,2.77199192602736,1.42171918854144,2040.226,3011.386,2839.762,1170.632,-0.07559649,-0.004453338,0.1129808,-0.637164831161499,-0.382740497589111,0.433341532945633,-0.704356955827446,-0.303065120637236,0.436030508832034,9
1.39999771118164,-0.322852551937103,2.50311207771301,1.44578850269318,-0.464682951063699,2.76587628833354,1.43051797280888,2157.693,3148.751,3053.508,688.4755,-0.07846311,-0.004445881,0.1138741,-0.648644149303436,-0.383814603090286,0.43408727645874,-0.716933326165324,-0.308476381450513,0.44381588116678,9
1.41999816894531,-0.336084276437759,2.49539732933044,1.45470929145813,-0.47914673136562,2.75965292774086,1.43947174182117,2025.528,2984.24,2806.871,1266.082,-0.07778721,-0.003993144,0.1129551,-0.661587178707123,-0.385735243558884,0.446042358875275,-0.729391385793766,-0.313836736470737,0.451528013536465,9
1.43999862670898,-0.349532783031464,2.4876561164856,1.46359801292419,-0.4938584461112,2.75332288788357,1.44857899406484,2196.181,3185.486,3121.399,555.6098,-0.08134732,-0.004050668,0.1142948,-0.672425031661987,-0.387055635452271,0.444434314966202,-0.741725227577294,-0.31914364402254,0.459163249142831,9
1.45999908447266,-0.36324355006218,2.47986507415771,1.47278738021851,-0.508815552717244,2.74688726276417,1.45783815555978,1996.731,2942.178,2751.022,1415.667,-0.07963384,-0.00345412,0.1129333,-0.685539066791534,-0.38954684138298,0.459468156099319,-0.753929052770513,-0.324394609067776,0.466717998286247,9
1.47999954223633,-0.377155154943466,2.47204542160034,1.4818731546402,-0.524015393706918,2.74034719582071,1.46724758120123,2250.251,3240.994,3215.984,358.486,-0.08424643,-0.00362616,0.1149288,-0.695579946041107,-0.390982955694199,0.454290330410004,-0.76599717101811,-0.329587183205524,0.474188738365705,9
1.5,-0.39133757352829,2.46416354179382,1.49135136604309,-0.539455198877605,2.73370387899399,1.4768055561018,1947.493,2879.336,2658.867,1645.781,-0.0809878,-0.002825081,0.112887,-0.709119975566864,-0.394100040197372,0.473908752202988,-0.777924000354858,-0.334718964672088,0.481572013878822,9
1.51999664306641,-0.405699819326401,2.45625400543213,1.50061726570129,-0.555129074991064,2.72695984797977,1.48650843206629,2326.108,3324.628,3350.367,66.62024,-0.08721106,-0.003179814,0.1158558,-0.718113362789154,-0.395474821329117,0.463298082351685,-0.789701834723693,-0.339786637766398,0.488863054409188,9
1.53999710083008,-0.42034900188446,2.44826745986938,1.51041269302368,-0.571040013494911,2.72011381564173,1.49635806094328,1865.541,2785.282,2511.633,1999.437,-0.08163867,-0.002072472,0.1127747,-0.732459485530853,-0.399325460195541,0.489770710468292,-0.801329803423436,-0.344789827850059,0.496061320951293,9
1.55999755859375,-0.435164749622345,2.44024848937988,1.51996672153473,-0.587181951496087,2.71316839067337,1.50635068951315,2145.485,3669.52,3254.717,0,-0.08790189,-0.00150948,0.1177279,-0.740789592266083,-0.400953650474548,0.477703660726547,-0.812800388649436,-0.349725300221754,0.503162159625937,9
1.57999801635742,-0.450265675783157,2.43215036392212,1.5300395488739,-0.603551689586986,2.70612494969039,1.51648433719019,1937.533,2595.31,2432.448,2205.162,-0.08137502,0.0005098138,0.1141674,-0.755042672157288,-0.40490734577179,0.503644108772278,-0.824108441976122,-0.354590839657789,0.510162383312438,9
1.59999847412109,-0.465525925159454,2.42402291297913,1.53984463214874,-0.620145926473056,2.69898491314762,1.52675696031579,2184.817,3664.654,3231.746,0,-0.08748804,0.001927905,0.1184136,-0.763016045093536,-0.406366884708405,0.490253210067749,-0.835248923368005,-0.359384277571697,0.517058871988737,9
1.61999893188477,-0.481062859296799,2.4158239364624,1.55014216899872,-0.636961261140657,2.69174974440622,1.53716645350051,2038.685,2530.505,2468.901,2145.606,-0.08152149,0.004496465,0.1136393,-0.776845157146454,-0.409954786300659,0.514879822731018,-0.846216901179681,-0.364103492014234,0.523848572731403,9
1.63999938964844,-0.496753543615341,2.40759778022766,1.56019902229309,-0.653994195024907,2.68442094880091,1.54771065096602,2179.614,3702.23,3214.794,0,-0.08808459,0.006504145,0.1168875,-0.784535229206085,-0.411308825016022,0.502843737602234,-0.857007552155828,-0.368746407673381,0.530528499715628,9
1.65999984741211,-0.512698829174042,2.39930582046509,1.57067155838013,-0.671241134177535,2.67700007270724,1.55838732788714,2115.896,2519.929,2612.847,1937.171,-0.08419584,0.009248501,0.1118282,-0.797267019748688,-0.414597481489182,0.523628711700439,-0.867616161431205,-0.373310995874343,0.537095734215228,9
1.67999649047852,-0.528792083263397,2.39098405838013,1.58093285560608,-0.688695041988866,2.66949014378176,1.56919212826729,2235.569,3574.603,3301.711,0,-0.09134004,0.01120969,0.1138702,-0.804661214351654,-0.416084468364716,0.513063430786133,-0.878036152828799,-0.377794427071868,0.543546205263364,9
1.69999694824219,-0.545121252536774,2.38259220123291,1.59156954288483,-0.706358800111611,2.66188992212981,1.58012683598675,2128.86,2578.41,2783.821,1698.834,-0.08902681,0.0136183,0.1091617,-0.816461086273193,-0.419588923454285,0.531833529472351,-0.888267004546665,-0.382196476749158,0.549879589839776,9
1.71999740600586,-0.561594128608704,2.37415933609009,1.60203886032104,-0.724225231782013,2.65420249571236,1.5911870082869,2246.493,3497.389,3379.574,0,-0.09606022,0.01516009,0.1111251,-0.823644757270813,-0.421641290187836,0.523468673229218,-0.898302321135456,-0.386514393123025,0.556091928856661,9
1.73999786376953,-0.578290581703186,2.3656439781189,1.61286640167236,-0.742290383213093,2.64642956573347,1.60237019758524,2117.521,2633.263,2890.348,1550.125,-0.09405965,0.01702626,0.1075061,-0.834820508956909,-0.425771087408066,0.541378140449524,-0.908137821269591,-0.39074633405868,0.562180571969536,9
1.7599983215332,-0.595127403736115,2.35707521438599,1.6235466003418,-0.760550216073323,2.63857286977439,1.61367390396219,2285.052,3406.669,3438.174,0,-0.1002973,0.01789528,0.109923,-0.841840088367462,-0.42844346165657,0.534007489681244,-0.917769332013572,-0.394890504058555,0.568142935932543,9
1.77999877929688,-0.612185597419739,2.34840989112854,1.63460886478424,-0.779000609654483,2.63063418086074,1.62509557650306,2088.856,2680.145,2889.663,1537.724,-0.09719472,0.01917344,0.1072163,-0.85290914773941,-0.433268845081329,0.553111374378204,-0.927192788821983,-0.398945154262308,0.57397650459845,9
1.79999923706055,-0.629380285739899,2.33968305587769,1.6455260515213,-0.79763736303951,2.62261530652977,1.63663261464007,2294.397,3415.727,3421.868,0,-0.1024268,0.0194854,0.1105555,-0.859740555286407,-0.436345726251602,0.545857310295105,-0.936404235539493,-0.402908582446823,0.579678828918647,9
1.81999969482422,-0.646798014640808,2.33085203170776,1.65684998035431,-0.816456197270346,2.61451808789761,1.64828236949435,2067.532,2689.496,2810.926,1633.504,-0.09784933,0.02040042,0.1083952,-0.870885074138641,-0.441546618938446,0.566198348999023,-0.945399824400851,-0.406779133026206,0.585247526943151,9
1.83999633789063,-0.664347112178802,2.32196021080017,1.66800606250763,-0.835449117627072,2.60634596486888,1.66003989195343,2305.624,3446.324,3380.985,0,-0.1024358,0.02039674,0.112381,-0.877454876899719,-0.444593012332916,0.557803452014923,-0.954174163352093,-0.410554485950274,0.590679260733698,9
1.8599967956543,-0.682122111320496,2.31296539306641,1.67959105968475,-0.854618942724365,2.59809772467243,1.67190692687406,2052.152,2677.171,2716.687,1763.191,-0.09667487,0.02120311,0.1101579,-0.888749361038208,-0.44973549246788,0.579251170158386,-0.962726969681477,-0.41423451957606,0.595973855278252,9
1.87999725341797,-0.700023055076599,2.30391645431519,1.69098341464996,-0.873957566090845,2.58977685529642,1.6838784559643,2288.84,3515.158,3331.298,0,-0.1010819,0.02120204,0.1145096,-0.895042359828949,-0.452443182468414,0.569618105888367,-0.971053025860989,-0.417816988947023,0.601128080678429,9
1.89999771118164,-0.718149960041046,2.29477310180664,1.70280694961548,-0.893460418296025,2.58138532283915,1.69595165052899,2054.293,2646.333,2657.56,1857.916,-0.09486286,0.02212037,0.1119528,-0.906349360942841,-0.457166254520416,0.591178297996521,-0.979148917665041,-0.421300425017273,0.606139823365946,9
1.91999816894531,-0.736397862434387,2.28558540344238,1.7144170999527,-0.913122862707269,2.57292512231409,1.70812364027167,2275.385,3552.872,3311.338,0,-0.09939876,0.02228393,0.116223,-0.912395119667053,-0.459369212388992,0.580506801605225,-0.987011339258123,-0.424683405378145,0.611007036871143,9
1.93999862670898,-0.754869520664215,2.27631521224976,1.72645115852356,-0.932940197657643,2.56439827671719,1.72039151463653,2065.482,2619.979,2649.705,1886.826,-0.09323407,0.02336634,0.1132287,-0.923586130142212,-0.463515996932983,0.601701080799103,-0.99463709319481,-0.4279645542582,0.615727741822989,9
1.95999908447266,-0.773458302021027,2.26701068878174,1.73826670646667,-0.952907658613767,2.55580683609405,1.73275232415044,2260.963,3573.169,3310.005,0,-0.09791484,0.02371715,0.1172314,-0.929437339305878,-0.465230226516724,0.590775847434998,-1.00202309041976,-0.431142542523221,0.620300025949072,9
1.97999954223633,-0.792265236377716,2.25763463973999,1.7504894733429,-0.973020420343666,2.54715287660719,1.74520308176496,2083.254,2605.251,2677.919,1857.243,-0.09208998,0.02490253,0.1139658,-0.940346479415894,-0.468799948692322,0.611136436462402,-1.00916635026771,-0.434216087676217,0.62472204407561,9
1.99999618530273,-0.811185359954834,2.2482328414917,1.76249599456787,-0.993269723110518,2.53844016732665,1.7577383647857,2263.028,3556.145,3327.19,0,-0.09681496,0.025312,0.1175971,-0.946008384227753,-0.47009214758873,0.600328981876373,-1.01606270846678,-0.437183397947334,0.628991218319934,9
2.01999664306641,-0.830316781997681,2.23876929283142,1.77489638328552,-1.01365835337184,2.52966750931758,1.77035989816261,2093.701,2608.969,2714.719,1804.201,-0.0912692,0.02646498,0.1142184,-0.956568241119385,-0.473183542490005,0.620018899440765,-1.02271203275434,-0.440044416427654,0.633107466805174,9
2.03999710083008,-0.849556744098663,2.22928643226624,1.78708636760712,-1.03417746715556,2.52083870789413,1.78306220705567,2266.139,3536.32,3341.957,0,-0.09590096,0.02679604,0.1176189,-0.962004661560059,-0.474142909049988,0.609500646591187,-1.02911032850577,-0.442797424341804,0.637068316668402,9
2.05999755859375,-0.869000732898712,2.21974921226501,1.79966139793396,-1.05482201812353,2.5119559343546,1.79584216754118,2095.324,2620.938,2735.502,1763.697,-0.09044255,0.0278177,0.1142849,-0.972190201282501,-0.476861387491226,0.62874972820282,-1.03525504859546,-0.445441325732794,0.640872191117535,9
2.07999801635742,-0.888547122478485,2.21019864082336,1.81202483177185,-1.07558691007788,2.50302138145056,1.8086966248299,2269.295,3516.791,3351.781,0,-0.09491613,0.02797643,0.1176139,-0.977324485778809,-0.477523326873779,0.618170559406281,-1.04114375428791,-0.447975071280863,0.644517580459114,9
2.09999847412109,-0.90829074382782,2.20060014724731,1.82477259635925,-1.09646699912883,2.4940372624541,1.82162239460902,2085.241,2631.333,2731.722,1758.888,-0.08925211,0.02883694,0.1143369,-0.987179756164551,-0.479928821325302,0.637388825416565,-1.04677411523768,-0.450397658303471,0.648003042098304,9
2.11999893188477,-0.928129732608795,2.19099450111389,1.83730208873749,-1.11745709586255,2.485005810225,1.83461626438416,2263.838,3518.153,3345.782,0,-0.09352969,0.02883135,0.1177549,-0.991951763629913,-0.48028764128685,0.626477003097534,-1.0521439094894,-0.452708130755304,0.651327200538896,9
2.13999938964844,-0.948159635066986,2.18134737014771,1.85021686553955,-1.138551967509,2.47592927627801,1.8476749948214,2073.049,2632.158,2707.492,1784.268,-0.08752,0.02957288,0.1144897,-1.00148832798004,-0.482358664274216,0.645737290382385,-1.05725102347782,-0.454905579228273,0.654488747383304,8
2.15999984741211,-0.968276500701904,2.17170023918152,1.86290001869202,-1.15974634010981,2.46680992985011,1.86079532108929,2257.226,3525.998,3332.223,0,-0.09165002,0.02945268,0.1179884,-1.00584721565247,-0.482356309890747,0.634160459041595,-1.06209345202774,-0.456989140951513,0.657486441332569,8
2.17999649047852,-0.988577783107758,2.16201972961426,1.87597000598907,-1.18103083166728,2.45765180775279,1.8739714352843,2061.594,2626.068,2674.055,1824.149,-0.085292,0.03013415,0.1146076,-1.01506352424622,-0.484029322862625,0.653499960899353,-1.06666845113384,-0.45895763525619,0.660318583716675,8
2.19999694824219,-1.00895726680756,2.15234756469727,1.88879287242889,-1.20240821395574,2.44845371736898,1.88720505326679,2243.417,3544.437,3313.912,0,-0.0893613,0.02997733,0.1181479,-1.01897251605988,-0.483613967895508,0.641145706176758,-1.07097597819164,-0.460811043810786,0.662985148161421,7
2.21999740600586,-1.02951347827911,2.14265108108521,1.90200090408325,-1.22386905090202,2.43921971877738,1.90049033365798,2054.385,2613.399,2642.833,1862.818,-0.08277531,0.0306584,0.1145648,-1.02781844139099,-0.484825432300568,0.660398840904236,-1.07501345493598,-0.46254825725983,0.665484538597853,7
2.23999786376953,-1.05013859272003,2.13297176361084,1.91494703292847,-1.24540792547886,2.42995214277345,1.91382392305993,2230.41,3560.645,3296.183,0,-0.08688137,0.030517,0.1180441,-1.03125691413879,-0.48397159576416,0.647309184074402,-1.07877930973132,-0.464168599372462,0.667815782108711,5
2.2599983215332,-1.07093167304993,2.12327790260315,1.92827081680298,-1.26701939030951,2.42065333321126,1.92720244928693,2049.399,2599.615,2624.243,1886.173,-0.08024956,0.03122127,0.1142248,-1.03964865207672,-0.484688848257065,0.666191339492798,-1.08227207933222,-0.465671440555045,0.66997797287536,5
2.27999877929688,-1.09178364276886,2.113609790802,1.9413206577301,-1.28869796983554,2.41132564607061,1.9406225227075,2219.588,3566.358,3286.144,0,-0.08443339,0.03110176,0.1175453,-1.04260313510895,-0.483406603336334,0.65249228477478,-1.08549040888332,-0.467056197851165,0.67197027217779,2
2.29999923706055,-1.11279320716858,2.10393667221069,1.95473921298981,-1.31043816248474,2.40197144852433,1.95408073758635,2045.602,2590.421,2616.443,1891.524,-0.0778655,0.03180953,0.1135102,-1.05047464370728,-0.483650803565979,0.670928001403809,-1.08843305191934,-0.468322334941636,0.673791908394614,1
2.31999969482422,-1.13385188579559,2.09429693222046,1.96787476539612,-1.33223444283894,2.39259311800549,1.96757367342642,2208.902,3567.027,3279.884,0,-0.08212762,0.03168691,0.1166666,-1.05292892456055,-0.481986880302429,0.656779527664185,-1.09109887036509,-0.469469362144493,0.675442177003072,0
2.33999633789063,-1.15505623817444,2.08466053009033,1.98136925697327,-1.35407709248145,2.38319483607731,1.98109531406483,2039.848,2584.704,2613.702,1888.565,-0.07564762,0.03236559,0.1124846,-1.060227394104,-0.481813848018646,0.67472380399704,-1.09348640563071,-0.470496651869278,0.67692017506657,0
2.3599967956543,-1.17629957199097,2.07506442070007,1.99457240104675,-1.37596887940059,2.37377541175173,1.99464737301821,2200.533,3560.658,3276.963,0,-0.0799481,0.03219792,0.1154994,-1.06216061115265,-0.479819267988205,0.660155355930328,-1.09559564748259,-0.471404199712748,0.678225896250009,0
2.37999725341797,-1.19767689704895,2.06547856330872,2.00812768936157,-1.39790005743958,2.36433903852774,2.00822381695123,2031.184,2582.407,2607.266,1887.658,-0.07348035,0.0328145,0.1112146,-1.06887531280518,-0.479292899370193,0.677764713764191,-1.09742530100382,-0.472191448508328,0.679358538938131,0
2.39999771118164,-1.21908235549927,2.05593824386597,2.02138352394104,-1.41986502747765,2.35488812555058,2.02182117974142,2191.632,3558.443,3268.937,0,-0.07779147,0.03257572,0.1141561,-1.07026815414429,-0.477014631032944,0.662792801856995,-1.09897466165884,-0.47285809511406,0.680317666989874,0
2.41999816894531,-1.24060988426208,2.04641461372375,2.03498458862305,-1.44185817738692,2.34542508756209,2.03543598721428,2019.014,2579.324,2596.096,1894.558,-0.07128377,0.03311908,0.109808,-1.07638084888458,-0.476177781820297,0.680048167705536,-1.10024313330221,-0.473403883025206,0.681102911362803,0
2.43999862670898,-1.26215422153473,2.03694200515747,2.04827570915222,-1.46387388420027,2.33595234396796,2.0490647584853,2185.109,3552.91,3260.858,0,-0.07558477,0.03279252,0.1126868,-1.07721507549286,-0.473636001348495,0.66456013917923,-1.10123022817855,-0.473828602374257,0.681713970113108,0
2.45999908447266,-1.2838089466095,2.02749180793762,2.06190848350525,-1.48590651627916,2.32647231790489,2.06270400730194,2005.107,2577,2577.947,1909.203,-0.06896842,0.03325796,0.1082563,-1.08273839950562,-0.472514480352402,0.681634604930878,-1.10193556692257,-0.474132089930926,0.682150608395601,0
2.47999954223633,-1.30546903610229,2.01809740066528,2.07522010803223,-1.50795043548148,2.31698743530794,2.07635024338568,2173.796,3556.44,3247.641,0,-0.07326942,0.03285731,0.1111239,-1.08299827575684,-0.469723701477051,0.66558563709259,-1.10235887855907,-0.474314229102152,0.682412658463722,0
2.49999618530273,-1.32722735404968,2.0087308883667,2.08886933326721,-1.52999579362571,2.30750193357449,2.089997370243,1990.877,2570.867,2555.809,1931.417,-0.06653216,0.03326512,0.1066034,-1.0879237651825,-0.468325823545456,0.682457566261292,-1.10250000049778,-0.474374949929889,0.682500019666355,0
2.51999664306641,-1.34897935390472,1.99942517280579,2.10218453407288,-1.55204535801192,2.29801462201262,2.10364710096447,2162.95,3558.781,3234.7,0,-0.07084754,0.03280882,0.1094433,-1.0875985622406,-0.465286672115326,0.66575688123703,-1.10235893238473,-0.47431425226183,0.68241269178437,0
2.53999710083008,-1.37081813812256,1.99015283584595,2.1158344745636,-1.57408927882895,2.2885297387209,2.11729333804778,1977.638,2563.358,2531.915,1955.76,-0.06398831,0.03317526,0.1047937,-1.09192597866058,-0.463613986968994,0.682492077350616,-1.10193567455836,-0.474132136243598,0.68215067502728,0
2.55999755859375,-1.39263832569122,1.98094630241394,2.12913846969604,-1.59612191359838,2.27904971150017,2.13093258853001,2150.307,3566.414,3218.021,0,-0.06835003,0.0326883,0.1076027,-1.09101438522339,-0.460335344076157,0.665197491645813,-1.10123038958312,-0.473828671822132,0.681714070030222,0
2.57999801635742,-1.4145325422287,1.97177851200104,2.14277076721191,-1.6181376241771,2.2695769662859,2.14456136213196,1965.064,2553.749,2512.392,1976.542,-0.06144179,0.03302928,0.1028269,-1.09470880031586,-0.458389520645142,0.68161404132843,-1.10024334841354,-0.473403975581601,0.681103044526962,0
2.59999847412109,-1.43639671802521,1.96268081665039,2.15604543685913,-1.64013077892511,2.26011392621545,2.15817617260023,2141.614,3565.381,3206.155,0,-0.06586424,0.03251199,0.1055441,-1.09321212768555,-0.454880893230438,0.663736701011658,-1.09897493039424,-0.472858210743393,0.680317833349887,0
2.61999893188477,-1.45832192897797,1.95362722873688,2.16964292526245,-1.66209575487342,2.25066301069528,2.17177353904914,1952.719,2547.328,2496.725,1990.084,-0.05894215,0.03281766,0.1006369,-1.09626114368439,-0.452679812908173,0.679877758026123,-1.09742562325992,-0.472191587166126,0.67935873843001,0
2.63999938964844,-1.48020553588867,1.94464802742004,2.18287324905396,-1.68402693989188,2.24122663446822,2.18534998730279,2130.544,3566.493,3194.382,0,-0.06342957,0.03226652,0.1032808,-1.09418094158173,-0.448968380689621,0.661519110202789,-1.09559602313537,-0.471404361345641,0.67822612879697,0
2.65999603271484,-1.50213694572449,1.93571698665619,2.19641995429993,-1.70591456353497,2.23180900148401,2.19889946898997,1939.857,2541.442,2483.302,2000.85,-0.05651228,0.03253032,0.09828192,-1.09656667709351,-0.446541458368301,0.677340149879456,-1.09348726343002,-0.470497020956359,0.676920706085208,0
2.67999649047852,-1.52401494979858,1.92686402797699,2.20958971977234,-1.72776139360717,2.22240892083372,2.2124236975135,2121.651,3561.969,3185.824,0,-0.06104711,0.03192989,0.1008529,-1.09390389919281,-0.442651391029358,0.658488214015961,-1.09109935234628,-0.469469569527535,0.67544247537239,0
2.69999694824219,-1.54592764377594,1.91806352138519,2.22307205200195,-1.74955768413056,2.21303058593937,2.22591663964878,1925.954,2537.419,2468.028,2012.68,-0.05408987,0.03213883,0.09577249,-1.09563672542572,-0.440029144287109,0.674122512340546,-1.08843358680109,-0.468322565086308,0.673792239511893,0
2.71999740600586,-1.56777560710907,1.909343957901,2.23616886138916,-1.77129788800495,2.2036763835632,2.23937486147656,2111.687,3562.419,3173.023,0,-0.05866411,0.03148472,0.09831195,-1.09239768981934,-0.435985088348389,0.654837965965271,-1.08549099645889,-0.467056450668518,0.671970635915057,0
2.73999786376953,-1.58964502811432,1.90067982673645,2.24957275390625,-1.79297647980783,2.19434869114016,2.25279494249708,1910.573,2532.282,2452.311,2027.057,-0.05166426,0.03163958,0.09317971,-1.09347033500671,-0.433186441659927,0.670199453830719,-1.08227271937422,-0.465671715947234,0.669978369091845,0
2.7599983215332,-1.61143815517426,1.8921000957489,2.26258134841919,-1.81458795796224,2.18504987584512,2.26617347697213,2105.32,3556.608,3162.817,0,-0.05626354,0.03092158,0.0956673,-1.08966195583344,-0.428997725248337,0.650424003601074,-1.07878000199166,-0.464168897232749,0.667816210650842,0
2.77999877929688,-1.63324010372162,1.88357925415039,2.27589440345764,-1.83612684690458,2.17578229366013,2.27950707526701,1894.622,2529.255,2433.969,2042.869,-0.04918858,0.03101424,0.09046938,-1.09009277820587,-0.426035642623901,0.66565477848053,-1.07501419914593,-0.462548577472581,0.665484999299265,0
2.79999923706055,-1.65495467185974,1.87514495849609,2.28880262374878,-1.85758769925251,2.16654828844162,2.29279236519255,2095.075,3557.647,3149.417,0,-0.05381663,0.03023882,0.09294625,-1.08572125434875,-0.421713024377823,0.645408570766449,-1.07097677406178,-0.460811386251471,0.662985640842947,0
2.81999588012695,-1.67666482925415,1.86677312850952,2.3020122051239,-1.87896102895071,2.15735194177419,2.30602347442862,1878.411,2524.101,2414.137,2062.326,-0.04666125,0.03027963,0.08769485,-1.0855131149292,-0.418594181537628,0.660475492477417,-1.06667014556453,-0.458958364322378,0.660319632649988,0
2.83999633789063,-1.69827651977539,1.85849034786224,2.31480622291565,-1.90024960698239,2.14819206138118,2.31920211834584,2086.534,3555.452,3137.477,0,-0.05131805,0.02945157,0.09014799,-1.08058726787567,-0.414138734340668,0.639700412750244,-1.06209435025759,-0.456989527434725,0.657486997379635,0
2.8599967956543,-1.71987152099609,1.85027313232422,2.32790017127991,-1.9214439980555,2.13907270700516,2.33232245604895,1862.619,2519.086,2392.607,2083.194,-0.04406626,0.02944465,0.08482172,-1.07975566387177,-0.410865128040314,0.654694855213165,-1.05725197237562,-0.454905987512489,0.654489334796247,0
2.87999725341797,-1.74135732650757,1.84214735031128,2.34056901931763,-1.94253888918396,2.12999616467562,2.34538119854648,2076.325,3558.453,3121.965,0,-0.04876727,0.02857734,0.0872651,-1.07428765296936,-0.406281620264053,0.633443892002106,-1.05214490868305,-0.452708560680416,0.651327819087361,0
2.89999771118164,-1.76281380653381,1.83409023284912,2.35353374481201,-1.96352900640172,2.1209647036328,2.35837508100222,1846.634,2512.486,2373.386,2103.204,-0.04145903,0.02853416,0.08187593,-1.07282483577728,-0.402853220701218,0.648233294487,-1.04677516433438,-0.450398109700476,0.648003691539142,0
2.91999816894531,-1.78415048122406,1.82612729072571,2.36606359481812,-1.98440911693069,2.11198057539494,2.37130086407726,2069.674,3554.285,3110.276,0,-0.04620638,0.02762591,0.08426685,-1.06682789325714,-0.398143798112869,0.626488089561462,-1.04114485287423,-0.447975543971863,0.644518260536375,0
2.93999862670898,-1.80544519424438,1.81823635101318,2.37888669967651,-2.00517403134858,2.10304601282548,2.38415533527198,1830.838,2508.51,2355.219,2119.677,-0.0388486,0.02753966,0.07880454,-1.06474339962006,-0.394567310810089,0.641156256198883,-1.03525619623725,-0.445441819530995,0.640872901562472,0
2.95999908447266,-1.82660984992981,1.81044125556946,2.39126634597778,-2.02581860575671,2.0941632292003,2.39693531026807,2060.144,3554.167,3097.391,0,-0.04364708,0.02659283,0.08116867,-1.05822885036469,-0.38974329829216,0.618978798389435,-1.02911152474823,-0.442797939051516,0.637069057199471,0
2.97999954223633,-1.84772038459778,1.8027206659317,2.40393614768982,-2.04633774394789,2.08533441727499,2.40963763427052,1814.71,2503.961,2337.801,2136.055,-0.03624988,0.02646543,0.0756589,-1.05552423000336,-0.386029601097107,0.633484482765198,-1.022713277122,-0.440044951844293,0.633108237128031,0
2.99999618530273,-1.86869025230408,1.79509878158569,2.41615319252014,-2.06672252359526,2.07656341607755,2.42225678393395,2053.032,3549.676,3086.453,0,-0.04109471,0.02547437,0.07798735,-1.04850578308105,-0.3810995221138,0.610856592655182,-1.01606529245116,-0.437184509763622,0.628992817929355,0
3.01999664306641,-1.88959419727325,1.78755378723145,2.4286584854126,-2.08697572864857,2.06784902775215,2.4347944826559,1797.507,2500.447,2320.307,2152.711,-0.03363572,0.02530132,0.07243112,-1.04519474506378,-0.377258121967316,0.625259816646576,-1.00916768936771,-0.434216663853534,0.624722873042298,0
3.03999710083008,-1.91034805774689,1.780109167099,2.44070315361023,-2.10708851762775,2.05919505654068,2.44724525713902,2045.401,3547.528,3073.655,0,-0.03851464,0.02426548,0.07474006,-1.03768849372864,-0.372229158878326,0.602230310440063,-1.00202447609459,-0.431143138740389,0.620300883747801,0
3.05999755859375,-1.93102371692657,1.77274370193481,2.45303392410278,-2.12705600675913,2.05060360379452,2.45960608409476,1781.346,2497.294,2300.869,2169.773,-0.03100186,0.02404606,0.06914832,-1.03378081321716,-0.368265062570572,0.61653745174408,-0.994638524886308,-0.427965170275055,0.615728628108227,0
3.07999801635742,-1.95153951644897,1.76548075675964,2.46489453315735,-2.14687337079936,2.04207674568107,2.47187397646763,2037.9,3543.629,3062.329,0,-0.03592871,0.02296449,0.07143914,-1.02579784393311,-0.363140910863876,0.593031704425812,-0.987012816387451,-0.424684040945629,0.611007951284564,0
3.09999847412109,-1.97196578979492,1.75829982757568,2.47704076766968,-2.16653584520328,2.033616532251,2.4840459847772,1763.667,2493.597,2280.542,2190.054,-0.0283371,0.02270163,0.06580153,-1.02131164073944,-0.359059393405914,0.607311367988586,-0.979150439632689,-0.421301079877433,0.606140765536421,0
3.11999893188477,-1.99222338199615,1.75122261047363,2.48870801925659,-2.18603872829175,2.02522498650551,2.49611919846012,2028.857,3543.527,3048.775,0,-0.03330549,0.02158545,0.06809169,-1.01286923885345,-0.353843718767166,0.583368062973022,-0.971054592046769,-0.41781766283301,0.601129050222034,0
3.13999938964844,-2.01237940788269,1.74423003196716,2.50065946578979,-2.20537738341953,2.01690410346351,2.50809074721212,1746.933,2488.727,2260.33,2210.317,-0.02564518,0.02128791,0.06241528,-1.00781273841858,-0.349643915891647,0.597569823265076,-0.962728579444533,-0.414235212212131,0.595974851798267,0
3.15999603271484,-2.03235793113708,1.73734331130981,2.51212310791016,-2.22454360124808,2.00865741537402,2.51995554906156,2022.368,3539.926,3036.275,0,-0.03065991,0.02013849,0.0646809,-0.998928606510162,-0.344336718320847,0.573177099227905,-0.95417746870157,-0.410555908149813,0.590681306902481,0
3.17999649047852,-2.0522243976593,1.7305428981781,2.52386927604675,-2.2435401949712,2.00048371179835,2.53171534550942,1729.858,2484.917,2241.146,2228.995,-0.0229394,0.01980654,0.0589583,-0.993312001228333,-0.340018749237061,0.587312519550323,-0.9454015193052,-0.406779862296197,0.585248576169681,0
3.19999694824219,-2.07190418243408,1.72385048866272,2.53511953353882,-2.2623590635174,1.99238647840124,2.54336512160655,2015.555,3537.176,3023.369,0,-0.0280042,0.01862587,0.06119839,-0.984002232551575,-0.334623545408249,0.562513530254364,-0.936405971974636,-0.402909329586355,0.579679903854719,0
3.21999740600586,-2.09146094322205,1.71724653244019,2.5466513633728,-2.28099585204123,1.98436758895103,2.55490218149615,1713.893,2482.078,2221.587,2245.972,-0.02025174,0.01825824,0.05543761,-0.977833986282349,-0.330191791057587,0.57658839225769,-0.927194566064376,-0.398945918960059,0.573977604796153,0
3.23999786376953,-2.11082315444946,1.71075248718262,2.55767822265625,-2.29944628156995,1.97642888457015,2.56632387629027,2008.158,3533.17,3012.285,0,-0.02538632,0.01704635,0.05765707,-0.968111574649811,-0.324716240167618,0.551338255405426,-0.917771149318993,-0.394891285994308,0.568144060931169,0
3.2599983215332,-2.130051612854,1.70434856414795,2.56898593902588,-2.31770615117141,1.96857217280235,2.57762760541179,1696.203,2478.76,2202.665,2264.768,-0.01758645,0.01664522,0.05186034,-0.961406767368317,-0.320181906223297,0.565391898155212,-0.908139677873146,-0.390747132903322,0.562181721295578,0
3.27999877929688,-2.14907741546631,1.69805574417114,2.57978081703186,-2.33577134012187,1.96079922667992,2.58881081793642,2000.184,3530.954,3000.166,0,-0.02277802,0.01540777,0.05407405,-0.951291084289551,-0.314634680747986,0.539739191532135,-0.898304216251578,-0.386515208538549,0.556093102023818,0
3.29999923706055,-2.16795873641968,1.6918557882309,2.59085583686829,-2.35363781007389,1.95311178379095,2.59987101393471,1679.514,2475.155,2183.961,2282.655,-0.01493394,0.01497658,0.04825491,-0.944062352180481,-0.310003191232681,0.553747951984406,-0.888268937369113,-0.38219730838866,0.549880786348944,0
3.31999588012695,-2.18663001060486,1.68576812744141,2.6014096736908,-2.37129825777079,1.94551298652277,2.61080367234288,1994.609,3525.726,2988.827,0,-0.02017984,0.01371145,0.05044871,-0.933573365211487,-0.304388970136642,0.527688920497894,-0.878040092225563,-0.377796122084242,0.54354864393762,0
3.33999633789063,-2.20514678955078,1.67977476119995,2.61224317550659,-2.38875555478454,1.93800159931817,2.62161057080077,1662.233,2472.592,2165.576,2300.004,-0.01228942,0.01324834,0.04460497,-0.925835192203522,-0.299664884805679,0.541673600673676,-0.867618167158097,-0.373311858882592,0.53709697585572,0
3.3599967956543,-2.2234468460083,1.67389512062073,2.62254810333252,-2.40600253440574,1.930580705812,2.63228727277387,1989.006,3521.46,2976.738,0,-0.01759018,0.0119556,0.04678221,-0.914991319179535,-0.293988525867462,0.515242218971252,-0.85700959304645,-0.368747285811601,0.530529763124145,0
3.37999725341797,-2.2415816783905,1.66811144351959,2.63313221931458,-2.42303550945299,1.9232518924954,2.64283149572124,1645.855,2470.777,2146.344,2316.673,-0.009672068,0.0114594,0.0409204,-0.906757175922394,-0.289176732301712,0.52921187877655,-0.846218976345105,-0.364104384899943,0.523849857357654,0
3.39999771118164,-2.25949335098267,1.662442445755,2.64317941665649,-2.43985088596004,1.91601670575165,2.65324101480657,1983.083,3516.285,2965.982,0,-0.01504633,0.01013956,0.04308483,-0.895575284957886,-0.283445358276367,0.50236439704895,-0.835251031898626,-0.359385184813519,0.517060177269636,0
3.41999816894531,-2.27723026275635,1.6568717956543,2.65350651741028,-2.45644516534361,1.90887665092339,2.66351366424015,1628.227,2468.653,2127.459,2334.934,-0.007091465,0.00961294,0.03720574,-0.886862874031067,-0.278555661439896,0.516354739665985,-0.824110582941664,-0.354591760855451,0.510163708672097,0
3.43999862670898,-2.29473781585693,1.65141606330872,2.66328907012939,-2.47281494657125,1.90183319137989,2.67364733862088,1976.662,3512.677,2954.458,0,-0.01253284,0.008271952,0.03936933,-0.87536358833313,-0.272777110338211,0.489128023386002,-0.812802561098952,-0.34972623496609,0.503163504475677,0
3.45999908447266,-2.31206130981445,1.64605975151062,2.67335152626038,-2.48895692832918,1.89488774758421,2.68363999427827,1611.369,2466.235,2108.935,2352.546,-0.004548146,0.00771972,0.0334833,-0.866189420223236,-0.267816066741943,0.503120124340057,-0.801332006385299,-0.344790775723006,0.496062684689628,0
3.47999572753906,-2.3291494846344,1.64081966876984,2.68286180496216,-2.50486489870395,1.88804299234919,2.69348778574196,1971.785,3506.884,2943.909,0,-0.0100561,0.006358946,0.03563725,-0.854394674301147,-0.26199671626091,0.47551155090332,-0.789706299681989,-0.339788558913217,0.488865818431069,0
3.49999618530273,-2.34604501724243,1.63568007946014,2.69265246391296,-2.52054183223243,1.88129764581471,2.703192554392,1594.361,2464.482,2090.894,2369.568,-0.002039449,0.0057813,0.02974331,-0.844776570796967,-0.256970703601837,0.489529311656952,-0.777926261338517,-0.334719937510192,0.481573413535413,0
3.51999664306641,-2.36269927024841,1.63065791130066,2.70188403129578,-2.53598168290031,1.87465430941181,2.7127505574575,1967.135,3501.843,2932.738,0,-0.007613445,0.00440272,0.03188973,-0.832706987857819,-0.251116544008255,0.461575925350189,-0.765999459475408,-0.329588167864767,0.474190155029786,0
3.53999710083008,-2.37915253639221,1.62573719024658,2.71139645576477,-2.55118156992615,1.86811422266028,2.72216001159753,1578.57,2463.409,2072.324,2385.498,0.0004145966,0.003799905,0.02599349,-0.822661697864532,-0.246032029390335,0.475625663995743,-0.753931367647136,-0.324395605094516,0.466719431305148,0
3.55999755859375,-2.39535927772522,1.62093424797058,2.72034215927124,-2.56613872308604,1.86167857751006,2.73141920191151,1962.299,3495.812,2923.021,0,-0.005243764,0.002405141,0.02813414,-0.810337007045746,-0.240151971578598,0.447290807962418,-0.741727567798258,-0.319144650954242,0.459164697851087,0
3.57999801635742,-2.41135692596436,1.6162337064743,2.72957015037537,-2.58085048488145,1.85534851740854,2.74052648328127,1561.742,2462.184,2054.477,2402.421,0.002800667,0.001779872,0.02223713,-0.799884021282196,-0.235021114349365,0.461404025554657,-0.72939375026341,-0.313837753835969,0.451529477255809,0
3.59999847412109,-2.4271035194397,1.61165118217468,2.73822474479675,-2.59531431270705,1.84912513636775,2.74948028171299,1956.984,3491.4,2912.646,0,-0.002937467,0.0003747735,0.02438495,-0.787326157093048,-0.229125082492828,0.432733535766602,-0.716935713767317,-0.308477408768949,0.443817359206151,0
3.61999893188477,-2.44263291358948,1.6071720123291,2.74716258049011,-2.6095277810186,1.84300947803163,2.75827909567923,1545.703,2460.759,2037.35,2418.367,0.005115063,-0.000267914,0.01850048,-0.7764852643013,-0.223957613110542,0.446887165307999,-0.704359365424783,-0.303066157419654,0.436032000487571,0
3.63999557495117,-2.4579074382782,1.60281109809875,2.75552034378052,-2.62348594498176,1.83700367002424,2.76691986409198,1953.641,3484.448,2903.346,0,-0.0007020092,-0.001683118,0.02064538,-0.763718247413635,-0.218054592609406,0.417886853218079,-0.691673151171832,-0.297607633838406,0.428178629536803,0
3.65999603271484,-2.47295761108398,1.59855389595032,2.76416230201721,-2.63719194552437,1.83110636089208,2.77540453133521,1529.49,2460.318,2020.983,2433.297,0.007357162,-0.002344114,0.01477517,-0.752510130405426,-0.212860748171806,0.432102411985397,-0.678878353700696,-0.292102389931838,0.420258040401444,0
3.67999649047852,-2.48774886131287,1.59441471099854,2.7722270488739,-2.65064103434641,1.825319593696,2.783730157985,1932.337,3491.77,2875.626,23.10534,0.001610927,-0.003701794,0.01696618,-0.739562451839447,-0.206956431269646,0.403239190578461,-0.665983614869008,-0.28655414404986,0.412275582803033,0
3.69999694824219,-2.50230884552002,1.59038043022156,2.78056502342224,-2.66383127580226,1.81964420129024,2.79189554578451,1525.638,2457.308,2011.32,2430.301,0.009533714,-0.004333496,0.01117604,-0.728001594543457,-0.201720848679543,0.416896641254425,-0.65299527533123,-0.280965624398954,0.404235181908735,0
3.71999740600586,-2.51660704612732,1.58646404743195,2.78833603858948,-2.67676086214623,1.81408096149726,2.79989957565303,1911.394,3481.692,2839.852,73.05959,0.004005394,-0.005580388,0.01324411,-0.714911103248596,-0.195813491940498,0.388555943965912,-0.639919784131907,-0.275339605822821,0.396140829984331,0
3.73999786376953,-2.53066682815552,1.58265364170074,2.79635858535767,-2.68942811570037,1.808630596175,2.80774120902801,1531.856,2463.705,2015.786,2393.233,0.01158644,-0.006162022,0.007541894,-0.70299756526947,-0.190522864460945,0.401130050420761,-0.626763698705669,-0.269678909802388,0.38799658639423,0
3.7599983215332,-2.54446220397949,1.57896113395691,2.80383443832397,-2.70183149102237,1.80329377028414,2.81541948920704,1890.406,3460.466,2799.944,140.3678,0.006334334,-0.007283213,0.009345829,-0.689771890640259,-0.184623405337334,0.37378779053688,-0.613533684877225,-0.263986404455806,0.379806577601466,0
3.77999877929688,-2.55801200866699,1.57537508010864,2.81153082847595,-2.7139695770734,1.79807109095524,2.82293354268985,1541.572,2483.105,2035.13,2324.225,0.01333742,-0.007820106,0.003809537,-0.67749285697937,-0.179300040006638,0.384825438261032,-0.60023651686137,-0.258265004538452,0.371574997167698,0
3.79999923706055,-2.5712947845459,1.57190608978271,2.81870913505554,-2.72584109938593,1.7929631065561,2.83028258052034,1865.216,3428.268,2758.055,226.5834,0.008425073,-0.008819324,0.005293312,-0.664129316806793,-0.173450648784637,0.358919054269791,-0.586879077262983,-0.252517671442928,0.363306105753209,0
3.81999588012695,-2.5843243598938,1.56854343414307,2.82607102394104,-2.73744273461857,1.78797124702766,2.83746454539187,1551.663,2513.508,2066.235,2231.709,0.01471021,-0.009325325,4.703199E-05,-0.651490151882172,-0.168148472905159,0.368093371391296,-0.573470919541002,-0.246748515755721,0.355005817404173,0
3.83999633789063,-2.59708452224731,1.5652951002121,2.83295059204102,-2.74877791451009,1.78309403578861,2.84448156171422,1837.078,3385.87,2714.189,329.4727,0.01025056,-0.01021748,0.001210188,-0.637994945049286,-0.162402451038361,0.343981564044952,-0.560014026276881,-0.240958390526246,0.346675359432959,0
3.8599967956543,-2.60958504676819,1.56215155124664,2.83997321128845,-2.75984354851568,1.77833280261403,2.85133171629293,1562.948,2551.921,2102.447,2124.902,0.01578909,-0.01070697,-0.003635748,-0.625029444694519,-0.157171681523323,0.351127356290817,-0.546518158200277,-0.23515149552379,0.33832077419619,0
3.87999725341797,-2.62181353569031,1.55912029743195,2.84655404090881,-2.77063893010371,1.77368785150474,2.85801457175126,1809.361,3336.321,2666.716,443.925,0.01189275,-0.01151071,-0.002782471,-0.611421525478363,-0.151566594839096,0.32904177904129,-0.532990631455729,-0.229330978680956,0.329946590735853,0
3.89999771118164,-2.63377714157104,1.55619168281555,2.85323596000671,-2.78116350015273,1.7691594230351,2.8645297819664,1575.398,2595.348,2138.135,2012.767,0.01670622,-0.01199435,-0.007169762,-0.598183155059814,-0.146433368325233,0.334092020988464,-0.519438870577852,-0.223500034567577,0.321557405192552,0
3.91999816894531,-2.64546680450439,1.55337190628052,2.85951781272888,-2.79141684911929,1.7647476934202,2.87087709341145,1783.221,3282.935,2616.753,564.0117,0.01343397,-0.01272192,-0.006625412,-0.584487795829773,-0.140984535217285,0.314097732305527,-0.505870408491346,-0.2176619043907,0.313157880805522,0
