t,x_s1,x_s2,x_s3,x_s_d1,x_s_d2,x_s_d3,propellers_rpms1,propellers_rpms2,propellers_rpms3,propellers_rpms4,rollRad,pitchRad,yawRad,v_s1,v_s2,v_s3,v_s_d1,v_s_d2,v_s_d3,insideCount
0,-0.0599999986588955,2.94000005722046,1.17999994754791,-0.0599999986588955,2.94000005722046,1.17999994754791,0,0,0,0,0,0,0,0,0,0,-1.06581410364015E-15,4.44089209850063E-16,4.44089209850063E-16,0
0.0200004577636719,-0.0599999986588955,2.94000005722046,1.1771354675293,-0.0600018691155303,2.93999925241522,1.18000110544967,0,0,0,0,0.0163538,-0.002474609,-2.024222E-05,3.71994488546079E-08,3.50004931704007E-08,-0.143225952982903,-0.000279999361409376,-0.000120475902936966,0.000173332942931458,5
0.0400009155273438,-0.0599999986588955,2.94000005722046,1.17048275470734,-0.0600148724204753,2.93999365745638,1.18000915511487,0,0,0,0,0.03270752,-0.004950816,-5.430172E-05,3.62924410524101E-08,3.44428769949445E-08,-0.332637369632721,-0.00111101934050116,-0.00047804058392963,0.00068777389696065,6
0.0600013732910156,-0.0600004345178604,2.94013261795044,1.16416549682617,-0.0600498951959519,2.93997858813451,1.18003083588125,3185.383,2835.773,1501.123,2767.668,0.03128012,-0.00494336,-0.01646952,-2.17783708649222E-05,0.00662223063409328,-0.315861493349075,-0.0024796740721389,-0.00106693447916665,0.00153503637391071,6
0.0800018310546875,-0.0599162206053734,2.94038772583008,1.15857708454132,-0.0601175574246769,2.93994947496775,1.18007272202403,3065.832,3067.272,2154.955,2024.027,0.01897459,-0.004310593,-0.04351445,0.0042107068002224,0.0127500826492906,-0.279418915510178,-0.00437268608126799,-0.00188144466206175,0.00270690098422899,6
0.100002288818359,-0.0596375614404678,2.94068765640259,1.15374839305878,-0.0602282146177137,2.939901862269,1.18014122409785,2640.273,3831.792,2620.298,1134.768,-0.005854693,-0.002888465,-0.07014447,0.0139330383390188,0.014997711405158,-0.241433933377266,-0.00677688628291668,-0.00291590484325321,0.00419521543698747,6
0.120002746582031,-0.0590849108994007,2.94089889526367,1.14957010746002,-0.0603919599823235,2.93983140721312,1.18024259027882,2092.135,4101.948,3169.422,755.9782,-0.04012052,-0.0004506069,-0.08993495,0.0276326090097427,0.0105611439794302,-0.208912134170532,-0.00967921398219614,-0.00416469537060396,0.00599189453988277,5
0.140003204345703,-0.0582314990460873,2.94085621833801,1.14596664905548,-0.0606186265898167,2.93973387890425,1.18038290770649,1510.289,4074.794,3735.837,701.9824,-0.07649398,0.002388535,-0.0994973,0.0426706522703171,-0.00213099364191294,-0.180173709988594,-0.0130667168743004,-0.0056222432292015,0.00808892019923618,4
0.159999847412109,-0.0570994764566422,2.94039487838745,1.14297795295715,-0.0609177249752248,2.93960518522485,1.18056806385509,1135.169,3846.982,4069.831,879.97,-0.1062793,0.004335468,-0.09869941,0.0566010922193527,-0.0230694301426411,-0.14943240582943,-0.0169257706321904,-0.00728268625174051,0.0104778583075938,4
0.180000305175781,-0.0557377710938454,2.93938803672791,1.14071106910706,-0.0612986871007165,2.9394412678651,1.18080389755851,1100.85,3565.289,4010.006,1149.011,-0.1236282,0.004492268,-0.0899994,0.0680853500962257,-0.0503411404788494,-0.113342583179474,-0.0212451141043368,-0.00914117907931815,0.0131517376757159,3
0.200000762939453,-0.0541965328156948,2.9377772808075,1.13924849033356,-0.0617705288407759,2.93923824754608,1.18109599007255,1373.453,3339.65,3594.762,1386.273,-0.1278738,0.003022904,-0.07724871,0.0770618915557861,-0.0805371254682541,-0.0731300413608551,-0.0260114285934326,-0.0111919910485645,0.016102313395512,3
0.220001220703125,-0.0525142997503281,2.93557620048523,1.13858389854431,-0.0623420644491781,2.93899233174064,1.18144979784016,1790.88,3212.936,3016.873,1527.053,-0.1229747,0.0008613237,-0.06426048,0.084111675620079,-0.110051825642586,-0.0332289896905422,-0.03121219533433,-0.0134297356845702,0.019321835755004,3
0.240001678466797,-0.0507196448743343,2.93284702301025,1.13860690593719,-0.0630218588825902,2.9386998351872,1.18187062297754,2159.266,3168.53,2517.288,1558.482,-0.1149655,-0.0009875001,-0.05362222,0.0897327214479446,-0.136453285813332,0.001152154058218,-0.0368350039519641,-0.0158490731496507,0.0228026221408387,3
0.260002136230469,-0.0488373301923275,2.92966485023499,1.13913774490356,-0.0638182299684225,2.938357178957,1.18236361461609,2351.864,3159.121,2273.938,1495.796,-0.1090527,-0.00190416,-0.04623727,0.0941157639026642,-0.159107476472855,0.0265397038310766,-0.0428675524613532,-0.0184447102433459,0.0265370570382875,3
0.280002593994141,-0.046891812235117,2.92608761787415,1.13999593257904,-0.06473925057268,2.93796088952133,1.18293377024442,2352.6,3152.216,2324.287,1363.657,-0.107817,-0.001744371,-0.04152241,0.097275972366333,-0.178862005472183,0.0429123677313328,-0.0492976472675982,-0.0212114004024205,0.0305175920312465,3
0.300003051757813,-0.0449088029563427,2.92214369773865,1.1410619020462,-0.0657927507678135,2.93750759781875,1.18358593705038,2229.247,3144.046,2572.77,1194.441,-0.11109,-0.0007366303,-0.03798573,0.0991504192352295,-0.197191804647446,0.0532980933785439,-0.0561132031658829,-0.0241439437008635,0.0347367458022363,3
0.320003509521484,-0.0429169833660126,2.91783547401428,1.14229393005371,-0.0669863200005711,2.93699403832236,1.18432481326305,2074.009,3132.622,2873.264,1032.527,-0.1169335,0.0006863837,-0.0339798,0.099590927362442,-0.215407475829124,0.0615988411009312,-0.0633022433414741,-0.0272371868498887,0.0391871041324022,3
0.340000152587891,-0.0409490019083023,2.91315102577209,1.14370727539063,-0.0683270389802989,2.93641716440073,1.1851547821788,1955.254,3107.315,3109.281,921.6493,-0.1228442,0.002070071,-0.02837438,0.0983990132808685,-0.234225735068321,0.07066959887743,-0.0708514254995047,-0.0304853890327553,0.0438604075056398,3
0.360000610351563,-0.0390402525663376,2.90807723999023,1.14534330368042,-0.0698225328270578,2.93577369517774,1.1860805641102,1904.485,3065.689,3222.415,880.8327,-0.1267073,0.003092941,-0.0208696,0.0954373702406883,-0.2536940574646,0.081800140440464,-0.0787518717320621,-0.0338847303337087,0.0487511600740379,3
0.380001068115234,-0.0372258052229881,2.90261030197144,1.14724349975586,-0.0714794406858296,2.93506077401475,1.18710626900424,1924.071,3021.148,3206.965,896.0718,-0.1274168,0.003642267,-0.01188462,0.0907225757837296,-0.273344427347183,0.0950099527835846,-0.0869905243502129,-0.0374295923939903,0.0538512785061227,3
0.400001525878906,-0.0355373844504356,2.89676117897034,1.14943158626556,-0.0733044112230977,2.93427554017634,1.18823601270221,1991.294,2989.332,3098.735,939.0224,-0.1250386,0.003790852,-0.002208293,0.0844208002090454,-0.292452096939087,0.109404936432838,-0.0955558400788823,-0.0411150084648172,0.0591536169647403,3
0.420001983642578,-0.0340021029114723,2.89055466651917,1.15190601348877,-0.0753038633184856,2.93341523179792,1.18947376879637,2072.282,2974.404,2953.347,986.8578,-0.1205027,0.003707742,0.00733766,0.0767639949917793,-0.310325711965561,0.123718723654747,-0.104436384033078,-0.0449360584346311,0.0646510967113616,3
0.44000244140625,-0.0326426886022091,2.88402462005615,1.15464186668396,-0.077483988232608,2.93247718495301,1.19082336997196,2136.473,2972.928,2825.274,1022.973,-0.1150779,0.003564334,0.01614981,0.0679711624979973,-0.326508283615112,0.136792972683907,-0.113620829717891,-0.048887868829098,0.0703367061060819,4
0.460002899169922,-0.03147853910923,2.8772075176239,1.15760171413422,-0.0798507517749224,2.93145883272047,1.19228850934924,2168.252,2977.636,2748.942,1039.21,-0.1098698,0.003474994,0.02394398,0.0582072287797928,-0.340851217508316,0.147993296384811,-0.123097959028495,-0.0529656128111088,0.0762035006076214,4
0.480003356933594,-0.0305269118398428,2.87013840675354,1.16074788570404,-0.0824098964715798,2.93035770425173,1.19387274182544,2168.214,2984.124,2732.623,1032.752,-0.1055437,0.003482203,0.03074701,0.0475813038647175,-0.353460162878036,0.15731081366539,-0.132856662250146,-0.057164510180779,0.0822446027733248,4
0.5,-0.0298037901520729,2.86284685134888,1.16405212879181,-0.085166398670376,2.92917165836334,1.1955791479969,2146.725,2989.531,2763.029,1009.069,-0.1022712,0.003569219,0.0367968,0.0361561737954617,-0.364583432674408,0.165215134620667,-0.142884000065179,-0.0614789935111996,0.0884520025491718,4
0.520000457763672,-0.0293245408684015,2.8553569316864,1.16749906539917,-0.0881266117110474,2.92789796139072,1.19741166088358,2116.507,2992.437,2817.22,978.0135,-0.09983925,0.003686792,0.0424118,0.0239626653492451,-0.374496281147003,0.172348737716675,-0.153172907027918,-0.0659060227384819,0.0948213260877149,4
0.540000915527344,-0.0291042942553759,2.84768843650818,1.17108571529388,-0.0912951145137283,2.92653464315245,1.19937311505516,2089.316,2991.854,2870.795,951.1041,-0.09782323,0.003777174,0.04785882,0.0110124107450247,-0.383426129817963,0.179333314299583,-0.163710711144578,-0.0704401454577151,0.101344728821151,4
0.560001373291016,-0.0291578061878681,2.83985829353333,1.17481625080109,-0.0946767781905844,2.92507960774504,1.20146652596211,2070.913,2989.302,2908.632,934.116,-0.09578592,0.003795495,0.05329638,-0.00267590302973986,-0.391505867242813,0.186526924371719,-0.174486736240074,-0.0750767680090178,0.108015601688526,5
0.580001831054688,-0.0294992439448833,2.83188271522522,1.17869865894318,-0.0982762614093182,2.92353085067394,1.20369477754168,2063.805,2985.499,2921.934,931.5819,-0.09338854,0.003717084,0.05873883,-0.0170716065913439,-0.398783057928085,0.194119542837143,-0.185490414529404,-0.0798113433697334,0.11482740272751,5
0.600002288818359,-0.0301414839923382,2.82377815246582,1.18273949623108,-0.10209801256102,2.92188645792073,1.20606062355983,2066.678,2984.62,2912.527,938.1025,-0.09050274,0.003538145,0.06411313,-0.0321121029555798,-0.405233889818192,0.202044129371643,-0.19671128661765,-0.0846393711544298,0.121773657074397,5
0.620002746582031,-0.0310958065092564,2.8155620098114,1.1869421005249,-0.106146271928021,2.92014460501038,1.20856668895334,2074.531,2986.404,2886.946,952.529,-0.08717645,0.003272434,0.06928997,-0.0477160960435867,-0.410807996988297,0.210132703185081,-0.208139001499973,-0.0895563976148993,0.128847956964108,5
0.640003204345703,-0.0323715284466743,2.80725288391113,1.19130492210388,-0.11042507385174,2.91830355607849,1.21121547117173,2082.899,2991.841,2855.523,968.3015,-0.08360036,0.002940963,0.07414868,-0.0637862980365753,-0.415458559989929,0.218140915036201,-0.219763316561621,-0.0945580156401591,0.136043961730185,5
0.659999847412109,-0.0339761003851891,2.79886937141418,1.19582259654999,-0.114937365519793,2.91636204303257,1.21400879466451,2087.833,2999.039,2826.664,983.4396,-0.08000562,0.002567076,0.07859949,-0.0802284479141235,-0.419171869754791,0.225885078310966,-0.231571827761751,-0.0996388881179631,0.143353992680462,5
0.680000305175781,-0.0359151773154736,2.79042983055115,1.20048713684082,-0.119688496929273,2.91431776391831,1.21694997133476,2087.662,3007.293,2807.19,993.8423,-0.07660689,0.002169036,0.08261172,-0.0969538390636444,-0.421971827745438,0.233227446675301,-0.243559016194652,-0.104796640417365,0.150774633349401,6
0.700000762939453,-0.0381930880248547,2.78195142745972,1.20529115200043,-0.124681059317553,2.91216960379868,1.22004060528183,2083.366,3014.859,2797.018,1000.753,-0.07353947,0.001759739,0.08619335,-0.113896027207375,-0.423923492431641,0.240198478102684,-0.255712729184339,-0.110026043581393,0.158298360651655,6
0.720001220703125,-0.0408129133284092,2.77344918251038,1.21022665500641,-0.129918284978346,2.90991617190799,1.22328269744952,2075.443,3022.069,2797.95,1001.258,-0.0708795,0.001344644,0.08940592,-0.130991280078888,-0.425109654664993,0.246777698397636,-0.268023157655716,-0.11532287703907,0.16591910230247,6
0.740001678466797,-0.0437770746648312,2.76493644714355,1.21528935432434,-0.135403211103301,2.90755616142752,1.22667812800413,2065.672,3026.074,2803.605,1003.04,-0.06858172,0.000928328,0.092299,-0.148208156228065,-0.425631284713745,0.253137111663818,-0.280480600923771,-0.120682966856639,0.173630853115714,6
0.760002136230469,-0.0470872111618519,2.75642490386963,1.22047567367554,-0.14113868194985,2.90508834855275,1.23022865767651,2057.393,3030.519,2812.685,999.7613,-0.06660193,0.0005076612,0.09494572,-0.165507078170776,-0.425577580928802,0.259314924478531,-0.293075466693575,-0.12610218573757,0.181427675003881,6
0.780002593994141,-0.050744641572237,2.74792432785034,1.22578501701355,-0.147127351009062,2.90251159156062,1.23393592910403,2050.059,3032.369,2818.904,1001.375,-0.06483306,8.380628E-05,0.09737576,-0.182871013879776,-0.425033837556839,0.26546511054039,-0.30579827106028,-0.131576453022558,0.189303696978092,6
0.800003051757813,-0.0547499172389507,2.73944306373596,1.23121619224548,-0.153371683173492,2.89982482987671,1.2378014681726,2045.809,3035.521,2823.204,1000.321,-0.06322823,-0.0003462109,0.09962505,-0.200264468789101,-0.424062758684158,0.27156138420105,-0.318639638509124,-0.13710173468952,0.197253115148089,6
0.819999694824219,-0.0591032989323139,2.73098874092102,1.23676991462708,-0.159872691993147,2.89702762739878,1.24182590231796,2042.723,3037.147,2822,1005.204,-0.06172195,-0.0007776431,0.1016841,-0.217668786644936,-0.422720640897751,0.277688056230545,-0.331587821991737,-0.142672976311719,0.205268657531342,6
0.840000152587891,-0.063804104924202,2.72256779670715,1.24244463443756,-0.166634951706069,2.89411801595997,1.24601206321137,2041.715,3040.729,2819.809,1006.677,-0.06033125,-0.001211206,0.1035619,-0.235040545463562,-0.42104634642601,0.283734202384949,-0.344638604388044,-0.148288363380199,0.213347713529636,6
0.860000610351563,-0.0688513666391373,2.71418619155884,1.24824059009552,-0.173659158941841,2.89109569582005,1.2503603820997,2041.215,3043.227,2812.659,1013.911,-0.05904601,-0.001639442,0.1052287,-0.25236240029335,-0.419084280729294,0.289798349142075,-0.357780475378537,-0.153942943326036,0.221483157706883,6
0.880001068115234,-0.0742429047822952,2.70584893226624,1.2541538476944,-0.180947045911593,2.88795992165696,1.25487193130418,2041.213,3048.305,2809.715,1013.463,-0.05795358,-0.002061819,0.1067076,-0.26957768201828,-0.416866987943649,0.295663565397263,-0.37100449298811,-0.159632868667153,0.229669454554527,6
0.900001525878906,-0.0799765437841415,2.69756007194519,1.26018393039703,-0.188500167066783,2.88471002463366,1.2595476731043,2038.959,3049.782,2804.209,1022.103,-0.05702733,-0.002465555,0.107966,-0.286682069301605,-0.414445430040359,0.301504909992218,-0.384301823631742,-0.165354338558695,0.237901135662636,7
0.920001983642578,-0.0860489457845688,2.68932294845581,1.26632583141327,-0.196319901267052,2.88134541146536,1.26438846107986,2038.803,3055.122,2805.839,1017.371,-0.0563642,-0.002854909,0.1090541,-0.303619891405106,-0.411856651306152,0.30709707736969,-0.397663742114492,-0.171103598793035,0.246172799719906,7
0.94000244140625,-0.0924570113420486,2.68113970756531,1.27257978916168,-0.204407453948074,2.87786556348678,1.26939504145298,2035.479,3055.442,2804.545,1024.687,-0.05589602,-0.003217631,0.1099472,-0.320403724908829,-0.409159660339355,0.312696725130081,-0.411081631631503,-0.176876941799768,0.254479112513653,7
0.960002899169922,-0.0991966128349304,2.67301177978516,1.27894067764282,-0.212763859289405,2.87427003571935,1.27456805443005,2035.362,3060.198,2811.412,1015.861,-0.0557064,-0.003561179,0.1107163,-0.336980491876602,-0.406392931938171,0.318044424057007,-0.424546983768002,-0.182670706645715,0.262814806929822,7
0.979999542236328,-0.106264308094978,2.66493940353394,1.28541040420532,-0.221388311353785,2.87055917493534,1.27990700109753,2031.9,3058.792,2812.512,1023.44,-0.05567445,-0.003871704,0.1113285,-0.353383302688599,-0.403616279363632,0.323488891124725,-0.438048819599778,-0.188480169406503,0.271173086491326,7
1,-0.113655343651772,2.65692234039307,1.29198384284973,-0.230284798736574,2.86673126495361,1.28541435058594,2032.966,3063.137,2822.852,1010.898,-0.0558875,-0.004162521,0.1118679,-0.36955326795578,-0.400858134031296,0.32867306470871,-0.451584000205995,-0.194303979492187,0.279552008056641,7
1.02000045776367,-0.121366381645203,2.6489589214325,1.29866600036621,-0.239452235373992,2.86278677307706,1.29108943057007,2030.914,3060.338,2821.569,1021.68,-0.05617938,-0.004417652,0.1122711,-0.385551154613495,-0.398174941539764,0.334110826253891,-0.465141770078335,-0.200137509108014,0.287944913453762,7
1.04000091552734,-0.129392176866531,2.64104747772217,1.30544996261597,-0.24889099213045,2.8587255397331,1.29693247063265,2034.758,3066.29,2833.794,1003.117,-0.05671308,-0.004657336,0.1126501,-0.40128955245018,-0.395576864480972,0.3391974568367,-0.478714054341683,-0.205977283860805,0.296346803950333,7
1.06000137329102,-0.137729465961456,2.63318514823914,1.31234335899353,-0.258601279453084,2.85454747437219,1.3029436010505,2031.594,3060.712,2829.618,1021.529,-0.05724358,-0.004854943,0.1128917,-0.416864633560181,-0.393119364976883,0.344667911529541,-0.492292886511004,-0.21181987599461,0.304752747912622,7
1.08000183105469,-0.146372571587563,2.62536931037903,1.31933689117432,-0.268583149539609,2.85025255453512,1.30912285413647,2038.796,3068.95,2844.174,995.2668,-0.05802762,-0.005042429,0.1131456,-0.432156264781952,-0.390792489051819,0.349674373865128,-0.50587040849135,-0.217661904390701,0.313157880805523,7
1.10000228881836,-0.155318588018417,2.61759614944458,1.32644140720367,-0.278836498506168,2.84584082492022,1.31547016558151,2034.772,3061.2,2836.29,1021.36,-0.05874507,-0.005180913,0.1132504,-0.447300910949707,-0.388656616210938,0.355225533246994,-0.519438870577854,-0.223500034567576,0.321557405192552,7
1.12000274658203,-0.164561241865158,2.60986256599426,1.33364391326904,-0.289361068555186,2.84131239645058,1.32198537579665,2044.72,3072.227,2855.491,985.0681,-0.059764,-0.005315669,0.1134114,-0.462131798267365,-0.386681437492371,0.360124468803406,-0.532990631455731,-0.229330978680957,0.329946590735853,8
1.1400032043457,-0.174098163843155,2.60216379165649,1.34095990657806,-0.30015645014322,2.83666744534129,1.32866823125499,2038.44,3060.99,2843.276,1022.402,-0.06063645,-0.005392368,0.1133998,-0.476846516132355,-0.384941458702087,0.365800946950912,-0.54651815820028,-0.23515149552379,0.338320774196191,8
1.15999984741211,-0.183922335505486,2.59449625015259,1.34837102890015,-0.311219947869739,2.83190713134792,1.33551706337518,2051.988,3075.986,2869.895,971.1076,-0.06188654,-0.005475992,0.1135058,-0.491209983825684,-0.383379638195038,0.370554387569427,-0.560011455688534,-0.240957284473894,0.346673768116318,8
1.18000030517578,-0.194032490253448,2.58685445785522,1.35589945316315,-0.322555076427271,2.82702994219644,1.34253404791935,2041.681,3059.329,2851.958,1025.016,-0.06286552,-0.005488775,0.1134027,-0.505507528781891,-0.382094502449036,0.376418501138687,-0.573468357077025,-0.246747413199059,0.355004231116904,8
1.20000076293945,-0.20442071557045,2.57923460006714,1.36351990699768,-0.334158899272964,2.82203714139922,1.34971736702757,2061.189,3080.281,2887.133,953.0002,-0.0643196,-0.005524994,0.113495,-0.519410729408264,-0.380991727113724,0.381024390459061,-0.586879077262985,-0.252517671442929,0.363306105753208,8
1.22000122070313,-0.215087085962296,2.57163047790527,1.3712637424469,-0.346030421585499,2.81692915700008,1.35706640485806,2046.026,3057.108,2859.605,1029.443,-0.06535024,-0.005475992,0.113324,-0.533319115638733,-0.380206197500229,0.387191236019135,-0.600236516861372,-0.258265004538453,0.371574997167698,8
1.2400016784668,-0.226022392511368,2.56403875350952,1.37909460067749,-0.358168507636529,2.81170647767119,1.36458045834087,2071.426,3085.282,2908.49,929.8241,-0.06699661,-0.005471731,0.1134531,-0.546765148639679,-0.379587590694427,0.391544163227081,-0.613533684877226,-0.263986404455806,0.379806577601466,8
1.26000213623047,-0.237228989601135,2.55645203590393,1.38705813884735,-0.370571882958536,2.80636965178032,1.3722587385199,2049.198,3052.087,2865.296,1041.165,-0.06797293,-0.005357215,0.1132168,-0.56032931804657,-0.379330694675446,0.398178666830063,-0.626763698705669,-0.269678909802388,0.38799658639423,8
1.28000259399414,-0.248695433139801,2.54886817932129,1.39510130882263,-0.383239136512677,2.80091928645807,1.38010037189488,2085.414,3092.91,2933.299,897.3634,-0.06980625,-0.005323659,0.1134311,-0.573323249816895,-0.379197061061859,0.402160882949829,-0.639919784131908,-0.275339605822821,0.396140829984331,8
1.30000305175781,-0.260427385568619,2.54127860069275,1.40329074859619,-0.396168722856641,2.79535604666509,1.38810440176341,2051.085,3044.502,2866.31,1062.584,-0.07062224,-0.005143097,0.1131182,-0.586597204208374,-0.379480212926865,0.409469455480576,-0.652995275331231,-0.280965624398954,0.404235181908735,8
1.31999969482422,-0.272410035133362,2.53368234634399,1.41154801845551,-0.409356423791328,2.7896817473746,1.39626821685929,2102.935,3103.989,2962.646,853.4413,-0.0726734,-0.005094627,0.1134695,-0.599132478237152,-0.379808247089386,0.412863880395889,-0.665981146317813,-0.286553081901244,0.412274054652251,8
1.34000015258789,-0.284653604030609,2.52606964111328,1.41997015476227,-0.422805463423808,2.78389500134342,1.4045938130584,2049.617,3032.761,2861.357,1098.567,-0.07320391,-0.004841627,0.1130476,-0.612180233001709,-0.380630224943161,0.421105057001114,-0.678875903610019,-0.292101335726266,0.4202565236786,8
1.36000061035156,-0.297138422727585,2.51844215393066,1.42844247817993,-0.436511415158101,2.77799771321212,1.41307845008695,2125.361,3120.073,2998.172,793.0736,-0.0755363,-0.004794755,0.1135945,-0.624238789081573,-0.381374925374985,0.423618286848068,-0.691670720740693,-0.297606588091785,0.42817712498415,9
1.38000106811523,-0.309881269931793,2.51078748703003,1.4371063709259,-0.450472217640295,2.7719907699237,1.42172085186868,2044.586,3016.375,2845.899,1154.39,-0.07564656,-0.004461328,0.1130073,-0.637143611907959,-0.382731795310974,0.433193385601044,-0.704359365424783,-0.303066157419654,0.436032000487571,9
1.40000152587891,-0.322854727506638,2.50311088562012,1.44579195976257,-0.464685685951852,2.76587511158757,1.43051966583492,2152.661,3143.104,3045.686,707.7672,-0.07840613,-0.004440555,0.1138416,-0.648671448230743,-0.383825570344925,0.434277415275574,-0.716935713767318,-0.308477408768949,0.443817359206152,9
1.42000198364258,-0.336085736751556,2.49539637565613,1.45470798015594,-0.479149513777454,2.75965173054678,1.43947346426664,2030.746,2990.348,2816.785,1243.856,-0.07786603,-0.004004329,0.1129905,-0.66155207157135,-0.385721296072006,0.445803165435791,-0.729393750263411,-0.31383775383597,0.45152947725581,9
1.44000244140625,-0.349535048007965,2.4876549243927,1.46360230445862,-0.493861275572861,2.75332167044526,1.4485807456364,2190.013,3177.747,3109.962,582.1988,-0.08126476,-0.004042679,0.1142436,-0.67246401309967,-0.387071907520294,0.444713562726974,-0.741727567798258,-0.319144650954242,0.459164697851088,9
1.46000289916992,-0.363244771957397,2.47986435890198,1.47278463840485,-0.508818428732755,2.74688602529505,1.45783993595039,2004.72,2951.315,2765.705,1382.39,-0.07975262,-0.003471697,0.1129849,-0.685484707355499,-0.389525085687637,0.45911517739296,-0.753931367647136,-0.324395605094517,0.46671943130515,9
1.47999954223633,-0.37715744972229,2.47204422950745,1.4818788766861,-0.524015393706918,2.74034719582071,1.46724758120123,2241.016,3229.38,3198.853,398.2955,-0.0841234,-0.00361604,0.1148518,-0.695635974407196,-0.391007721424103,0.45470929145813,-0.76599717101811,-0.329587183205524,0.474188738365705,9
1.5,-0.391338050365448,2.46416306495667,1.49134612083435,-0.539455198877605,2.73370387899399,1.4768055561018,1959.206,2892.538,2681.585,1595.901,-0.08116196,-0.002854376,0.112964,-0.709032297134399,-0.394063860177994,0.47336345911026,-0.777924000354858,-0.334718964672088,0.481572013878822,9
1.52000045776367,-0.405701994895935,2.45625281333923,1.5006251335144,-0.555132087468752,2.72695855179478,1.48651029693349,2312.843,3307.032,3323.635,127.0055,-0.08701133,-0.003169162,0.115732,-0.718196034431458,-0.395510137081146,0.46395143866539,-0.789704067205609,-0.339787598340998,0.488864436421842,9
1.54000091552734,-0.420348346233368,2.44826745986938,1.51040458679199,-0.571043070329722,2.72011250037111,1.49635995326965,1885.411,2806.095,2544.723,1922.213,-0.08191297,-0.002127333,0.1128811,-0.732319593429565,-0.399265050888062,0.488975584506989,-0.801332006385301,-0.344790775723006,0.496062684689629,9
1.56000137329102,-0.435162514448166,2.44025015830994,1.51994395256042,-0.587185052087651,2.71316705657544,1.50635260892703,2195.696,3588.387,3287.87,0,-0.08823372,-0.001801362,0.1174017,-0.740705907344818,-0.400863945484161,0.476967334747314,-0.812802561098952,-0.349726234966089,0.503163504475676,9
1.58000183105469,-0.450262248516083,2.43215250968933,1.53001272678375,-0.60355483331529,2.70612359703193,1.51648628330776,1916.055,2637.762,2445.097,2173.662,-0.08178568,1.08321E-05,0.1139064,-0.754989326000214,-0.404877007007599,0.503440320491791,-0.824110582941666,-0.354591760855452,0.510163708672098,9
1.60000228881836,-0.465521782636642,2.42402386665344,1.53982031345367,-0.620149112698862,2.69898354220367,1.52675893274134,2161.879,3689.379,3229.702,0,-0.08788431,0.001288096,0.1184602,-0.762974798679352,-0.406426936388016,0.490382134914398,-0.835251031898628,-0.359385184813519,0.517060177269636,9
1.62000274658203,-0.481058746576309,2.41582131385803,1.55012357234955,-0.636964489205914,2.69174835545992,1.53716845182668,2021.374,2534.838,2458.581,2168.027,-0.08172549,0.003782519,0.1139781,-0.776846468448639,-0.41013103723526,0.515165627002716,-0.846218976345106,-0.364104384899943,0.523849857357655,9
1.63999938964844,-0.496749639511108,2.40759110450745,1.56017804145813,-0.653994195024907,2.68442094880091,1.54771065096602,2188.772,3686.185,3220.892,0,-0.08813892,0.005688514,0.1173915,-0.78454601764679,-0.411511957645416,0.502720654010773,-0.857007552155828,-0.368746407673381,0.530528499715628,9
1.65999984741211,-0.512699246406555,2.39929389953613,1.57066535949707,-0.671241134177535,2.67700007270724,1.55838732788714,2103.133,2521.329,2583.082,1980.647,-0.08375429,0.008412926,0.1123277,-0.79747998714447,-0.414863854646683,0.524364769458771,-0.867616161431205,-0.373310995874343,0.537095734215228,9
1.68000030517578,-0.528797030448914,2.39096736907959,1.58093738555908,-0.688698391434734,2.66948870260877,1.56919420173384,2221.979,3610.033,3278.968,0,-0.09074881,0.01041402,0.1146118,-0.804891884326935,-0.41632154583931,0.51360034942627,-0.878038122530658,-0.377795274579551,0.543547424602645,9
1.70000076293945,-0.545133113861084,2.38257217407227,1.59158885478973,-0.706362188585011,2.66188846416437,1.5801289336132,2131.446,2565.182,2751.839,1741.951,-0.088173,0.01290721,0.109825,-0.816803157329559,-0.419759571552277,0.532574653625488,-0.888268937369113,-0.38219730838866,0.549880786348944,9
1.72000122070313,-0.561612546443939,2.37413859367371,1.60206294059753,-0.724228658537036,2.6542010212754,1.5911891296115,2249.258,3504.976,3368.72,0,-0.09524849,0.01453577,0.1117312,-0.823972582817078,-0.421676337718964,0.523702025413513,-0.898304216251578,-0.386515208538549,0.556093102023817,9
1.7400016784668,-0.578316926956177,2.36562514305115,1.61289834976196,-0.742293847487497,2.64642807515297,1.60237234213612,2120.27,2624.598,2873.865,1573.977,-0.09321543,0.01650782,0.1078631,-0.835217297077179,-0.425668299198151,0.541770458221436,-0.908139677873146,-0.390747132903322,0.562181721295579,9
1.76000213623047,-0.595161259174347,2.35706090927124,1.62358379364014,-0.76055371708895,2.63857136338517,1.61367607125764,2273.674,3428.99,3427.391,0,-0.09960596,0.01751983,0.1101983,-0.842217922210693,-0.428216159343719,0.534273505210876,-0.917771149318994,-0.394891285994308,0.568144060931169,9
1.78000259399414,-0.612226009368896,2.34840297698975,1.63464391231537,-0.779004146617669,2.63063265900429,1.62509776605176,2096.101,2670.223,2895,1534.788,-0.09674519,0.01891531,0.1073376,-0.853237211704254,-0.432892948389053,0.553007125854492,-0.927194566064376,-0.39894591896006,0.573977604796153,9
1.79999923706055,-0.629427194595337,2.33968544006348,1.64555847644806,-0.79763736303951,2.62261530652977,1.63663261464007,2295.987,3407.237,3429.431,0,-0.1021418,0.01932628,0.1104701,-0.86005824804306,-0.43588188290596,0.545725524425507,-0.936404235539493,-0.402908582446823,0.579678828918647,9
1.81999969482422,-0.646849930286407,2.33086538314819,1.65687477588654,-0.816456197270346,2.61451808789761,1.64828236949435,2071.522,2689.371,2829.937,1610.427,-0.09781897,0.02029917,0.1082104,-0.871136724948883,-0.440999507904053,0.565812408924103,-0.945399824400851,-0.406779133026206,0.585247526943151,9
1.84000015258789,-0.664404153823853,2.32198452949524,1.66802883148193,-0.835452757515797,2.60634439872645,1.66004214521794,2303.943,3441.11,3388.301,0,-0.1024758,0.02034384,0.1120788,-0.877712309360504,-0.444043606519699,0.557705879211426,-0.954175816030892,-0.41055519705179,0.590680283820602,9
1.86000061035156,-0.682182550430298,2.31300091743469,1.6796065568924,-0.854622615239374,2.59809614449182,1.6719092003358,2056.384,2681.118,2734.755,1735.506,-0.09692308,0.0211563,0.1098915,-0.888916552066803,-0.449178785085678,0.578884720802307,-0.962728579444532,-0.414235212212131,0.595974851798267,9
1.88000106811523,-0.700086534023285,2.30396246910095,1.69099473953247,-0.873961270367154,2.58977526144981,1.68388074908779,2293.97,3498.506,3342.383,0,-0.1013375,0.02113358,0.1141695,-0.895201563835144,-0.451925277709961,0.569409251213074,-0.97105459204677,-0.41781766283301,0.601129050222035,9
1.90000152587891,-0.718215703964233,2.29482841491699,1.7028146982193,-0.893464153455626,2.58138371570432,1.69595396277071,2052.385,2653.406,2666.417,1842.736,-0.09514942,0.02201716,0.11167,-0.906462430953979,-0.456707119941711,0.591000974178314,-0.979150439632688,-0.421301079877433,0.606140765536421,9
1.92000198364258,-0.736465632915497,2.28564882278442,1.71442413330078,-0.913126627859543,2.57292350227426,1.70812597108029,2275.059,3550.464,3312.909,0,-0.09963205,0.02214544,0.1159879,-0.912491142749786,-0.458976775407791,0.58047354221344,-0.987012816387451,-0.424684040945629,0.611007951284563,9
1.94000244140625,-0.754938542842865,2.27638483047485,1.72645819187164,-0.932943991899774,2.5643966441608,1.72039386345315,2063.082,2623.208,2648.293,1885.917,-0.09341037,0.02319811,0.1130756,-0.923649609088898,-0.463196128606796,0.601703405380249,-0.994638524886308,-0.427965170275055,0.615728628108227,9
1.96000289916992,-0.773527979850769,2.26708555221558,1.73827266693115,-0.952911481031154,2.55580519141464,1.73275469040889,2264.058,3569.214,3309.48,0,-0.09804054,0.02351289,0.1171252,-0.929472208023071,-0.464957922697067,0.590726494789124,-1.00202447609459,-0.431143138740389,0.620300883747801,9
1.97999954223633,-0.792335569858551,2.25771403312683,1.7504974603653,-0.973020420343666,2.54715287660719,1.74520308176496,2079.793,2607.045,2670.036,1866.066,-0.09211182,0.02468143,0.1138845,-0.940381765365601,-0.468586683273315,0.61123913526535,-1.00916635026771,-0.434216087676217,0.62472204407561,9
2,-0.811255872249603,2.24831581115723,1.76250398159027,-0.993273599084619,2.53843849960327,1.7577407641983,2260.207,3562.222,3322.713,0,-0.09681123,0.02508739,0.1175858,-0.946009874343872,-0.469906508922577,0.600325524806976,-1.01606400046349,-0.437183953857422,0.628992018127441,9
2.02000045776367,-0.830387353897095,2.2388551235199,1.77490675449371,-1.01366225471101,2.52966583068033,1.7703623132774,2093.006,2606.764,2704.457,1816.962,-0.0911893,0.02625312,0.1141988,-0.95657604932785,-0.473031163215637,0.62013852596283,-1.022713277122,-0.440044951844294,0.633108237128032,9
2.04000091552734,-0.849626898765564,2.22937512397766,1.78709590435028,-1.0341813929022,2.52083701875502,1.78306463727984,2263.012,3542.7,3337.882,0,-0.09584184,0.0266103,0.1176388,-0.961977481842041,-0.47399714589119,0.60945999622345,-1.02911152474823,-0.442797939051516,0.637069057199471,9
2.06000137329102,-0.869070112705231,2.21984052658081,1.79967069625854,-1.05482596731032,2.51195423512985,1.79584461227593,2095.275,2616.099,2730.155,1773.933,-0.09035413,0.02766706,0.1142632,-0.972162485122681,-0.476724058389664,0.628739655017853,-1.03525619623725,-0.445441819530995,0.640872901562472,9
2.08000183105469,-0.888615667819977,2.21029305458069,1.81203281879425,-1.07559088172821,2.50301967256038,1.80869908347065,2267.063,3521.835,3348.858,0,-0.09485488,0.02787015,0.1175871,-0.97727757692337,-0.477386265993118,0.618104875087738,-1.04114485287423,-0.447975543971863,0.644518260536375,9
2.10000228881836,-0.908357858657837,2.20069742202759,1.82477760314941,-1.09647099225719,2.49403554432252,1.82162486654569,2087.91,2627.647,2732.749,1758.892,-0.08923613,0.02876629,0.1142731,-0.987110614776611,-0.479786336421967,0.637236833572388,-1.04677516433438,-0.450398109700476,0.648003691539142,9
2.12000274658203,-0.928195357322693,2.19109439849854,1.83730435371399,-1.11746110947495,2.48500408327971,1.83461874900143,2264.42,3516.962,3346.703,0,-0.09354833,0.02879396,0.1176449,-0.991873145103455,-0.480148404836655,0.626339197158813,-1.05214490868305,-0.452708560680417,0.651327819087362,9
2.13999938964844,-0.948222815990448,2.18144989013672,1.85021436214447,-1.138551967509,2.47592927627801,1.8476749948214,2075.41,2631.655,2713.094,1776.863,-0.0876164,0.0295535,0.1143606,-1.00137770175934,-0.482221990823746,0.645499408245087,-1.05725102347782,-0.454905579228273,0.654488747383304,8
2.15999984741211,-0.96833747625351,2.17180514335632,1.86289417743683,-1.15974634010981,2.46680992985011,1.86079532108929,2257.229,3523.008,3335.585,0,-0.09176454,0.02944817,0.1178251,-1.00573110580444,-0.482237368822098,0.633988261222839,-1.06209345202774,-0.456989140951513,0.657486441332569,8
2.18000030517578,-0.988635718822479,2.1621265411377,1.87595987319946,-1.18103490068612,2.45765005696766,1.87397395420079,2063.284,2627.3,2679.497,1815.78,-0.08545978,0.03013057,0.1144549,-1.0149199962616,-0.48393315076828,0.653285682201385,-1.06666929835407,-0.458957999791384,0.660319108186354,8
2.20000076293945,-1.00901234149933,2.1524555683136,1.88878059387207,-1.20241229940639,2.4484519595137,1.88720758235537,2244.695,3542.039,3315.271,0,-0.08953388,0.02997093,0.1179878,-1.01882791519165,-0.483551353216171,0.641034781932831,-1.07097677406178,-0.460811386251471,0.662985640842948,7
2.22000122070313,-1.02956533432007,2.1427595615387,1.90198457241058,-1.22387315175433,2.43921795429519,1.90049287228091,2054.065,2614.916,2648.089,1856.165,-0.0829841,0.03064222,0.1144438,-1.02764415740967,-0.484797209501266,0.660197556018829,-1.07501419914593,-0.462548577472581,0.665484999299265,7
2.2400016784668,-1.0501868724823,2.13308000564575,1.91492784023285,-1.24541204069667,2.4299503721102,1.91382647057578,2233.668,3554.48,3299.374,0,-0.08707045,0.03048085,0.1179153,-1.03108394145966,-0.483977973461151,0.647164821624756,-1.07878000199166,-0.46416889723275,0.667816210650843,5
2.26000213623047,-1.07097625732422,2.12338519096375,1.92824959754944,-1.26702351885107,2.42065155681516,1.92720500505083,2048.353,2602.881,2625.863,1882.522,-0.0804248,0.0311648,0.1141305,-1.03947055339813,-0.484737277030945,0.666089713573456,-1.08227271937422,-0.465671715947234,0.669978369091845,5
2.28000259399414,-1.09182476997375,2.11371541023254,1.94129824638367,-1.28870211065395,2.41132386439212,1.94062508607135,2219.582,3566.506,3286.14,0,-0.08458306,0.03102723,0.1174869,-1.04242551326752,-0.483489602804184,0.652432262897491,-1.08549099645889,-0.467056450668518,0.671970635915057,2
2.29999923706055,-1.11283075809479,2.10404014587402,1.9547164440155,-1.31043816248474,2.40197144852433,1.95408073758635,2044.204,2591.435,2614.873,1893.655,-0.07797523,0.03172354,0.1134883,-1.05030179023743,-0.483771026134491,0.670907616615295,-1.08843305191934,-0.468322334941636,0.673791908394614,1
2.31999969482422,-1.13388586044312,2.09439730644226,1.96785080432892,-1.33223444283894,2.39259311800549,1.96757367342642,2209.303,3566.363,3280.267,0,-0.08220805,0.03159003,0.1166761,-1.05275475978851,-0.482127368450165,0.656716585159302,-1.09109887036509,-0.469469362144493,0.675442177003072,0
2.34000015258789,-1.1550874710083,2.08475780487061,1.98134648799896,-1.35408126380187,2.38319304127467,1.98109789631088,2039.163,2584.848,2609.108,1894.248,-0.07566147,0.03226739,0.1124984,-1.06007778644562,-0.48197865486145,0.674786448478699,-1.09348683453544,-0.470496836415,0.676920440579027,0
2.36000061035156,-1.1763277053833,2.0751576423645,1.99455058574677,-1.37597305876702,2.37377361348711,1.99464996024512,2199.225,3566.011,3273.072,0,-0.07995236,0.03210688,0.1155514,-1.06201303005219,-0.479994565248489,0.660203695297241,-1.09559602313537,-0.471404361345641,0.678226128796969,0
2.38000106811523,-1.19770216941833,2.06556844711304,2.00810623168945,-1.39790424378549,2.36433723726004,2.00822640849877,2031.038,2580.217,2605.104,1892.461,-0.07346756,0.03273678,0.1112677,-1.06873488426208,-0.479471921920776,0.677778124809265,-1.09742562325992,-0.472191587166127,0.67935873843001,0
2.40000152587891,-1.21910500526428,2.0560245513916,2.02136158943176,-1.4198692197338,2.35488632173988,2.02182377494768,2193.639,3556.853,3268.996,0,-0.07777975,0.03250665,0.1141921,-1.07013309001923,-0.477189123630524,0.662765085697174,-1.09897493039424,-0.472858210743393,0.680317833349887,0
2.42000198364258,-1.24063014984131,2.04649758338928,2.03496241569519,-1.44186237448181,2.34542328166942,2.03543858541595,2019.502,2579.447,2595.962,1894.723,-0.07127524,0.03305833,0.1098239,-1.07625663280487,-0.476347476243973,0.680039405822754,-1.10024334841354,-0.4734039755816,0.681103044526962,0
2.44000244140625,-1.26217210292816,2.03702163696289,2.04825377464294,-1.46387808506052,2.33595053645515,2.04906735901791,2183.791,3555.346,3260.256,0,-0.0755869,0.03274457,0.1127018,-1.07709777355194,-0.473803281784058,0.664573848247528,-1.10123038958312,-0.473828671822132,0.681714070030222,0
2.45999908447266,-1.28382456302643,2.02756786346436,2.06188583374023,-1.48590651627916,2.32647231790489,2.06270400730194,2005.907,2576.415,2579.649,1907.633,-0.06899558,0.03321948,0.1082719,-1.08262073993683,-0.47267746925354,0.681602954864502,-1.10193556692257,-0.474132089930926,0.682150608395601,0
2.47999954223633,-1.30548226833344,2.01817035675049,2.07519674301147,-1.50795043548148,2.31698743530794,2.07635024338568,2174.184,3554.047,3250.125,0,-0.07329765,0.03282483,0.1111259,-1.08288633823395,-0.469883918762207,0.665547013282776,-1.10235887855907,-0.474314229102152,0.682412658463722,0
2.5,-1.32723867893219,2.0088005065918,2.08884620666504,-1.52999999932945,2.30750012397766,2.08999997377396,1991.693,2571.444,2556.448,1929.888,-0.06655719,0.03323533,0.1065992,-1.08782291412354,-0.468487054109573,0.682472825050354,-1.10250000050292,-0.474374949932098,0.682500019669533,0
2.52000045776367,-1.34898865222931,1.99949145317078,2.1021625995636,-1.55204956317742,2.29801281264738,2.10364970416224,2161.936,3561.435,3233.366,0,-0.07087364,0.0327864,0.1094515,-1.08750593662262,-0.465451657772064,0.665823698043823,-1.10235887855907,-0.474314229102152,0.682412658463722,0
2.54000091552734,-1.37082540988922,1.99021589756012,2.11581230163574,-1.57409348237975,2.28852793005043,2.11729594024597,1977.86,2562.594,2533.809,1954.453,-0.06402985,0.03315777,0.1048164,-1.09182965755463,-0.463779032230377,0.682484269142151,-1.10193556692257,-0.474132089930926,0.682150608395601,0
2.56000137329102,-1.39264380931854,1.98100590705872,2.12911629676819,-1.59612611445863,2.27904790398737,2.13093518906262,2153.156,3561.953,3220.003,0,-0.06838305,0.03266637,0.107603,-1.09092688560486,-0.46049976348877,0.665195345878601,-1.10123022817855,-0.473828602374257,0.681713970113108,0
2.58000183105469,-1.41453647613525,1.97183465957642,2.14274907112122,-1.61814182127198,2.26957516039323,2.14456396033363,1964.99,2555.536,2513.455,1974.113,-0.06147428,0.03300145,0.1028275,-1.09462869167328,-0.458555340766907,0.681640386581421,-1.10024313330221,-0.473403883025206,0.681102911362804,0
2.60000228881836,-1.43639922142029,1.96273362636566,2.15602493286133,-1.64013497118126,2.26011212240475,2.15817876780649,2140.671,3566.837,3205.855,0,-0.06589033,0.03248106,0.1055575,-1.09313905239105,-0.455049335956573,0.663798213005066,-1.09897466165884,-0.47285809511406,0.680317666989874,0
2.61999893188477,-1.45832300186157,1.95367658138275,2.16962361335754,-1.66209575487342,2.25066301069528,2.17177353904914,1952.508,2547.577,2496.851,1989.994,-0.05896452,0.03278498,0.1006657,-1.09619247913361,-0.452850133180618,0.679929256439209,-1.09742562325992,-0.472191587166126,0.67935873843001,0
2.63999938964844,-1.48020541667938,1.94469380378723,2.18285441398621,-1.68402693989188,2.24122663446822,2.18534998730279,2130.942,3564.714,3195.86,0,-0.06343969,0.03222944,0.103314,-1.09411644935608,-0.44913649559021,0.661540031433105,-1.09559602313537,-0.471404361345641,0.67822612879697,0
2.65999984741211,-1.5021356344223,1.93575966358185,2.19640326499939,-1.70591873485703,2.23180720668066,2.19890205123703,1939.782,2541.814,2481.303,2002.855,-0.05648884,0.03249208,0.09831072,-1.096519947052,-0.446709126234055,0.677446246147156,-1.09348683453544,-0.470496836414999,0.676920440579028,0
2.68000030517578,-1.52401292324066,1.92690348625183,2.20957541465759,-1.72776555581996,2.22240712994983,2.2124262741215,2120.37,3566.043,3183.021,0,-0.06102154,0.03189678,0.1009047,-1.09386312961578,-0.442816138267517,0.658610105514526,-1.09109887036509,-0.469469362144494,0.675442177003072,0
2.70000076293945,-1.54592490196228,1.91809976100922,2.2230589389801,-1.74956183617416,2.213028799431,2.22591920996157,1925.804,2535.91,2467.705,2014.566,-0.0540643,0.03211363,0.09582966,-1.09559857845306,-0.440185606479645,0.674182236194611,-1.08843305191934,-0.468322334941636,0.673791908394614,0
2.72000122070313,-1.56777250766754,1.90937697887421,2.23615622520447,-1.77130202882336,2.20367460188472,2.23937742484041,2113.987,3559.28,3174.016,0,-0.05863695,0.03146022,0.09834673,-1.09236598014832,-0.4361312687397,0.654869079589844,-1.08549040888332,-0.467056197851165,0.671970272177789,0
2.7400016784668,-1.58964133262634,1.90071058273315,2.24956130981445,-1.79298060834939,2.19434691474406,2.25279749826098,1910.625,2533.181,2452.461,2026.208,-0.05163709,0.03161509,0.09320085,-1.09344720840454,-0.433322191238403,0.670254528522491,-1.08227207933222,-0.465671440555045,0.66997797287536,0
2.76000213623047,-1.61143398284912,1.89212834835052,2.26257133483887,-1.81459207318004,2.18504810518187,2.26617602448799,2104.009,3558.868,3161.966,0,-0.05624117,0.03090105,0.09569301,-1.08964395523071,-0.429126709699631,0.650503098964691,-1.07877930973132,-0.464168599372462,0.667815782108711,0
2.78000259399414,-1.63323569297791,1.88360500335693,2.27588534355164,-1.83613094775688,2.17578052917795,2.27950961388994,1894.79,2528.98,2434.657,2042.225,-0.04917953,0.03099705,0.09050082,-1.09007501602173,-0.426156312227249,0.665695369243622,-1.07501345493597,-0.46254825725983,0.665484538597853,0
2.79999923706055,-1.65494966506958,1.87516856193542,2.28879404067993,-1.85758769925251,2.16654828844162,2.29279236519255,2096.148,3555.429,3150.637,0,-0.05381024,0.03022026,0.09296654,-1.08570790290833,-0.421826869249344,0.645437359809875,-1.07097677406178,-0.460811386251471,0.662985640842947,0
2.81999969482422,-1.67665982246399,1.86679458618164,2.30200409889221,-1.87896509797278,2.15735019098767,2.30602599334712,1877.622,2524.565,2415.266,2061.602,-0.04665006,0.03026018,0.08771427,-1.08550417423248,-0.418701618909836,0.660507202148438,-1.06666929835407,-0.458957999791384,0.660319108186353,0
2.84000015258789,-1.69827151298523,1.85850977897644,2.31479978561401,-1.90025365854909,2.14819031810522,2.31920462645863,2087.35,3556.093,3136.116,0,-0.05130047,0.02942995,0.0901657,-1.08058655261993,-0.414242178201675,0.639790534973145,-1.06209345202774,-0.456989140951513,0.657486441332568,0
2.86000061035156,-1.71986651420593,1.85029053688049,2.32789397239685,-1.9214480311499,2.13907097167731,2.33232495272651,1862.356,2519.869,2393.992,2081.075,-0.04406786,0.02942007,0.08485441,-1.07975077629089,-0.410961657762527,0.654715120792389,-1.05725102347782,-0.454905579228273,0.654488747383304,0
2.88000106811523,-1.74135231971741,1.84216284751892,2.34056305885315,-1.94254290279636,2.12999443773033,2.34538368316376,2078.767,3554.209,3123.825,0,-0.04876727,0.02854109,0.08727854,-1.07428753376007,-0.406372725963593,0.633453607559204,-1.0521439094894,-0.452708130755304,0.651327200538896,0
2.90000152587891,-1.76280879974365,1.83410429954529,2.35352873802185,-1.96353299953007,2.12096298550123,2.3583775529389,1845.492,2514.567,2373.297,2102.477,-0.04145264,0.02848837,0.08189055,-1.07283174991608,-0.402941435575485,0.648290038108826,-1.04677411523767,-0.450397658303471,0.648003042098304,0
2.92000198364258,-1.78414535522461,1.82613968849182,2.36605978012085,-1.98441308858102,2.11197886650476,2.37130332271801,2068.147,3556.436,3109.562,0,-0.04619679,0.02757528,0.08430146,-1.06683766841888,-0.398229867219925,0.626555860042572,-1.04114375428791,-0.447975071280863,0.644517580459114,0
2.94000244140625,-1.80544066429138,1.81824672222137,2.37888431549072,-2.00517798053537,2.10304431360073,2.38415778000673,1830.086,2508.293,2354.057,2121.702,-0.03882516,0.02748826,0.07885082,-1.06475961208344,-0.394650369882584,0.64122998714447,-1.03525504859546,-0.445441325732794,0.640872191117535,0
2.95999908447266,-1.82660555839539,1.81045031547546,2.39126467704773,-2.02581860575671,2.0941632292003,2.39693531026807,2060.642,3553.267,3097.677,0,-0.04361725,0.02653901,0.08121935,-1.05824840068817,-0.389820098876953,0.61901468038559,-1.02911152474823,-0.442797939051516,0.637069057199471,0
2.97999954223633,-1.84771680831909,1.80272817611694,2.40393567085266,-2.04633774394789,2.08533441727499,2.40963763427052,1813.82,2503.589,2336.564,2138.618,-0.03619076,0.02641386,0.07570253,-1.0555545091629,-0.386098206043243,0.633555471897125,-1.022713277122,-0.440044951844293,0.633108237128031,0
3,-1.868687748909,1.79510509967804,2.41615438461304,-2.06672639957428,2.07656174835205,2.42225918334961,2052.793,3551.677,3084.608,0,-0.04102493,0.02542701,0.07803538,-1.04854094982147,-0.381157964468002,0.610938012599945,-1.01606400046349,-0.437183953857422,0.628992018127441,0
3.02000045776367,-1.88959217071533,1.78755903244019,2.42866110801697,-2.08697957831524,2.06784737134813,2.43479686578296,1798.591,2500.146,2318.496,2153.605,-0.03356915,0.02525855,0.07247134,-1.04523408412933,-0.377302527427673,0.625335574150085,-1.00916635026771,-0.434216087676216,0.62472204407561,0
3.04000091552734,-1.91034698486328,1.780113697052,2.44070625305176,-2.10709234004513,2.05919341186127,2.44724762339747,2045.327,3547.122,3073.967,0,-0.03846297,0.02422722,0.07477053,-1.03772699832916,-0.372261494398117,0.602251827716827,-1.00202309041976,-0.43114254252322,0.620300025949072,0
3.06000137329102,-1.93102359771729,1.77274787425995,2.45303773880005,-2.12705980100126,2.05060197123813,2.45960843291139,1780.957,2496.775,2300.301,2171.288,-0.03094966,0.02401374,0.06916009,-1.03382325172424,-0.368285834789276,0.616579532623291,-0.994637093194808,-0.4279645542582,0.615727741822988,0
3.08000183105469,-1.95153999328613,1.76548516750336,2.46489930152893,-2.14687713595163,2.04207512564123,2.47187630727625,2036.274,3546.018,3061.478,0,-0.0358845,0.02294333,0.07145275,-1.02583956718445,-0.363153517246246,0.593077540397644,-0.987011339258122,-0.424683405378145,0.611007036871143,0
3.10000228881836,-1.9719672203064,1.75830388069153,2.47704577445984,-2.16653958036288,2.03361492511617,2.48404829701893,1764.37,2492.607,2281.058,2189.649,-0.02830834,0.02268903,0.06581038,-1.02135014533997,-0.359062612056732,0.60732102394104,-0.979148917665042,-0.421300425017273,0.606139823365945,0
3.11999893188477,-1.9922251701355,1.75122690200806,2.48871302604675,-2.18603872829175,2.02522498650551,2.49611919846012,2029.387,3542.068,3049.652,0,-0.03328365,0.0215783,0.06808542,-1.01290667057037,-0.353841066360474,0.583368062973022,-0.971054592046769,-0.41781766283301,0.601129050222034,0
3.13999938964844,-2.01238203048706,1.7442342042923,2.5006639957428,-2.20537738341953,2.01690410346351,2.50809074721212,1746.807,2488.78,2261.799,2208.839,-0.02563079,0.02128417,0.06240286,-1.00784599781036,-0.349635779857635,0.597554564476013,-0.962728579444533,-0.414235212212131,0.595974851798267,0
3.15999984741211,-2.03236126899719,1.73734772205353,2.51212811470032,-2.2245472411431,2.00865584922888,2.51995780232997,2022.603,3539.913,3036.025,0,-0.03064286,0.02013654,0.06466108,-0.998960971832275,-0.344326108694077,0.573201239109039,-0.954175816030892,-0.41055519705179,0.590680283820602,0
3.18000030517578,-2.05222821235657,1.7305474281311,2.52387452125549,-2.24354380138856,2.00048216005771,2.53171757805356,1730.74,2485.686,2241.521,2226.745,-0.02294313,0.01980292,0.05894266,-0.993337690830231,-0.340005785226822,0.587317109107971,-0.94539982440085,-0.406779133026206,0.58524752694315,0
3.20000076293945,-2.07190847396851,1.72385549545288,2.5351243019104,-2.26236263561939,1.99238494142555,2.54336733290784,2015.618,3535.658,3024.652,0,-0.02801752,0.01861876,0.06117878,-0.984023451805115,-0.334611088037491,0.562493324279785,-0.936404235539492,-0.402908582446823,0.579678828918646,0
3.22000122070313,-2.09146571159363,1.71725177764893,2.54665637016296,-2.28099938900442,1.98436606709459,2.55490437104486,1713.103,2482.353,2221.529,2246.504,-0.0202592,0.0182487,0.05541677,-0.97785347700119,-0.330182641744614,0.576598584651947,-0.927192788821982,-0.398945154262308,0.573976504598449,0
3.2400016784668,-2.11082792282104,1.71075773239136,2.55768346786499,-2.29944978258558,1.97642737818094,2.56632604358572,2006.858,3534.92,3011.679,0,-0.02539111,0.01703837,0.05765081,-0.968128085136414,-0.32470965385437,0.551357448101044,-0.91776933201357,-0.394890504058554,0.568142935932542,0
3.26000213623047,-2.13005661964417,1.70435404777527,2.5689914226532,-2.31770961544581,1.96857068222185,2.57762974996267,1696.373,2478.069,2202.331,2265.443,-0.01758645,0.01663896,0.05186057,-0.961421370506287,-0.32017719745636,0.565400421619415,-0.90813782126959,-0.39074633405868,0.562180571969535,0
3.27999877929688,-2.14908266067505,1.69806134700775,2.5797860622406,-2.33577134012187,1.96079922667992,2.58881081793642,2000.951,3529.862,3000.374,0,-0.02277376,0.01540123,0.05407111,-0.951304614543915,-0.314630150794983,0.539732396602631,-0.898304216251578,-0.386515208538549,0.556093102023818,0
3.29999923706055,-2.167964220047,1.69186162948608,2.59086084365845,-2.35363781007389,1.95311178379095,2.59987101393471,1679.121,2475.057,2184.048,2283.003,-0.01491956,0.01497052,0.0482484,-0.944074809551239,-0.309997946023941,0.55374276638031,-0.888268937369113,-0.38219730838866,0.549880786348944,0
3.31999969482422,-2.18663597106934,1.6857738494873,2.60141491889954,-2.37130160722417,1.94551154534655,2.61080574581408,1995.013,3526.284,2987.814,0,-0.02016013,0.01370578,0.05043945,-0.933585166931152,-0.304382145404816,0.527708113193512,-0.878038122530657,-0.377795274579551,0.543547424602645,0
3.34000015258789,-2.20515275001526,1.67978072166443,2.61224842071533,-2.38875886448137,1.93800017524809,2.62161261966077,1662.953,2473.025,2165.197,2299.072,-0.01228356,0.01324167,0.04459639,-0.925843060016632,-0.299655497074127,0.541674435138702,-0.867616161431205,-0.373310995874343,0.537095734215228,0
3.36000061035156,-2.22345232963562,1.67390120029449,2.62255263328552,-2.406005803634,1.93057929915441,2.6322892965819,1989.195,3520.385,2977.515,0,-0.01759604,0.01194712,0.04676773,-0.914996206760406,-0.293978661298752,0.515214025974274,-0.857007552155826,-0.36874640767338,0.530528499715627,0
3.38000106811523,-2.24158763885498,1.66811811923981,2.63313674926758,-2.42303873751824,1.9232505035491,2.64283349404741,1645.258,2471.029,2146.33,2317.065,-0.009679525,0.01144985,0.04090244,-0.906760215759277,-0.28916871547699,0.529203355312347,-0.846216901179679,-0.364103492014234,0.523848572731403,0
3.40000152587891,-2.25949931144714,1.66244912147522,2.6431839466095,-2.43985407218584,1.9160153348077,2.65324298723213,1981.871,3517.651,2965.775,0,-0.01505645,0.01013224,0.04307687,-0.895575821399689,-0.283439457416534,0.502359449863434,-0.835248923368004,-0.359384277571698,0.517058871988738,0
3.42000198364258,-2.2772364616394,1.65687799453735,2.6535108089447,-2.45644830907191,1.90887529826493,2.66351561035773,1628.248,2468.108,2127.597,2335.257,-0.007101585,0.009607697,0.03720317,-0.886861979961395,-0.278552383184433,0.516340553760529,-0.824108441976121,-0.354590839657789,0.510162383312438,0
3.43999862670898,-2.29474353790283,1.65142250061035,2.66329288482666,-2.47281494657125,1.90183319137989,2.67364733862088,1977,3511.908,2954.884,0,-0.01253923,0.008267555,0.03936638,-0.875362396240234,-0.272775501012802,0.489107400178909,-0.812802561098952,-0.34972623496609,0.503163504475677,0
3.45999908447266,-2.31206750869751,1.64606630802155,2.67335510253906,-2.48895692832918,1.89488774758421,2.68363999427827,1611.238,2466.113,2109.139,2352.62,-0.004545483,0.007715778,0.03347966,-0.866188108921051,-0.267815619707108,0.503105640411377,-0.801332006385299,-0.344790775723006,0.496062684689628,0
3.47999954223633,-2.3291552066803,1.64082646369934,2.68286538124084,-2.50486791119015,1.88804169616054,2.69348965061443,1972.116,3507.128,2943.345,0,-0.01004598,0.006355449,0.03563247,-0.854393303394318,-0.261995941400528,0.475515305995941,-0.789704067205609,-0.339787598340998,0.488864436421841,0
3.5,-2.34605073928833,1.63568711280823,2.69265604019165,-2.5205447997813,1.88129636896134,2.70319439144611,1595.249,2464.795,2090.245,2368.959,-0.002036253,0.005776937,0.0297377,-0.844773888587952,-0.256968677043915,0.489533752202988,-0.777924000354857,-0.334718964672089,0.481572013878822,0
3.52000045776367,-2.36270475387573,1.63066494464874,2.7018871307373,-2.53598460495198,1.87465305213461,2.71275236634669,1966.92,3501.476,2933.237,0,-0.007619836,0.004397762,0.03188256,-0.83270263671875,-0.251114577054977,0.461551934480667,-0.765997171018108,-0.329587183205523,0.474188738365705,0
3.54000091552734,-2.37915778160095,1.62574410438538,2.7113995552063,-2.55118444594166,1.86811298519115,2.72216179198813,1578.181,2463.257,2072.137,2386.285,0.0004107463,0.003795143,0.02598182,-0.822656810283661,-0.246031522750854,0.475619316101074,-0.753929052770513,-0.324394609067776,0.466717998286246,0
3.56000137329102,-2.39536452293396,1.62094116210938,2.72034525871277,-2.5661415525477,1.86167736007175,2.73142095348307,1961.297,3497.239,2922.583,0,-0.005249623,0.002403643,0.02813077,-0.810330629348755,-0.240152597427368,0.447290152311325,-0.741725227577293,-0.319143644022539,0.45916324914283,0
3.58000183105469,-2.4113621711731,1.61624050140381,2.72957301139832,-2.58085326729328,1.85534732021446,2.74052820572674,1561.934,2461.547,2054.68,2402.619,0.002793718,0.001781702,0.02223667,-0.799876987934113,-0.235023111104965,0.461387574672699,-0.729391385793765,-0.313836736470737,0.451528013536464,0
3.60000228881836,-2.42710852622986,1.61165809631348,2.73822736740112,-2.5953170475952,1.84912395962179,2.74948197473904,1957.523,3490.509,2913.034,0,-0.00294226,0.0003778206,0.02437986,-0.787319302558899,-0.229128062725067,0.432713985443115,-0.716933326165322,-0.308476381450513,0.443815881166779,0
3.61999893188477,-2.44263792037964,1.6071789264679,2.7471649646759,-2.6095277810186,1.84300947803163,2.75827909567923,1545.947,2460.89,2037.521,2417.873,0.005110527,-0.0002647182,0.01849281,-0.776477873325348,-0.22396157681942,0.446874231100082,-0.704359365424783,-0.303066157419654,0.436032000487571,0
3.63999938964844,-2.45791244506836,1.60281753540039,2.75552248954773,-2.6234885835008,1.83700253474321,2.76692149746096,1953.09,3484.767,2903.582,0,-0.0007036072,-0.001678857,0.0206397,-0.763709902763367,-0.218059316277504,0.417872786521912,-0.691670720740692,-0.297606588091786,0.428177124984152,0
3.65999984741211,-2.47296237945557,1.59856033325195,2.764164686203,-2.6371945352351,1.83110524661191,2.77540613448951,1530.266,2460.222,2020.425,2433.208,0.007356106,-0.002339853,0.0147674,-0.752501249313354,-0.212865889072418,0.43210768699646,-0.678875903610016,-0.292101335726265,0.420256523678599,0
3.68000030517578,-2.48775339126587,1.59442114830017,2.77222919464111,-2.65064357486757,1.82531850058072,2.78373173068862,1932.135,3492.119,2875.987,22.52795,0.00160218,-0.003698065,0.01696229,-0.73955237865448,-0.206962183117867,0.403221547603607,-0.665981146317811,-0.286553081901244,0.412274054652249,0
3.70000076293945,-2.50231289863586,1.59038686752319,2.78056716918945,-2.66383376677681,1.81964312949348,2.79189708781642,1525.385,2456.786,2011.03,2431.412,0.009530337,-0.004328702,0.01116878,-0.72799152135849,-0.201728239655495,0.41689544916153,-0.65299278953921,-0.280964554832092,0.40423364308506,0
3.72000122070313,-2.51661109924316,1.586470246315,2.78833794593811,-2.6767633032417,1.81407991116207,2.79990108680742,1911.629,3482.171,2840.248,71.91197,0.003995083,-0.005576127,0.01324086,-0.714900076389313,-0.195821762084961,0.388538151979446,-0.639917282339434,-0.275338529371411,0.396139281255611,0
3.7400016784668,-2.53067064285278,1.58265972137451,2.7963604927063,-2.68943050660933,1.80862956743367,2.80774268911456,1531.565,2463.266,2015.657,2394.143,0.01158119,-0.006157228,0.007537132,-0.702986657619476,-0.190532952547073,0.401125937700272,-0.626761182173781,-0.26967782700902,0.387995028541112,0
3.76000213623047,-2.54446601867676,1.5789669752121,2.80383586883545,-2.70183383146282,1.803292763258,2.81542093805117,1890.604,3460.793,2800.243,139.528,0.006325772,-0.007278419,0.009344657,-0.689760565757751,-0.184634417295456,0.373773634433746,-0.613531154887639,-0.263985315871967,0.379805011417393,0
3.77999877929688,-2.5580153465271,1.57538056373596,2.81153225898743,-2.7139695770734,1.79807109095524,2.82293354268985,1541.429,2482.766,2034.964,2324.919,0.01333427,-0.007815313,0.003807273,-0.677481949329376,-0.17931242287159,0.384823381900787,-0.60023651686137,-0.258265004538452,0.371574997167698,0
3.79999923706055,-2.57129764556885,1.57191133499146,2.81871032714844,-2.72584109938593,1.7929631065561,2.83028258052034,1865.146,3428.528,2758.465,225.9619,0.008421663,-0.00881453,0.005294992,-0.664118349552155,-0.173463508486748,0.35890331864357,-0.586879077262983,-0.252517671442928,0.363306105753209,0
3.81999969482422,-2.58432745933533,1.56854808330536,2.82607245445251,-2.73744492223163,1.78797030575888,2.83746589962856,1551.924,2513.148,2065.705,2232.398,0.01471392,-0.009321064,4.574742E-05,-0.651479840278625,-0.168161422014236,0.368101000785828,-0.573468357077023,-0.246747413199059,0.355004231116903,0
3.84000015258789,-2.59708690643311,1.56529998779297,2.83295202255249,-2.74878005078916,1.78309311660741,2.84448288417273,1837.372,3386.413,2714.266,328.5126,0.01024755,-0.01021376,0.001212283,-0.63798463344574,-0.162414819002151,0.343974053859711,-0.560011455688534,-0.240957284473894,0.346673768116317,0
3.8599967956543,-2.6095871925354,1.56215631961823,2.83997464179993,-2.75984354851568,1.77833280261403,2.85133171629293,1562.726,2551.52,2102.086,2125.914,0.01578883,-0.01070378,-0.00363628,-0.62501984834671,-0.157184287905693,0.351130783557892,-0.546518158200277,-0.23515149552379,0.33832077419619,0
3.88000106811523,-2.62181544303894,1.55912482738495,2.84655499458313,-2.77064096329669,1.77368697667861,2.85801583039457,1809.096,3336.617,2667.262,443.308,0.01188894,-0.01150645,-0.002779807,-0.611412167549133,-0.151579350233078,0.329023331403732,-0.532988048794546,-0.229329867434001,0.329944991945551,0
3.89999771118164,-2.63377904891968,1.55619525909424,2.85323715209961,-2.78116350015273,1.7691594230351,2.8645297819664,1575.778,2594.921,2137.542,2013.495,0.01670729,-0.01199062,-0.007171893,-0.598174452781677,-0.146446198225021,0.334102213382721,-0.519438870577852,-0.223500034567577,0.321557405192552,0
3.92000198364258,-2.64546871185303,1.5533754825592,2.85951852798462,-2.79141877885682,1.76474686310805,2.8708782880109,1782.79,3283.628,2617.691,562.7399,0.01342706,-0.01271766,-0.006620086,-0.584479212760925,-0.140997558832169,0.314070820808411,-0.505867819463029,-0.217660790404144,0.31315627807366,0
3.93999862670898,-2.65688920021057,1.55065608024597,2.86586046218872,-2.80139871920582,1.76045277358314,2.87705634649742,1589.069,2640.376,2169.846,1902.649,0.01755286,-0.0131965,-0.01054985,-0.571027219295502,-0.135967820882797,0.317098826169968,-0.492292886511002,-0.21181987599461,0.304752747912623,0
