t,x_s1,x_s2,x_s3,x_s_d1,x_s_d2,x_s_d3,propellers_rpms1,propellers_rpms2,propellers_rpms3,propellers_rpms4,rollRad,pitchRad,yawRad,v_s1,v_s2,v_s3,v_s_d1,v_s_d2,v_s_d3,insideCount
0,-0.0599999986588955,2.94000005722046,1.17999994754791,-0.0599999986588955,2.94000005722046,1.17999994754791,0,0,0,0,0,0,0,0,0,0,-1.06581410364015E-15,4.44089209850063E-16,4.44089209850063E-16,0
0.0199966430664063,-0.0599999986588955,2.94000005722046,1.1771354675293,-0.0600018680476204,2.93999925287472,1.18000110478858,0,0,0,0,0.0163538,-0.002474609,-2.024222E-05,3.71994488546079E-08,3.50004931704007E-08,-0.143225952982903,-0.000279892991557604,-0.000120430134961378,0.000173267094926113,5
0.0400009155273438,-0.0599999986588955,2.94000005722046,1.17048275470734,-0.0600148724204753,2.93999365745638,1.18000915511487,0,0,0,0,0.03270752,-0.004950816,-5.430172E-05,3.62924410524101E-08,3.44428769949445E-08,-0.332637369632721,-0.00111101934050116,-0.00047804058392963,0.00068777389696065,6
0.05999755859375,-0.0600004345178604,2.94013261795044,1.16416561603546,-0.0600498857373401,2.93997859220429,1.18003083002592,3185.473,2835.817,1501.023,2767.634,0.03127922,-0.00494336,-0.01646952,-2.17786164284917E-05,0.00662230560556054,-0.315859228372574,-0.00247936261166862,-0.00106680046642749,0.00153484356504269,6
0.0799942016601563,-0.0599162243306637,2.94038772583008,1.15857720375061,-0.0601175240668593,2.93994948932069,1.18007270137395,3065.683,3067.238,2155.073,2024.076,0.01897327,-0.004310593,-0.04351445,0.00421056058257818,0.0127498283982277,-0.279422104358673,-0.00437186567523228,-0.00188109166426407,0.00270639311381153,6
0.0999984741210938,-0.0596375651657581,2.94068765640259,1.15374851226807,-0.0602281887669101,2.93990187339187,1.18014120809498,2640.201,3831.766,2620.39,1134.782,-0.005854693,-0.002887932,-0.07014393,0.0139328734949231,0.0149971218779683,-0.241436272859573,-0.00677637982016689,-0.00291568692648091,0.00419490191241918,6
0.1199951171875,-0.059084914624691,2.94089889526367,1.1495703458786,-0.0603918861403606,2.93983143898525,1.18024254456713,2092.321,4101.94,3169.318,755.9096,-0.04012052,-0.0004506069,-0.08993442,0.0276325792074203,0.0105604007840157,-0.208909749984741,-0.00967801353495435,-0.00416417885169243,0.00599115140585487,5
0.139999389648438,-0.0582315064966679,2.94085621833801,1.14596688747406,-0.0606185767455666,2.93973390035084,1.18038287685052,1510.144,4074.802,3735.872,702.0605,-0.07649291,0.002388573,-0.09949676,0.0426703728735447,-0.00213142205029726,-0.180175065994263,-0.0130660253322238,-0.00562194567796536,0.00808849210174802,4
0.159996032714844,-0.057099487632513,2.94039487838745,1.14297831058502,-0.0609176604100223,2.93960521300545,1.18056802388615,1135.368,3846.936,4069.735,879.9127,-0.1062782,0.004335486,-0.09869994,0.0566009618341923,-0.0230698734521866,-0.149430751800537,-0.0169249902365933,-0.00728235046931681,0.0104773752055438,4
0.180000305175781,-0.0557377822697163,2.93938803672791,1.14071142673492,-0.0612986871007165,2.9394412678651,1.18080389755851,1100.784,3565.35,4010.016,1148.989,-0.1236282,0.004492516,-0.0899994,0.0680852830410004,-0.0503410175442696,-0.113343797624111,-0.0212451141043368,-0.00914117907931815,0.0131517376757159,3
0.199996948242188,-0.0541965439915657,2.9377772808075,1.13924884796143,-0.0617704296168641,2.93923829023936,1.18109592864822,1373.552,3339.622,3594.728,1386.237,-0.1278749,0.003023064,-0.07724978,0.0770619511604309,-0.0805371999740601,-0.073130190372467,-0.0260104776919234,-0.0111915819022102,0.0161017247421801,3
0.219993591308594,-0.0525143146514893,2.93557620048523,1.13858413696289,-0.0623418263269037,2.93899243419801,1.18144965043113,1790.593,3212.981,3017.05,1527.103,-0.1229757,0.0008615369,-0.06426048,0.0841115415096283,-0.110051535069942,-0.0332342982292175,-0.0312101301935526,-0.0134288471121871,0.0193205573344865,3
0.239997863769531,-0.0507196709513664,2.93284702301025,1.13860714435577,-0.0630217183703222,2.93869989564571,1.18187053599376,2159.201,3168.406,2517.368,1558.599,-0.1149639,-0.0009875001,-0.05362222,0.0897321999073029,-0.136453598737717,0.00114931166172028,-0.0368338920540454,-0.0158485947310391,0.02280193382306,3
0.259994506835938,-0.0488373637199402,2.92966485023499,1.13913798332214,-0.0638179029240226,2.93835731967507,1.18236341216003,2352.181,3159.179,2273.724,1495.639,-0.1090506,-0.001904693,-0.04623727,0.0941154360771179,-0.159108251333237,0.0265437606722116,-0.0428651747123285,-0.0184436871643672,0.0265355850983733,3
0.279998779296875,-0.0468918457627296,2.92608761787415,1.13999617099762,-0.0647390625194898,2.93796097043536,1.18293365383054,2352.372,3152.293,2324.363,1363.692,-0.1078149,-0.001744371,-0.04152188,0.0972758680582047,-0.178861543536186,0.0429088547825813,-0.0492963837173861,-0.0212108567320638,0.030516809833474,3
0.299995422363281,-0.0449088364839554,2.92214369773865,1.14106225967407,-0.0657923226682404,2.93750778201804,1.18358567203635,2229.529,3143.893,2572.554,1194.537,-0.1110874,-0.000737163,-0.03798733,0.0991504266858101,-0.197191640734673,0.0533016324043274,-0.0561105313314725,-0.0241427940851591,0.0347350918094591,3
0.319999694824219,-0.0429170057177544,2.91783547401428,1.142294049263,-0.0669860785243584,2.93699414222283,1.18432466377777,2073.727,3132.814,2873.441,1032.4,-0.1169319,0.0006862361,-0.03397927,0.099591352045536,-0.21540579199791,0.0615924373269081,-0.0633008373176985,-0.0272365818771378,0.0391862337367069,3
0.339996337890625,-0.0409490242600441,2.91315102577209,1.1437075138092,-0.068326768706371,2.93641728069206,1.18515461486636,1955.513,3107.099,3109.09,921.819,-0.122842,0.00206945,-0.02837651,0.0983993783593178,-0.234224930405617,0.0706722736358643,-0.0708499516420146,-0.0304847548730522,0.0438594951176439,3
0.360000610351563,-0.0390402525663376,2.90807723999023,1.14534342288971,-0.0698225328270578,2.93577369517774,1.1860805641102,1904.359,3065.965,3222.543,880.5258,-0.1267089,0.003092741,-0.02087013,0.0954384580254555,-0.253692150115967,0.0817948132753372,-0.0787518717320621,-0.0338847303337087,0.0487511600740379,3
0.379997253417969,-0.0372257828712463,2.90261030197144,1.14724361896515,-0.0714791088463715,2.935060916796,1.18710606357981,1924.165,3020.944,3206.86,896.3106,-0.1274189,0.003642021,-0.01188622,0.090723492205143,-0.273343622684479,0.0950105637311935,-0.0869889214763108,-0.0374289027221294,0.0538502862508218,3
0.399993896484375,-0.0355373434722424,2.89676117897034,1.14943146705627,-0.0733036822025899,2.9342758538535,1.18823556140379,1990.913,2989.49,3099.117,938.8434,-0.1250418,0.003790792,-0.002207228,0.0844219923019409,-0.292450368404388,0.109393857419491,-0.0955525119207663,-0.0411135764513579,0.0591515566763244,3
0.419998168945313,-0.0340020693838596,2.89055466651917,1.15190577507019,-0.0753034649285836,2.93341540321397,1.18947352217404,2072.179,2974.048,2953.401,987.2947,-0.120499,0.003707697,0.00733762,0.0767640024423599,-0.310325264930725,0.12371601164341,-0.104434660908044,-0.0449353170220673,0.0646500300148815,3
0.439994812011719,-0.0326426476240158,2.88402462005615,1.15464174747467,-0.0774831213880516,2.93247755793201,1.19082283335389,2137.002,2973.204,2824.885,1022.565,-0.1150741,0.003563602,0.0161496,0.0679711624979973,-0.326508402824402,0.136800765991211,-0.11361726969793,-0.0488863370519643,0.070334502284139,4
0.459999084472656,-0.0314784795045853,2.87720775604248,1.15760147571564,-0.0798502821969742,2.93145903476675,1.19228821865812,2167.943,2977.721,2749.155,1039.162,-0.1098671,0.003474565,0.02394582,0.058208417147398,-0.340849220752716,0.147985935211182,-0.123096124252221,-0.0529648233581361,0.0762023647937057,4
0.479995727539063,-0.0305268466472626,2.87013864517212,1.16074788570404,-0.0824088828700873,2.93035814037613,1.19387211435783,2168.544,2983.795,2732.066,1033.342,-0.1055379,0.00348142,0.03074434,0.0475815162062645,-0.353459477424622,0.157322108745575,-0.132852887402757,-0.0571628859694044,0.0822422659629699,4
0.5,-0.0298036728054285,2.86284708976746,1.16405189037323,-0.085166398670376,2.92917165836334,1.1955791479969,2146.435,2990.041,2763.548,1008.247,-0.1022718,0.003568782,0.03679812,0.036158874630928,-0.364579707384109,0.165199875831604,-0.142884000065179,-0.0614789935111996,0.0884520025491718,4
0.519996643066406,-0.0293244030326605,2.85535717010498,1.16749918460846,-0.0881260274065667,2.92789821280061,1.19741129917127,2116.936,2991.894,2816.396,979.0345,-0.09983605,0.003686039,0.04240661,0.0239630974829197,-0.374495416879654,0.172366455197334,-0.153170920546857,-0.0659051680111775,0.0948200963613094,4
0.539993286132813,-0.029104070737958,2.84768867492676,1.17108523845673,-0.091293865515634,2.92653518056143,1.19937234186584,2088.861,2992.656,2871.837,949.6021,-0.09783335,0.003776856,0.04786165,0.0110169379040599,-0.38342159986496,0.179305389523506,-0.163706645289342,-0.0704383960337938,0.101342211863077,4
0.55999755859375,-0.0291575826704502,2.8398585319519,1.17481577396393,-0.094676112580471,2.92507989413848,1.20146611391775,2070.438,2988.049,2908.456,936.1334,-0.09578059,0.003795895,0.05329236,-0.00267521198838949,-0.391504555940628,0.186529755592346,-0.17448465888317,-0.0750758741803766,0.108014315705644,5
0.579994201660156,-0.0294989682734013,2.8318829536438,1.17869818210602,-0.0982748462459366,2.92353145957921,1.20369390148813,2064.684,2986.556,2921.82,929.7319,-0.0933896,0.003716397,0.05873891,-0.0170696172863245,-0.398781061172485,0.194120436906815,-0.185486174984119,-0.0798095192118365,0.114824778247021,5
0.599998474121094,-0.0301411636173725,2.8237783908844,1.18273890018463,-0.102097262171133,2.92188678079254,1.20606015903275,2066.088,2984.189,2912.77,938.8513,-0.09050114,0.003537732,0.06411403,-0.0321095660328865,-0.405231446027756,0.202036127448082,-0.196709126405959,-0.0846384416756885,0.121772319800455,5
0.6199951171875,-0.0310954637825489,2.81556224822998,1.18694186210632,-0.106144683970236,2.92014528826426,1.20856570593183,2074.963,2986.375,2886.3,952.8086,-0.08717165,0.00327174,0.06928787,-0.0477153137326241,-0.410806834697723,0.210146054625511,-0.208134604141382,-0.0895545055543457,0.128845234789665,5
0.639999389648438,-0.0323710963129997,2.80725312232971,1.19130420684814,-0.110424235525481,2.91830391678686,1.21121495220784,2082.602,2992.198,2856.276,967.3926,-0.08360249,0.002940168,0.0741518,-0.0637818649411201,-0.415454745292664,0.218119874596596,-0.219761081350814,-0.0945570538913933,0.136042578028218,5
0.659996032714844,-0.0339756794273853,2.79886960983276,1.19582235813141,-0.114936482147704,2.9163624231229,1.21400824781511,2088.023,2998.387,2825.561,985.1083,-0.0799971,0.002566727,0.07859451,-0.080228753387928,-0.419170737266541,0.225909247994423,-0.231569557951997,-0.0996379114822372,0.143352587560098,5
0.680000305175781,-0.03591463342309,2.79043030738831,1.20048642158508,-0.119688496929273,2.91431776391831,1.21694997133476,2087.856,3008.351,2808.136,991.5069,-0.07661542,0.002167753,0.08261573,-0.0969479903578758,-0.421967357397079,0.233201339840889,-0.243559016194652,-0.104796640417365,0.150774633349401,6
0.699996948242188,-0.0381925664842129,2.78195190429688,1.20529091358185,-0.124680083855354,2.91217002351282,1.22004000142426,2083.059,3013.722,2795.821,1003.537,-0.0735352,0.001759624,0.08618697,-0.113896399736404,-0.423922806978226,0.240225046873093,-0.255710395848158,-0.11002503961202,0.158296916205407,6
0.719993591308594,-0.0408122278749943,2.77344989776611,1.21022546291351,-0.129916240141956,2.90991705174396,1.22328143159838,2075.443,3023.196,2799.806,998.1161,-0.07089495,0.001343632,0.08941206,-0.13098318874836,-0.425105303525925,0.246730402112007,-0.268018433064612,-0.115320844179508,0.165916177555513,6
0.739997863769531,-0.0437764190137386,2.76493716239929,1.21528875827789,-0.135402141159277,2.90755662179454,1.22667746565781,2064.916,3024.314,2802.483,1006.891,-0.06856734,0.0009297866,0.09229145,-0.148209631443024,-0.425631165504456,0.253163456916809,-0.280478211503383,-0.120681938755799,0.173629373950669,6
0.759994506835938,-0.0470864363014698,2.75642561912537,1.22047472000122,-0.14113644597991,2.90508931062815,1.2302272735046,2058.918,3032.494,2813.307,995.4934,-0.06660885,0.00050616,0.09495021,-0.165501937270164,-0.425574332475662,0.259297847747803,-0.293070637251543,-0.126100107763583,0.181424685349205,6
0.779998779296875,-0.0507438443601131,2.74792504310608,1.22578418254852,-0.147126184485884,2.90251209348295,1.23393520697061,2048.776,3030.917,2818.382,1004.696,-0.06482347,8.403909E-05,0.09737319,-0.182869970798492,-0.425032466650009,0.265475869178772,-0.305795832832518,-0.131575403921268,0.189302187598958,6
0.799995422363281,-0.0547490604221821,2.7394437789917,1.23121535778046,-0.153369252164744,2.89982587587186,1.23779996326238,2046.837,3036.496,2823.122,998.3427,-0.06322823,-0.0003467436,0.09962601,-0.200261205434799,-0.424060136079788,0.271560698747635,-0.318634718604462,-0.13709961779199,0.197250069492735,6
0.819999694824219,-0.0591023676097393,2.73098945617676,1.23676884174347,-0.159872691993147,2.89702762739878,1.24182590231796,2041.899,3036.58,2822.351,1006.221,-0.06171929,-0.0007781757,0.1016843,-0.217664703726768,-0.422717660665512,0.277676999568939,-0.331587821991737,-0.142672976311719,0.205268657531342,6
0.839996337890625,-0.0638031810522079,2.72256851196289,1.2424441576004,-0.166633637018892,2.89411858163313,1.24601124935738,2042.616,3041.037,2818.439,1006.914,-0.06032806,-0.001211738,0.1035571,-0.235040739178658,-0.421044707298279,0.28376442193985,-0.344636106234817,-0.148287288494656,0.213346167053785,6
0.860000610351563,-0.0688502192497253,2.71418690681458,1.24823904037476,-0.173659158941841,2.89109569582005,1.2503603820997,2040.586,3043.627,2814.703,1011.922,-0.05906252,-0.00164104,0.1052349,-0.252352625131607,-0.419080197811127,0.289745986461639,-0.357780475378537,-0.153942943326036,0.221483157706883,6
0.879997253417969,-0.0742418467998505,2.70584964752197,1.25415337085724,-0.180945630646592,2.88796053060595,1.25487105518773,2040.959,3046.988,2807.427,1017.604,-0.05794293,-0.002060222,0.1066967,-0.269581645727158,-0.416867643594742,0.295717418193817,-0.371001963495383,-0.159631780297098,0.229667888678032,6
0.899993896484375,-0.0799752026796341,2.69756078720093,1.26018178462982,-0.18849723509595,2.8847112861788,1.25954585807468,2039.588,3051.637,2807.631,1015.896,-0.05705396,-0.002468218,0.1079783,-0.286668241024017,-0.414441287517548,0.301420569419861,-0.384296738353309,-0.165352150505452,0.237897987633041,7
0.919998168945313,-0.0860477685928345,2.68932366371155,1.26632511615753,-0.196318384305134,2.8813460641717,1.26438752200817,2037.138,3052.267,2802.86,1025.278,-0.05633491,-0.002851713,0.1090402,-0.303627401590347,-0.41185861825943,0.307169526815414,-0.397661187980262,-0.171102499820431,0.246171218589148,7
0.939994812011719,-0.0924556106328964,2.68114066123962,1.27257776260376,-0.204404317663683,2.87786691294234,1.26939309994354,2038.272,3058.891,2807.148,1015.465,-0.05591733,-0.00322136,0.1099611,-0.320391803979874,-0.409155488014221,0.312632143497467,-0.4110765036434,-0.176874735369747,0.254475938044738,7
0.959999084472656,-0.0991953462362289,2.67301273345947,1.27894008159637,-0.212762239776093,2.87427073255068,1.27456705187416,2032.66,3056.972,2808.407,1025.111,-0.05567605,-0.003558516,0.1107045,-0.336987674236298,-0.406394213438034,0.318116098642349,-0.424544411524882,-0.18266959988136,0.262813214588797,7
0.979995727539063,-0.106262788176537,2.66494059562683,1.28540861606598,-0.22138664033507,2.87055989392801,1.27990596665734,2034.542,3061.904,2815.052,1014.777,-0.05569362,-0.003875432,0.1113409,-0.353371351957321,-0.403611391782761,0.32342454791069,-0.438046240701377,-0.188479059778567,0.271171490030365,7
1,-0.113654002547264,2.65692353248596,1.29198360443115,-0.230284798736574,2.86673126495361,1.28541435058594,2030.691,3060.323,2819.521,1019.652,-0.05586194,-0.00416039,0.1118538,-0.369560927152634,-0.400858908891678,0.328751355409622,-0.451584000205995,-0.194303979492187,0.279552008056641,7
1.01999664306641,-0.121364712715149,2.64896011352539,1.29866409301758,-0.239450461003889,2.86278753653895,1.29108833215045,2033.201,3063.367,2824.962,1012.578,-0.05621294,-0.004421913,0.1122841,-0.385536104440689,-0.398169696331024,0.33402544260025,-0.465139182559269,-0.200136395770846,0.2879433116562,7
1.03999328613281,-0.129390612244606,2.64104843139648,1.30544948577881,-0.248887339851819,2.85872711120656,1.2969302096982,2031.751,3062.838,2830.868,1012.925,-0.05669071,-0.00465414,0.1126341,-0.401296585798264,-0.395578652620316,0.339267253875732,-0.478708875293167,-0.205975055460915,0.29634359787259,7
1.05999755859375,-0.137727543711662,2.63318610191345,1.31234049797058,-0.258599401509697,2.85454828239877,1.30294243851408,2033.887,3063.701,2834.405,1011.046,-0.05727394,-0.004857606,0.1129079,-0.416846096515656,-0.393113523721695,0.344551265239716,-0.492290296490434,-0.211818761581115,0.30475114456651,7
1.07999420166016,-0.146371006965637,2.62537026405334,1.31933701038361,-0.268579290074434,2.85025421515517,1.30912046494367,2037.099,3065.766,2837.947,1006.978,-0.05798394,-0.005037636,0.1131222,-0.432173430919647,-0.390796601772308,0.349824905395508,-0.50586523043438,-0.217659676417445,0.313154675341593,7
1.09999847412109,-0.155316442251205,2.61759734153748,1.3264377117157,-0.278834517009062,2.84584167750307,1.31546893894041,2037.357,3065.628,2843.946,1005.874,-0.05879674,-0.005187305,0.1132816,-0.447272151708603,-0.388647645711899,0.355038195848465,-0.519436284009554,-0.223498921639497,0.321555803983559,7
1.1199951171875,-0.164559677243233,2.60986351966858,1.33364510536194,-0.289357002179081,2.84131414609862,1.32198285851614,2041.029,3066.369,2845.428,1005.664,-0.05968943,-0.00530768,0.1133734,-0.462161868810654,-0.386689305305481,0.360366940498352,-0.532985466132485,-0.229328756186667,0.329943393154705,8
1.13999938964844,-0.174095690250397,2.60216498374939,1.34095513820648,-0.300154365346813,2.83666834237095,1.3286669406667,2043.435,3068.504,2855.614,996.2599,-0.0607222,-0.005403554,0.1134486,-0.476801782846451,-0.384926676750183,0.365498870611191,-0.546515580872639,-0.235150386571708,0.338319178707607,8
1.15999603271484,-0.183920860290527,2.5944972038269,1.34837377071381,-0.311217811600473,2.8319080505249,1.33551574092274,2045.453,3066.48,2854.344,1004.278,-0.06177042,-0.005462676,0.1134444,-0.491258472204208,-0.383392632007599,0.370929479598999,-0.560008885098767,-0.240956178420931,0.346672176798798,8
1.18000030517578,-0.194029718637466,2.5868558883667,1.3558931350708,-0.322555076427271,2.82702994219644,1.34253404791935,2050.527,3071.512,2870.46,983.5182,-0.0630072,-0.005506884,0.1134757,-0.505440890789032,-0.382071822881699,0.37596595287323,-0.573468357077025,-0.246747413199059,0.355004231116904,8
1.19999694824219,-0.20441934466362,2.57923555374146,1.36352455615997,-0.334156660511822,2.8220381046756,1.34971598112778,2050.036,3065.447,2864.417,1004.081,-0.06415822,-0.005505287,0.1134033,-0.519483625888824,-0.381014317274094,0.381573438644409,-0.58687652428584,-0.252516572968185,0.36330452533874,8
1.21999359130859,-0.215083733201027,2.57163214683533,1.37125444412231,-0.346025842163694,2.81693112739735,1.35706356997782,2059.215,3074.912,2888.218,966.946,-0.06556756,-0.005501558,0.1134343,-0.533218741416931,-0.380173236131668,0.386494904756546,-0.600231432569387,-0.258262816909651,0.371571849748761,8
1.23999786376953,-0.226021274924278,2.56403970718384,1.37910139560699,-0.358166167196084,2.81170748469733,1.36457900949675,2054.041,3062.685,2875.392,1006.487,-0.06673988,-0.00543924,0.1133177,-0.546875476837158,-0.379624724388123,0.392347931861877,-0.613531154887641,-0.263985315871967,0.379805011417393,8
1.25999450683594,-0.23722505569458,2.55645418167114,1.38704586029053,-0.3705671011502,2.80637170925886,1.37225577835275,2071.551,3079.609,2904.594,947.7969,-0.06827386,-0.005395564,0.1133752,-0.560190677642822,-0.379282236099243,0.39722353219986,-0.626758665639206,-0.269676744214496,0.387993470686331,8
1.27999877929688,-0.248694688081741,2.54886913299561,1.39511203765869,-0.383236695417198,2.80092033679326,1.3800988607405,2059.085,3060.515,2885.916,1008.422,-0.06944139,-0.005279983,0.1132419,-0.573482036590576,-0.379252910614014,0.403309851884842,-0.639917282339435,-0.275338529371412,0.396139281255613,8
1.29999542236328,-0.260422646999359,2.54128098487854,1.40327394008636,-0.396163740917024,2.79535819025452,1.38810131770546,2082.458,3082.906,2922.741,930.3857,-0.0710526,-0.005197958,0.1133442,-0.58639794588089,-0.379407495260239,0.408097386360168,-0.652990303744023,-0.280963485263868,0.404232104259424,8
1.31999969482422,-0.27240988612175,2.53368306159973,1.41156423091888,-0.409356423791328,2.7896817473746,1.39626821685929,2065.491,3058.044,2894.649,1011.95,-0.07215036,-0.005032309,0.1131956,-0.599362254142761,-0.379892140626907,0.414511859416962,-0.665981146317813,-0.286553081901244,0.412274054652251,8
1.33999633789063,-0.284647732973099,2.52607274055481,1.41994690895081,-0.422802873722428,2.78389611561957,1.40459220990988,2095.231,3087.86,2942.526,908.1144,-0.07383401,-0.004921522,0.1133698,-0.61189204454422,-0.380520790815353,0.419132739305496,-0.678873453515705,-0.29210028151913,0.420255006953505,8
1.35999298095703,-0.297139167785645,2.51844263076782,1.42846655845642,-0.436506138147829,2.77799998376221,1.41307518336622,2070.865,3054.107,2900.546,1021.427,-0.07479861,-0.004706338,0.1131979,-0.624570667743683,-0.381502598524094,0.425985038280487,-0.691665859866827,-0.297604496593558,0.428174115871672,9
1.37999725341797,-0.309873461723328,2.51079130172729,1.43707180023193,-0.450469530727146,2.77199192602736,1.42171918854144,2108.92,3094.317,2966.664,878.926,-0.07656269,-0.004576908,0.1134773,-0.636715412139893,-0.382564306259155,0.430264502763748,-0.704356955827446,-0.303065120637236,0.436030508832034,9
1.39999389648438,-0.322856873273849,2.50311088562012,1.44582867622375,-0.464680216184654,2.76587746507559,1.43051627978847,2075.893,3048.125,2898.735,1041.726,-0.07729825,-0.004311125,0.1132471,-0.649172902107239,-0.384024411439896,0.437841564416885,-0.716930938559026,-0.308475354130225,0.443814403124744,9
1.41999816894531,-0.336074948310852,2.49540162086487,1.4546571969986,-0.47914673136562,2.75965292774086,1.43947174182117,2126.453,3106.008,2997.243,833.3474,-0.07924555,-0.004183293,0.1136939,-0.660905182361603,-0.385460138320923,0.441429078578949,-0.729391385793766,-0.313836736470737,0.451528013536465,9
1.43999481201172,-0.349539279937744,2.48765397071838,1.46365797519684,-0.493855616658466,2.75332410531803,1.44857724249882,2073.41,3035.128,2890.288,1083.891,-0.07960667,-0.003854659,0.1133492,-0.67321503162384,-0.387379944324493,0.450040817260742,-0.7417228873516,-0.319142637088802,0.459161800431646,9
1.45999908447266,-0.363229334354401,2.47987151145935,1.47270917892456,-0.508815552717244,2.74688726276417,1.45783815555978,2150.311,3124.046,3036.392,765.4511,-0.08183308,-0.003748133,0.1140303,-0.684501886367798,-0.389117389917374,0.452558726072311,-0.753929052770513,-0.324394609067776,0.466717998286247,9
1.47999572753906,-0.377164423465729,2.47204184532166,1.48196280002594,-0.524012471663969,2.74034845309416,1.46724577231745,2064.849,3015.581,2870.243,1151.014,-0.08164559,-0.003343865,0.1134974,-0.696757674217224,-0.391480594873428,0.462679326534271,-0.765994882555672,-0.329586198544069,0.474187321698441,9
1.5,-0.391315102577209,2.46417331695557,1.49123346805573,-0.539455198877605,2.73370387899399,1.4768055561018,2181.206,3150.724,3087.78,667.7169,-0.08431568,-0.003287939,0.1145117,-0.707531750202179,-0.393427699804306,0.463533759117126,-0.777924000354858,-0.334718964672088,0.481572013878822,9
1.51999664306641,-0.405712336301804,2.45624876022339,1.50075089931488,-0.555129074991064,2.72695984797977,1.48650843206629,2046.455,2985.815,2832.379,1257.016,-0.08332977,-0.002784601,0.1136723,-0.719861507415771,-0.396230340003967,0.475870966911316,-0.789701834723693,-0.339786637766398,0.488863054409188,9
1.53999328613281,-0.420312434434891,2.44828343391418,1.51023399829865,-0.571036956668503,2.72011513090874,1.49635616862212,2222.762,3190.54,3158.063,524.397,-0.0867072,-0.002817624,0.1151656,-0.730005502700806,-0.39826911687851,0.474152266979218,-0.801327600455846,-0.344788879974649,0.496059957209413,9
1.55999755859375,-0.435164153575897,2.44025278091431,1.52002894878387,-0.587181951496087,2.71316839067337,1.50635068951315,2011.953,2940.252,2769.283,1421.742,-0.08454844,-0.002172607,0.1138416,-0.742589116096497,-0.401527255773544,0.489750325679779,-0.812800388649436,-0.349725300221754,0.503162159625937,9
1.57999420166016,-0.450202792882919,2.4321825504303,1.52971315383911,-0.603548545866849,2.70612630234534,1.51648239107766,2282.168,3250.895,3253.592,313.4553,-0.08903161,-0.002348376,0.1160232,-0.75192928314209,-0.403511315584183,0.484210520982742,-0.824106301004481,-0.354589918457504,0.510161057949003,9
1.59999847412109,-0.465503126382828,2.42403697967529,1.53980481624603,-0.620145926473056,2.69898491314762,1.52675696031579,1955.235,2873.898,2667.496,1670.584,-0.0852137,-0.001498294,0.1139647,-0.765018105506897,-0.407277852296829,0.504585921764374,-0.835248923368005,-0.359384277571697,0.517058871988737,9
1.6199951171875,-0.480968505144119,2.41585659980774,1.54966855049133,-0.636958033083316,2.69175113334911,1.53716445517924,2361.492,3338.78,3393.679,4.680893,-0.09140288,-0.001884985,0.1171633,-0.773268461227417,-0.409014791250229,0.493184864521027,-0.846214826007804,-0.364102599125749,0.523847288101157,9
1.63999938964844,-0.496714025735855,2.4075882434845,1.56008589267731,-0.653994195024907,2.68442094880091,1.54771065096602,1864.161,2774.991,2504.318,2052.417,-0.08509545,-0.0007147924,0.1139714,-0.787278294563293,-0.413414746522903,0.520867645740509,-0.857007552155828,-0.368746407673381,0.530528499715628,9
1.65999603271484,-0.512613475322723,2.39928078651428,1.57026553153992,-0.671237824488362,2.67700149677403,1.55838527903188,2112.366,3748.728,3236.758,0,-0.09090647,8.731907E-05,0.1193888,-0.794969320297241,-0.415371417999268,0.508982300758362,-0.867614155697522,-0.373310132863173,0.537094492570531,9
1.68000030517578,-0.528786242008209,2.3908896446228,1.58094847202301,-0.688698391434734,2.66948870260877,1.56919420173384,1973.506,2560.886,2441.94,2219.53,-0.08399397,0.002312442,0.1158532,-0.808640480041504,-0.419559627771378,0.534144282341003,-0.878038122530658,-0.377795274579551,0.543547424602645,9
1.69999694824219,-0.545106649398804,2.3824679851532,1.59136033058167,-0.706358800111611,2.66188992212981,1.58012683598675,2223.056,3640.13,3245.197,0,-0.08971444,0.003870499,0.1198131,-0.816021502017975,-0.421087801456451,0.520594775676727,-0.888267004546665,-0.382196476749158,0.549879589839776,9
1.71999359130859,-0.561691761016846,2.37397408485413,1.60225558280945,-0.72422180503422,2.6542039701462,1.59118488696678,2069.413,2533.057,2496.817,2109.086,-0.08362485,0.006510382,0.1148099,-0.829254686832428,-0.424690157175064,0.544764459133148,-0.898300426012065,-0.386513577704374,0.556090755685004,9
1.73999786376953,-0.578418612480164,2.36545324325562,1.61291813850403,-0.742290383213093,2.64642956573347,1.60237019758524,2183.417,3716.744,3219.996,0,-0.08993602,0.008611865,0.1178882,-0.836343824863434,-0.426037728786469,0.533126473426819,-0.908137821269591,-0.39074633405868,0.562180571969536,9
1.75999450683594,-0.595385015010834,2.35686850547791,1.62397527694702,-0.760546715064628,2.63857437616062,1.61367173667103,2141.548,2524.478,2652.503,1884.962,-0.086198,0.01136743,0.1128398,-0.848321855068207,-0.429241120815277,0.552859604358673,-0.917767514700581,-0.394889722119545,0.568141810929231,9
1.77999877929688,-0.612486600875854,2.34825563430786,1.63482165336609,-0.779000609654483,2.63063418086074,1.62509557650306,2254.882,3544.729,3331.081,0,-0.09312435,0.0132883,0.114649,-0.855080604553223,-0.430648595094681,0.54231858253479,-0.927192788821983,-0.398945154262308,0.57397650459845,9
1.79999542236328,-0.629810750484467,2.33957433700562,1.64603531360626,-0.797633790944145,2.62261684350262,1.63663040334288,2139.496,2593.024,2817.913,1654.515,-0.09073656,0.01561179,0.1099732,-0.866199016571045,-0.434060901403427,0.560681998729706,-0.936402499096495,-0.402907835303912,0.579677753977713,9
1.81999969482422,-0.647265374660492,2.3308539390564,1.65708363056183,-0.816456197270346,2.61451808789761,1.64828236949435,2243.701,3497.802,3395.442,0,-0.09741151,0.01708275,0.1119902,-0.872737228870392,-0.436018854379654,0.552416086196899,-0.945399824400851,-0.406779133026206,0.585247526943151,9
1.83999633789063,-0.66493022441864,2.32205390930176,1.66848134994507,-0.835449117627072,2.60634596486888,1.66003989195343,2125.9,2637.404,2907.439,1530.194,-0.09510148,0.01885814,0.1085131,-0.883238554000854,-0.440001159906387,0.569889008998871,-0.954174163352093,-0.410554485950274,0.590679260733698,9
1.85999298095703,-0.682721853256226,2.31320452690125,1.67972600460052,-0.854615270215496,2.5980993048504,1.67190465341613,2294.19,3394.782,3449.348,0,-0.1008784,0.01961581,0.1109687,-0.889588594436646,-0.442465096712112,0.562234401702881,-0.962725359910172,-0.414233826936439,0.595972858753131,9
1.87999725341797,-0.700722396373749,2.30426383018494,1.69134974479675,-0.873957566090845,2.58977685529642,1.6838784559643,2092.763,2683.734,2887.301,1538.995,-0.09726077,0.02079376,0.1082899,-0.900028645992279,-0.447029620409012,0.581189274787903,-0.971053025860989,-0.417816988947023,0.601128080678429,9
1.89999389648438,-0.718845427036285,2.29526829719543,1.70282101631165,-0.893456683142228,2.58138692997148,1.69594933829086,2295.95,3426.036,3413.657,0,-0.1020555,0.0210154,0.1117016,-0.906151235103607,-0.449774235486984,0.573566138744354,-0.979147395688901,-0.421299770153459,0.606138881190213,9
1.91999816894531,-0.737177431583405,2.28617715835571,1.71468997001648,-0.913122862707269,2.57292512231409,1.70812364027167,2070.265,2687.333,2799.271,1646.083,-0.09704079,0.02186104,0.1095152,-0.916601836681366,-0.45455014705658,0.593445360660553,-0.987011339258123,-0.424683405378145,0.611007036871143,9
1.93999481201172,-0.755625665187836,2.27703499794006,1.72637724876404,-0.932936403420974,2.56439990927123,1.72038916582329,2311.533,3446.323,3374.609,0,-0.101313,0.02177095,0.1134427,-0.922407865524292,-0.457118332386017,0.584366023540497,-0.994635661494588,-0.427963938237592,0.615726855532351,9
1.95999908447266,-0.77428525686264,2.26780080795288,1.73848557472229,-0.952907658613767,2.55580683609405,1.73275232415044,2050.338,2676.544,2702.57,1778.02,-0.09519629,0.02251616,0.1110805,-0.932981133460999,-0.461709320545197,0.605418264865875,-1.00202309041976,-0.431142542523221,0.620300025949072,9
1.97999572753906,-0.793054401874542,2.25852370262146,1.7503867149353,-0.973016570682103,2.54715453300902,1.74520069864106,2281.362,3527.498,3321.932,0,-0.09938278,0.02246364,0.1153891,-0.938461482524872,-0.463856190443039,0.595058619976044,-1.00916501115878,-0.434215511495054,0.624721215103391,9
2,-0.812033951282501,2.24916505813599,1.76270723342896,-0.993273599084619,2.53843849960327,1.7577407641983,2050.456,2639.896,2646.332,1873.3,-0.0928836,0.0233476,0.1126864,-0.948977530002594,-0.467932432889938,0.616028726100922,-1.01606400046349,-0.437183953857422,0.628992018127441,9
2.01999664306641,-0.831117510795593,2.23977494239807,1.77479875087738,-1.01365835337184,2.52966750931758,1.77035989816261,2270.441,3555.802,3305.034,0,-0.09721869,0.02346502,0.1168451,-0.954177439212799,-0.469509243965149,0.60457843542099,-1.02271203275434,-0.440044416427654,0.633107466805174,9
2.03999328613281,-0.850408017635345,2.23031616210938,1.78730249404907,-1.03417354141348,2.52084039703127,1.78305977683431,2060.52,2614.508,2639.266,1897.693,-0.09079302,0.02450841,0.1136729,-0.964526951313019,-0.472944527864456,0.625189602375031,-1.02910913225408,-0.442796909628122,0.637067576131623,9
2.05999755859375,-0.869797706604004,2.22083640098572,1.79957187175751,-1.05482201812353,2.5119559343546,1.79584216754118,2251.539,3577.24,3302.774,0,-0.09527033,0.02481163,0.1175594,-0.969486057758331,-0.47398841381073,0.61346834897995,-1.03525504859546,-0.445441325732794,0.640872191117535,9
2.07999420166016,-0.889387845993042,2.21130013465881,1.81223821640015,-1.07558293843174,2.50302309033894,1.80869416619175,2078.756,2599.772,2661.114,1869.744,-0.08918447,0.02595104,0.1141003,-0.979502141475677,-0.476807802915573,0.6333167552948,-1.0411426556922,-0.447974598585819,0.644516900376035,9
2.09999847412109,-0.909071862697601,2.20175218582153,1.8246693611145,-1.09646699912883,2.4940372624541,1.82162239460902,2249.226,3562.281,3317.497,0,-0.09374327,0.02631208,0.1176314,-0.98420125246048,-0.477393180131912,0.621555864810944,-1.04677411523768,-0.450397658303471,0.648003042098304,9
2.1199951171875,-0.928948163986206,2.19215798377991,1.83748519420624,-1.11745308225396,2.48500753716864,1.83461377976925,2086.511,2600.217,2690.91,1825.582,-0.08791414,0.02742455,0.1140234,-0.993817687034607,-0.479707628488541,0.640789151191711,-1.0521429102862,-0.45270770082608,0.651326581984514,9
2.13999938964844,-0.948912620544434,2.18255925178528,1.8500691652298,-1.138551967509,2.47592927627801,1.8476749948214,2247.115,3547.56,3327.944,0,-0.09241275,0.02772375,0.1173389,-0.998223483562469,-0.479933649301529,0.629197895526886,-1.05725102347782,-0.454905579228273,0.654488747383304,8
2.15999603271484,-0.969060599803925,2.17292237281799,1.86302745342255,-1.15974228854654,2.4668116731246,1.86079281297862,2086.588,2607.443,2708.671,1790.334,-0.08667577,0.02872002,0.1137459,-1.00739741325378,-0.481845170259476,0.647915244102478,-1.06209255378819,-0.456988754464129,0.657485885279498,8
2.17999267578125,-0.989289462566376,2.16328740119934,1.8757518529892,-1.18102676265167,2.45765355853653,1.8739689163698,2250.307,3527.1,3334.83,0,-0.09104123,0.02885788,0.1169544,-1.01144731044769,-0.481752634048462,0.63621985912323,-1.06666760390386,-0.458957270716794,0.660318059240953,7
2.19999694824219,-1.00969350337982,2.15362071990967,1.88884711265564,-1.20240821395574,2.44845371736898,1.88720505326679,2075.141,2616.446,2706.403,1782.866,-0.08514765,0.0296948,0.1133982,-1.02020728588104,-0.483321100473404,0.654766142368317,-1.07097597819164,-0.460811043810786,0.662985148161421,7
2.21999359130859,-1.03017055988312,2.14396286010742,1.90170335769653,-1.22386495005255,2.43922148325834,1.90048779503681,2248.341,3524.553,3325.894,0,-0.08935545,0.02965649,0.1166376,-1.02385580539703,-0.482920050621033,0.642812192440033,-1.07501271071614,-0.462547937042828,0.665484077890325,6
2.23999786376953,-1.05081462860107,2.13427972793579,1.9149272441864,-1.24540792547886,2.42995214277345,1.91382392305993,2060.352,2620.034,2686.73,1799.625,-0.08322485,0.03035295,0.1131111,-1.0321980714798,-0.484140872955322,0.661191999912262,-1.07877930973132,-0.464168599372462,0.667815782108711,5
2.25999450683594,-1.07152247428894,2.12461185455322,1.927898645401,-1.26701526177039,2.4206551096063,1.92719989352455,2244.682,3522.516,3316.137,0,-0.08732346,0.03016091,0.1163841,-1.0353912115097,-0.483388870954514,0.648568451404572,-1.08227143928024,-0.465671165158559,0.669977576652695,4
2.27999877929688,-1.09238946437836,2.11492705345154,1.94123983383179,-1.28869796983554,2.41132564607061,1.9406225227075,2043.648,2618.701,2654.844,1835.392,-0.08087328,0.03075984,0.1127695,-1.04335284233093,-0.484235495328903,0.667061746120453,-1.08549040888332,-0.467056197851165,0.67197027217779,3
2.29999542236328,-1.11331057548523,2.10526490211487,1.95431387424469,-1.31043401044317,2.40197323503182,1.95407816727483,2228.568,3541.403,3296.582,0,-0.08491915,0.03049742,0.1161259,-1.04606032371521,-0.48310586810112,0.653701186180115,-1.08843251702753,-0.468322104792631,0.6737915772711,0
2.31999969482422,-1.13438272476196,2.09559440612793,1.96775591373444,-1.33223444283894,2.39259311800549,1.96757367342642,2031.319,2606.85,2621.698,1877.244,-0.07821757,0.03107161,0.1123645,-1.05360198020935,-0.483528733253479,0.672102093696594,-1.09109887036509,-0.469469362144493,0.675442177003072,0
2.33999633789063,-1.15549886226654,2.0859546661377,1.98091435432434,-1.35407709248145,2.38319483607731,1.98109531406483,2216.562,3552.794,3279.8,0,-0.08227304,0.03079396,0.115686,-1.05580544471741,-0.481987178325653,0.657919645309448,-1.09348640563071,-0.470496651869278,0.67692017506657,0
2.35999298095703,-1.17675638198853,2.0763156414032,1.99443745613098,-1.37596470003558,2.37377721001573,1.99464478579218,2022.564,2594.095,2594.97,1909.37,-0.07542925,0.03137504,0.1116914,-1.06288528442383,-0.481951802968979,0.67615669965744,-1.09559527181965,-0.471404038075479,0.678225663696753,0
2.37999725341797,-1.19804787635803,2.06671571731567,2.00766277313232,-1.39790005743958,2.36433903852774,2.00822381695123,2199.879,3566.274,3264.94,0,-0.07953957,0.03112078,0.1149259,-1.06456708908081,-0.479999750852585,0.66126537322998,-1.09742530100382,-0.472191448508328,0.679358538938131,0
2.39999389648438,-1.21947038173676,2.05712556838989,2.02124762535095,-1.41986083522252,2.35488992936084,2.02181858453579,2018.751,2581.472,2574.095,1929.162,-0.07267927,0.03171872,0.1106912,-1.07112348079681,-0.479510486125946,0.679242193698883,-1.09897439291323,-0.472857979480329,0.680317500623536,0
2.41999816894531,-1.2409154176712,2.04758191108704,2.03452157974243,-1.44185817738692,2.34542508756209,2.03543598721428,2184.144,3574.206,3253.666,0,-0.07690144,0.031491,0.113799,-1.07225871086121,-0.477177530527115,0.663694381713867,-1.10024313330221,-0.473403883025206,0.681102911362803,0
2.43999481201172,-1.26247990131378,2.03805661201477,2.04814648628235,-1.46386968334064,2.3359541514805,2.04906215795307,2012.317,2569.093,2563.531,1939.617,-0.07009014,0.03209812,0.1093516,-1.0782265663147,-0.476269632577896,0.681249737739563,-1.10123006676374,-0.473828532921971,0.681713870189648,0
2.45999908447266,-1.28405630588531,2.02858448028564,2.06145119667053,-1.48590651627916,2.32647231790489,2.06270400730194,2172.654,3574.82,3244.865,0,-0.07439487,0.03187454,0.1123027,-1.07881200313568,-0.473604798316956,0.66523540019989,-1.10193556692257,-0.474132089930926,0.682150608395601,0
2.47999572753906,-1.30573904514313,2.01913785934448,2.07509684562683,-1.50794623031618,2.31698924467309,2.07634764018804,2005.784,2561.832,2558.688,1937.971,-0.06767625,0.03245477,0.1077065,-1.08413851261139,-0.472329825162888,0.682286739349365,-1.10235882472314,-0.474314205938057,0.682412625136718,0
2.5,-1.32742214202881,2.00975012779236,2.08841419219971,-1.52999999932945,2.30750012397766,2.08999997377396,2165.299,3567.369,3239.128,0,-0.07204117,0.03218571,0.1105038,-1.08416163921356,-0.469383895397186,0.66586822271347,-1.10250000050292,-0.474374949932098,0.682500019669533,0
2.51999664306641,-1.34919881820679,2.00039410591125,2.10206437110901,-1.55204535801192,2.29801462201262,2.10364710096447,1995.285,2559.713,2552.88,1935.296,-0.06538114,0.03269786,0.1058144,-1.08883035182953,-0.467805564403534,0.682509779930115,-1.10235893238473,-0.47431425226183,0.68241269178437,0
2.53999328613281,-1.37096440792084,1.99110150337219,2.1153781414032,-1.57408507527774,2.28853154739156,2.11729073584934,2156.996,3560.871,3232.388,0,-0.06978015,0.03234703,0.1085237,-1.08827710151672,-0.464627295732498,0.665683031082153,-1.10193578218388,-0.474132182551855,0.682150741652607,0
2.55999755859375,-1.39281010627747,1.98184561729431,2.12901782989502,-1.59612191359838,2.27904971150017,2.13093258853001,1979.779,2557.813,2543.25,1940.597,-0.06309029,0.03277298,0.1037902,-1.09228789806366,-0.462796688079834,0.681981801986694,-1.10123038958312,-0.473828671822132,0.681714070030222,0
2.57999420166016,-1.41463327407837,1.9726574420929,2.14231324195862,-1.61813342708139,2.26957877217893,2.14455876392979,2152.52,3554.955,3220.667,0,-0.06748823,0.03231838,0.1064446,-1.09116196632385,-0.459416717290878,0.664775788784027,-1.10024356351463,-0.47340406813359,0.681103177684783,0
2.59999847412109,-1.43652367591858,1.9635101556778,2.15592837333679,-1.64013077892511,2.26011392621545,2.15817617260023,1962.813,2557.458,2527.959,1951.113,-0.06074457,0.03264717,0.1016868,-1.09451770782471,-0.457360088825226,0.680753946304321,-1.09897493039424,-0.472858210743393,0.680317833349887,0
2.6199951171875,-1.45837998390198,1.95443439483643,2.1691882610321,-1.66209156852628,2.2506648119635,2.17177094750084,2146.78,3547.576,3211.215,0,-0.06514785,0.03208032,0.104305,-1.09280741214752,-0.453787118196487,0.662990808486938,-1.09742594550583,-0.472191725819537,0.679358937915576,0
2.63999938964844,-1.48029088973999,1.94540393352509,2.18276643753052,-1.68402693989188,2.24122663446822,2.18534998730279,1943.842,2556.398,2505.027,1972.592,-0.05826517,0.03231835,0.09948877,-1.09554529190063,-0.451522409915924,0.678906202316284,-1.09559602313537,-0.471404361345641,0.67822612879697,0
2.65999603271484,-1.50215601921082,1.93644869327545,2.19597768783569,-1.70591456353497,2.23180900148401,2.19889946898997,2133.598,3553.54,3195.465,0,-0.06267856,0.03167329,0.1021421,-1.0932492017746,-0.447764545679092,0.660559475421906,-1.09348726343002,-0.470497020956359,0.676920706085208,0
2.67999267578125,-1.52406334877014,1.92754292488098,2.20950484275818,-1.72775723139253,2.2224107117184,2.21242112090437,1926.469,2549.016,2478.4,2002.277,-0.05564142,0.03185743,0.09725395,-1.09537279605865,-0.445288062095642,0.676360666751862,-1.09109983431736,-0.469469776906228,0.675442773735451,0
2.69999694824219,-1.5459132194519,1.91871643066406,2.22265124320984,-1.74955768413056,2.21303058593937,2.22591663964878,2122.086,3556.054,3181.464,0,-0.06006973,0.03116521,0.09990262,-1.09249258041382,-0.441333949565887,0.657318651676178,-1.08843358680109,-0.468322565086308,0.673792239511893,0
2.71999359130859,-1.56779360771179,1.90994369983673,2.23611426353455,-1.77129374718429,2.20367816524265,2.23937229811132,1913.254,2540.656,2448.221,2032.856,-0.05288186,0.03131698,0.09487269,-1.09401798248291,-0.438635766506195,0.673155963420868,-1.08549158402443,-0.467056703481556,0.671970999646117,0
2.73999786376953,-1.58960461616516,1.90125381946564,2.249183177948,-1.79297647980783,2.19434869114016,2.25279494249708,2104.613,3568.679,3163.148,0,-0.0573794,0.03062019,0.09752893,-1.09055209159851,-0.434487015008926,0.653446555137634,-1.08227271937422,-0.465671715947234,0.669978369091845,0
2.75999450683594,-1.61143350601196,1.892622590065,2.26256442070007,-1.81458384274179,2.18505164650952,2.26617092945464,1900.433,2526.893,2424.812,2061.108,-0.05011483,0.03077312,0.09235322,-1.0914454460144,-0.431560277938843,0.66906726360321,-1.07878069424208,-0.464169195088763,0.667816639186824,0
2.77999877929688,-1.63318181037903,1.88407802581787,2.2755401134491,-1.83612684690458,2.17578229366013,2.27950707526701,2094.556,3570.746,3148.482,0,-0.05468695,0.03008106,0.09492176,-1.08740937709808,-0.427221685647964,0.648790657520294,-1.07501419914593,-0.462548577472581,0.665484999299265,0
2.79999542236328,-1.65493452548981,1.87559652328491,2.28882217407227,-1.85758361379882,2.16655004629821,2.2927898361021,1889.638,2517.81,2409.5,2074.454,-0.04743996,0.03022311,0.08960097,-1.087641954422,-0.424074053764343,0.664107918739319,-1.07097756992209,-0.460811728687929,0.662986133518392,0
2.81999969482422,-1.67659544944763,1.86720514297485,2.30169010162354,-1.87896509797278,2.15735019098767,2.30602599334712,2085.426,3569.04,3136.864,0,-0.05210208,0.02951715,0.0920593,-1.08304238319397,-0.419570773839951,0.643401861190796,-1.06666929835407,-0.458957999791384,0.660319108186353,0
2.83999633789063,-1.69824707508087,1.85888040065765,2.31485748291016,-1.90024960698239,2.14819206138118,2.31920211834584,1877.192,2512.951,2399.605,2079.421,-0.04492486,0.02962367,0.08664752,-1.08259224891663,-0.416237413883209,0.658367693424225,-1.06209435025759,-0.456989527434725,0.657486997379635,0
2.85999298095703,-1.71979582309723,1.85064828395844,2.32760310173035,-1.92143996495749,2.13907444233456,2.33231995936916,2078.27,3561.566,3128.968,0,-0.04966636,0.02887044,0.08901092,-1.07743525505066,-0.411605328321457,0.637283802032471,-1.0572529212638,-0.454906395792563,0.654489922203231,0
2.87999725341797,-1.74132204055786,1.8424859046936,2.34064221382141,-1.94253888918396,2.12999616467562,2.34538119854648,1860.422,2511.11,2391.365,2083.948,-0.04251311,0.02891514,0.08356413,-1.07630717754364,-0.40812960267067,0.65195643901825,-1.05214490868305,-0.452708560680416,0.651327819087361,0
2.89999389648438,-1.76273429393768,1.83441781997681,2.3532543182373,-1.96352501326936,2.1209664217661,2.35837260906308,2074.241,3553.465,3118.52,0,-0.04729028,0.0280842,0.08587008,-1.07061219215393,-0.403400272130966,0.630601406097412,-1.04677621342161,-0.450398561093403,0.648004340974112,0
2.91999816894531,-1.78411054611206,1.82642149925232,2.36615443229675,-1.98440911693069,2.11198057539494,2.37130086407726,1842.06,2512.172,2379.663,2090.421,-0.0401333,0.02804486,0.08043857,-1.06881952285767,-0.399811774492264,0.645005643367767,-1.04114485287423,-0.447975543971863,0.644518260536375,0
2.93999481201172,-1.80536270141602,1.81852173805237,2.37861895561218,-2.00517008215741,2.10304771205211,2.38415289053452,2070.656,3541.614,3111.113,0,-0.04492646,0.0271121,0.08271606,-1.06259489059448,-0.394998401403427,0.623232245445251,-1.03525734386973,-0.445442313325187,0.640873612001643,0
2.95999908447266,-1.82656621932983,1.8106951713562,2.3913722038269,-2.02581860575671,2.0941632292003,2.39693531026807,1821.274,2513.625,2359.535,2108.113,-0.03765124,0.02698173,0.0772827,-1.0601863861084,-0.391313940286636,0.637658715248108,-1.02911152474823,-0.442797939051516,0.637069057199471,0
2.97999572753906,-1.84763526916504,1.80296683311462,2.4036808013916,-2.04633384260397,2.08533609591429,2.40963521915279,2060.215,3543.106,3096.853,0,-0.04244653,0.02596825,0.07961814,-1.05344569683075,-0.386418402194977,0.615428149700165,-1.02271452148052,-0.440045487257004,0.633109007445237,0
2.99999237060547,-1.86864423751831,1.7953143119812,2.41627812385559,-2.0667186476113,2.07656508380516,2.42225438451524,1801.682,2509.037,2333.385,2136.6,-0.03500832,0.02577613,0.07417395,-1.05044734477997,-0.382626742124557,0.629861295223236,-1.01606658442979,-0.437185065665935,0.628993617725676,0
3.01999664306641,-1.88950824737549,1.78776180744171,2.42841863632202,-2.08697572864857,2.06784902775215,2.4347944826559,2051.584,3542.242,3083.094,0,-0.03980414,0.0247087,0.07653668,-1.0432071685791,-0.377628564834595,0.607028901576996,-1.00916768936771,-0.434216663853534,0.624722873042298,0
3.03999328613281,-1.91030132770538,1.78028750419617,2.44085097312927,-2.10708469520508,2.05919670122237,2.4472428908773,1786.06,2502.868,2302.29,2168.306,-0.03219442,0.02447679,0.07100561,-1.03964805603027,-0.373704701662064,0.621618449687958,-1.00202586176059,-0.431143734953757,0.620301741541063,0
3.05999755859375,-1.93093967437744,1.77291584014893,2.45281481742859,-2.12705600675913,2.05060360379452,2.45960608409476,2036.962,3552.177,3064.483,0,-0.0370467,0.02339912,0.07340598,-1.03191888332367,-0.36858931183815,0.598188042640686,-0.994638524886308,-0.427965170275055,0.615728628108227,0
3.07999420166016,-1.95149540901184,1.76562559604645,2.46506881713867,-2.14686960564145,2.04207836572333,2.47187164565552,1770.973,2491.3,2276.691,2199.022,-0.02933791,0.02316487,0.06777368,-1.02778673171997,-0.364513665437698,0.612695038318634,-0.987014293508169,-0.424684676509408,0.611008865692653,0
3.09999847412109,-1.97188723087311,1.75844025611877,2.47684359550476,-2.16653584520328,2.033616532251,2.4840459847772,2028.645,3553.068,3049.234,0,-0.03426316,0.02209362,0.07011867,-1.01958918571472,-0.359274923801422,0.588740944862366,-0.979150439632689,-0.421301079877433,0.606140765536421,0
3.1199951171875,-1.99218463897705,1.75133943557739,2.48890519142151,-2.18603502400946,2.02522658035469,2.49611690533293,1757.891,2483.775,2258.926,2215.955,-0.02655331,0.02185418,0.06437814,-1.01486933231354,-0.355045109987259,0.603075563907623,-0.971056158224178,-0.417818336715394,0.601130019760458,0
3.13999938964844,-2.01230907440186,1.74434518814087,2.50047969818115,-2.20537738341953,2.01690410346351,2.50809074721212,2020.747,3550.673,3037.264,0,-0.03157284,0.02077983,0.06664238,-1.00621461868286,-0.349698632955551,0.578723549842834,-0.962728579444533,-0.414235212212131,0.595974851798267,0
3.15999603271484,-2.03232669830322,1.73743867874146,2.51233649253845,-2.22454360124808,2.00865741537402,2.51995554906156,1743.543,2480.079,2246.84,2224.479,-0.02391785,0.02051829,0.06084083,-1.00089609622955,-0.345340192317963,0.592836022377014,-0.95417746870157,-0.410555908149813,0.590681306902481,0
3.17999267578125,-2.05216288566589,1.73064029216766,2.52369928359985,-2.24353658854737,2.00048526354177,2.53171311296128,2014.737,3542.854,3028.963,0,-0.02902366,0.01941496,0.06303453,-0.991796672344208,-0.339914351701736,0.568144857883453,-0.945403214201559,-0.406780591562751,0.585249625391267,0
3.19999694824219,-2.07188034057617,1.72393107414246,2.5353410243988,-2.2623590635174,1.99238647840124,2.54336512160655,1725.601,2479.275,2236.519,2231.976,-0.02138891,0.01910976,0.05722189,-0.985889494419098,-0.33546182513237,0.582087457180023,-0.936405971974636,-0.402909329586355,0.579679903854719,0
3.21999359130859,-2.09140777587891,1.71733164787292,2.54648399353027,-2.28099231507127,1.9843691108104,2.55489999194326,2011.305,3534.366,3018.806,0,-0.02654319,0.01795166,0.05937881,-0.976366817951202,-0.329980254173279,0.557148337364197,-0.927196343299057,-0.398946683654493,0.573978704989081,0
3.23999786376953,-2.11080551147461,1.71082258224487,2.55790305137634,-2.29944628156995,1.97642888457015,2.56632387629027,1706.606,2480.8,2223,2241.312,-0.01890152,0.01758416,0.05359688,-0.969890952110291,-0.325455009937286,0.570954024791718,-0.917771149318993,-0.394891285994308,0.568144060931169,0
3.25999450683594,-2.1300048828125,1.70442390441895,2.5688157081604,-2.31770268688992,1.96857366338589,2.57762546085652,2008.343,3522.721,3011.141,0,-0.02408723,0.01635258,0.05574027,-0.959962964057922,-0.319927930831909,0.545635581016541,-0.90814153446928,-0.390747931744771,0.562182870617026,0
3.27999877929688,-2.14906406402588,1.69811701774597,2.58000659942627,-2.33577134012187,1.96079922667992,2.58881081793642,1686.21,2482.356,2202.699,2259.496,-0.01634702,0.01591565,0.0499724,-0.95295923948288,-0.315338164567947,0.559539198875427,-0.898304216251578,-0.386515208538549,0.556093102023818,0
3.29999542236328,-2.16791725158691,1.69192171096802,2.59068298339844,-2.35363442159312,1.95311324175956,2.5998689163037,2000.188,3521.775,2997.747,0,-0.02155456,0.01462672,0.05216805,-0.942646861076355,-0.309762597084045,0.533814072608948,-0.888270870184445,-0.382198140025101,0.549881982853707,0
3.31999969482422,-2.18661999702454,1.68581986427307,2.60163879394531,-2.37130160722417,1.94551154534655,2.61080574581408,1667.15,2478.969,2177.865,2285.8,-0.01368865,0.01414326,0.04640409,-0.935143232345581,-0.305095463991165,0.54778915643692,-0.878038122530657,-0.377795274579551,0.543547424602645,0
3.33999633789063,-2.20510911941528,1.67983055114746,2.61207032203674,-2.38875555478454,1.93800159931817,2.62161057080077,1994.638,3518.885,2983.805,0,-0.01892868,0.01281743,0.04861819,-0.924471914768219,-0.299456119537354,0.521570920944214,-0.867618167158097,-0.373311858882592,0.53709697585572,0
3.35999298095703,-2.22343897819519,1.67393708229065,2.62278294563293,-2.40599926516969,1.93058211247293,2.63228524896102,1649.862,2474.686,2152.667,2312.059,-0.01095624,0.01230421,0.04281115,-0.916488289833069,-0.294692486524582,0.535628378391266,-0.857011633930453,-0.36874816394697,0.530531026528563,0
3.37999725341797,-2.24154853820801,1.66815721988678,2.63296127319336,-2.42303550945299,1.9232518924954,2.64283149572124,1986.212,3519.147,2969.893,0,-0.0162538,0.01096635,0.04502826,-0.905475258827209,-0.288979917764664,0.508919775485992,-0.846218976345105,-0.364104384899943,0.523849857357654,0
3.39999389648438,-2.25948905944824,1.66247487068176,2.64342212677002,-2.43984769972619,1.91601807669906,2.65323904237604,1635.728,2469.502,2128.516,2335.264,-0.008229168,0.01043838,0.03915866,-0.897019743919373,-0.28411129117012,0.523046135902405,-0.835253140422974,-0.35938609205264,0.51706148254665,0
3.41999816894531,-2.27720260620117,1.65690839290619,2.65333938598633,-2.45644516534361,1.90887665092339,2.66351366424015,1977.045,3519.669,2956.775,0,-0.01362633,0.00910574,0.04136486,-0.885679721832275,-0.278329014778137,0.495865166187286,-0.824110582941664,-0.354591760855451,0.510163708672097,0
3.43999481201172,-2.29473757743835,1.6514413356781,2.66353845596313,-2.4728118459714,1.90183452548138,2.67364541920187,1620.392,2463.653,2110.064,2354.76,-0.005595834,0.008575554,0.03544208,-0.876754999160767,-0.273365706205368,0.509954631328583,-0.812804733542555,-0.349727169707881,0.503164849321754,0
3.45999908447266,-2.31203961372375,1.64609062671661,2.67318654060364,-2.48895692832918,1.89488774758421,2.68363999427827,1970.662,3515.855,2945.861,0,-0.01108727,0.007249707,0.0376103,-0.86510694026947,-0.267528891563416,0.482403308153152,-0.801332006385299,-0.344790775723006,0.496062684689628,0
3.47999572753906,-2.3291540145874,1.64084076881409,2.68311476707458,-2.50486489870395,1.88804299234919,2.69348778574196,1605.554,2460.874,2095.884,2366.623,-0.003089267,0.006710411,0.03166216,-0.855717122554779,-0.262490004301071,0.496417135000229,-0.789706299681989,-0.339788558913217,0.488865818431069,0
3.49999237060547,-2.34602975845337,1.63570833206177,2.69248580932617,-2.52053886467493,1.8812989226718,2.70319071733255,1966.165,3508.11,2937.441,0,-0.008666991,0.005376053,0.03379046,-0.843778192996979,-0.256619274616241,0.468552112579346,-0.777928522316836,-0.334720910345999,0.481574813188698,0
3.51999664306641,-2.36270833015442,1.63067770004272,2.70213627815247,-2.53598168290031,1.87465430941181,2.7127505574575,1588.727,2460.646,2083.181,2376.751,-0.0006876282,0.00481345,0.02784845,-0.83393657207489,-0.251529186964035,0.482524156570435,-0.765999459475408,-0.329588167864767,0.474190155029786,0
3.53999328613281,-2.37914276123047,1.62576484680176,2.71122479438782,-2.55117869390181,1.86811546013321,2.72215823120146,1963.899,3499.916,2927.56,0,-0.006336725,0.003453888,0.02995477,-0.821727633476257,-0.245641782879829,0.454424142837524,-0.753933682518821,-0.324396601119134,0.466720864320997,0
3.55999755859375,-2.39537191390991,1.6209545135498,2.72059202194214,-2.56613872308604,1.86167857751006,2.73141920191151,1571.194,2462.439,2069.145,2387.042,0.001623093,0.002856431,0.0240506,-0.811453819274902,-0.240518108010292,0.4683558344841,-0.741727567798258,-0.319144650954242,0.459164697851087,0
3.57999420166016,-2.41135215759277,1.61626195907593,2.7293906211853,-2.58084770246059,1.8553497146065,2.74052476083022,1962.177,3488.487,2920.539,0,-0.004093811,0.001458424,0.02614725,-0.798997938632965,-0.23462775349617,0.439929842948914,-0.729396114728537,-0.313838771199258,0.451530940972359,0
3.59999847412109,-2.42711853981018,1.61167216300964,2.73847031593323,-2.59531431270705,1.84912513636775,2.74948028171299,1552.756,2464.593,2051.577,2402.225,0.003901264,0.0008176692,0.0202741,-0.788323104381561,-0.229483351111412,0.453989863395691,-0.716935713767317,-0.308477408768949,0.443817359206151,0
3.6199951171875,-2.44263124465942,1.60720038414001,2.74697518348694,-2.60952509409627,1.84301063413925,2.75827743234631,1956.873,3484.502,2909.854,0,-0.001875931,-0.0006093312,0.02241217,-0.775644540786743,-0.223594129085541,0.425245940685272,-0.704361775018033,-0.303067194200314,0.436033492140578,0
3.63999938964844,-2.45792317390442,1.60283207893372,2.75576329231262,-2.6234885835008,1.83700253474321,2.76692149746096,1535.591,2463.637,2031.585,2421.926,0.006167087,-0.00127885,0.01657438,-0.764599025249481,-0.218428820371628,0.439410835504532,-0.691670720740692,-0.297606588091786,0.428177124984152,0
3.65999603271484,-2.47295808792114,1.59858107566833,2.76397466659546,-2.63719194552437,1.83110636089208,2.77540453133521,1942.308,3486.758,2888.022,14.88513,0.0004207187,-0.002681803,0.01876088,-0.751732409000397,-0.212537184357643,0.410567045211792,-0.678878353700696,-0.292102389931838,0.420258040401444,0
3.67999267578125,-2.48776483535767,1.5944344997406,2.77246379852295,-2.65063849381582,1.82532068681534,2.78372858527554,1526.659,2460.333,2016.168,2430.68,0.008426161,-0.003341202,0.01296803,-0.740337193012238,-0.207331478595734,0.424458861351013,-0.665986083416798,-0.286555206197011,0.41227711095171,0
3.69999694824219,-2.50231122970581,1.59040594100952,2.78038239479065,-2.66383127580226,1.81964420129024,2.79189554578451,1921.067,3485.056,2854.685,53.47182,0.00284624,-0.004650944,0.01510178,-0.727316856384277,-0.201428174972534,0.39592570066452,-0.65299527533123,-0.280965624398954,0.404235181908735,0
3.71999359130859,-2.51662254333496,1.58648288249969,2.78856229782104,-2.6767584210412,1.81408201183655,2.79989806449274,1530.644,2461.763,2011.875,2409.898,0.01060452,-0.00526507,0.009366358,-0.715573966503143,-0.196158081293106,0.40900069475174,-0.639922285921447,-0.275340682272968,0.396142378711232,0
3.73999786376953,-2.53067088127136,1.58267784118652,2.7961859703064,-2.68942811570037,1.808630596175,2.80774120902801,1900.118,3470.099,2817.267,110.941,0.00524015,-0.006450709,0.01128961,-0.702415287494659,-0.190247178077698,0.381177961826324,-0.626763698705669,-0.269678909802388,0.38799658639423,0
3.75999450683594,-2.54447722434998,1.57897925376892,2.80404472351074,-2.70182915057228,1.80329477731443,2.81541804035694,1538.166,2474.297,2024.5,2357.084,0.01251583,-0.007012103,0.005663421,-0.690311253070831,-0.184927046298981,0.392939776182175,-0.613536214864365,-0.263987493038594,0.379808143784027,0
3.77999877929688,-2.55801749229431,1.57539820671082,2.81137108802795,-2.7139695770734,1.79807109095524,2.82293354268985,1876.744,3444.008,2778.049,185.76,0.007429833,-0.008069378,0.007291868,-0.677012920379639,-0.179044514894485,0.366314202547073,-0.60023651686137,-0.258265004538452,0.371574997167698,0
3.79999542236328,-2.57130837440491,1.57192361354828,2.81889891624451,-2.72583886061506,1.79296406983666,2.83028119461452,1547.305,2498.991,2051.14,2276.018,0.01404457,-0.008590825,0.001895598,-0.664542615413666,-0.173723563551903,0.376386344432831,-0.586881630238189,-0.252518769916838,0.363307686166475,0
3.81999206542969,-2.58433055877686,1.56856536865234,2.8259265422821,-2.73744054699573,1.78797218830065,2.83746319114912,1849.846,3406.852,2736.481,279.194,0.009347161,-0.009533051,0.003213533,-0.651107549667358,-0.167923808097839,0.35138151049614,-0.573473482003301,-0.246749618311662,0.355007403690404,0
3.83999633789063,-2.59709644317627,1.5653121471405,2.83311676979065,-2.74877791451009,1.78309403578861,2.84448156171422,1556.976,2532.986,2085.874,2176.787,0.01524235,-0.01003,-0.001826396,-0.638294100761414,-0.162657588720322,0.359515398740768,-0.560014026276881,-0.240958390526246,0.346675359432959,0
3.85999298095703,-2.60959124565125,1.56217241287231,2.83984613418579,-2.75984146370944,1.77833369964791,2.85133042569855,1823.112,3360.611,2690.094,387.7723,0.01106851,-0.01087688,-0.0008202536,-0.624737858772278,-0.156983911991119,0.336465388536453,-0.546520735526767,-0.235152604475377,0.338322369684062,0
3.87999725341797,-2.62182354927063,1.55913639068604,2.84669637680054,-2.77063893010371,1.77368785150474,2.85801457175126,1568.748,2574.345,2122.04,2066.678,0.01623266,-0.01136477,-0.00542113,-0.611626744270325,-0.151804640889168,0.342513471841812,-0.532990631455729,-0.229330978680956,0.329946590735853,0
3.89999389648438,-2.6337833404541,1.55621099472046,2.85312747955322,-2.78116151864576,1.76916027562219,2.86452855531919,1796.236,3308.218,2640.34,507.0148,0.01267443,-0.01212963,-0.004729774,-0.597972869873047,-0.146279871463776,0.32155254483223,-0.519441457145543,-0.223501147495394,0.321559006401168,0
3.91999816894531,-2.64547538757324,1.553386926651,2.85963749885559,-2.79141684911929,1.7647476934202,2.87087709341145,1582.367,2619.678,2155.937,1953.539,0.01712649,-0.01261273,-0.008868859,-0.584619879722595,-0.141197890043259,0.325497984886169,-0.505870408491346,-0.2176619043907,0.313157880805522,0
