t,x_s1,x_s2,x_s3,x_s_d1,x_s_d2,x_s_d3,propellers_rpms1,propellers_rpms2,propellers_rpms3,propellers_rpms4,rollRad,pitchRad,yawRad,v_s1,v_s2,v_s3,v_s_d1,v_s_d2,v_s_d3,insideCount
0,-0.0599999986588955,2.94000005722046,1.17999994754791,-0.0599999986588955,2.94000005722046,1.17999994754791,0,0,0,0,0,0,0,0,0,0,-1.06581410364015E-15,4.44089209850063E-16,4.44089209850063E-16,0
0.0200042724609375,-0.0599999986588955,2.94000005722046,1.1771354675293,-0.0600018701838461,2.93999925195556,1.18000110611101,0,0,0,0,0.0163538,-0.002474609,-2.024222E-05,3.71994488546079E-08,3.50004931704007E-08,-0.143225952982903,-0.000280105751305916,-0.000120521679537258,0.00017339880334547,5
0.040008544921875,-0.0599999986588955,2.94000005722046,1.17048275470734,-0.060014880898484,2.93999365380853,1.18000916036316,0,0,0,0,0.03270752,-0.004950816,-5.430172E-05,3.62924410524101E-08,3.44428769949445E-08,-0.332637369632721,-0.00111143977225461,-0.000478221483967637,0.00068803416424398,6
0.05999755859375,-0.0600004345178604,2.94013261795044,1.16416549682617,-0.0600498857373401,2.93997859220429,1.18003083002592,3185.406,2835.785,1501.1,2767.662,0.03127991,-0.00494336,-0.01646952,-2.17784399865195E-05,0.0066222520545125,-0.315860867500305,-0.00247936261166862,-0.00106680046642749,0.00153484356504269,6
0.0800018310546875,-0.0599162206053734,2.94038772583008,1.15857696533203,-0.0601175574246769,2.93994947496775,1.18007272202403,3065.603,3067.191,2155.165,2024.121,0.01897616,-0.004310593,-0.04351445,0.00421066209673882,0.0127498498186469,-0.279423803091049,-0.00437268608126799,-0.00188144466206175,0.00270690098422899,6
0.100006103515625,-0.0596375502645969,2.94068765640259,1.15374839305878,-0.0602282404704493,2.93990185114529,1.18014124010193,2640.55,3831.823,2620.117,1134.666,-0.00585203,-0.002888465,-0.070145,0.0139334313571453,0.0149977942928672,-0.241429135203362,-0.00677739276378709,-0.00291612276782231,0.00419552897277328,6
0.120010375976563,-0.0590848885476589,2.94089889526367,1.14957022666931,-0.0603920338334453,2.93983137543704,1.18024263599618,2092.257,4101.995,3169.267,755.9441,-0.04011946,-0.0004511395,-0.08993602,0.0276331827044487,0.010561915114522,-0.208908408880234,-0.00968041450003567,-0.00416521191989172,0.00599263771761404,5
0.139999389648438,-0.0582314617931843,2.94085621833801,1.14596676826477,-0.0606185767455666,2.93973390035084,1.18038287685052,1510.274,4074.836,3735.818,701.9628,-0.07649504,0.002388302,-0.09949889,0.0426713563501835,-0.00212969444692135,-0.180173456668854,-0.0130660253322238,-0.00562194567796536,0.00808849210174802,4
0.160003662109375,-0.0570994354784489,2.94039487838745,1.14297795295715,-0.0609177895434042,2.93960515744296,1.18056810382587,1134.647,3846.994,4070.114,880.1874,-0.1062798,0.00433567,-0.09869941,0.0566012784838676,-0.023067956790328,-0.149439349770546,-0.0169265510445065,-0.00728302204135792,0.0104783414199936,4
0.180007934570313,-0.0557377189397812,2.93938803672791,1.14071118831635,-0.0612988491946875,2.93944119812059,1.1808039979024,1101.343,3565.175,4009.854,1148.824,-0.1236287,0.004492098,-0.09000047,0.0680859312415123,-0.0503411144018173,-0.113338589668274,-0.0212468478482708,-0.00914192506089775,0.0131528109458008,3
0.199996948242188,-0.0541964657604694,2.9377772808075,1.13924860954285,-0.0617704296168641,2.93923829023936,1.18109592864822,1373.443,3339.828,3594.73,1386.127,-0.127877,0.00302261,-0.07724925,0.0770627707242966,-0.0805368423461914,-0.0731290802359581,-0.0260104776919234,-0.0111915819022102,0.0161017247421801,3
0.220001220703125,-0.0525142289698124,2.93557620048523,1.13858389854431,-0.0623420644491781,2.93899233174064,1.18144979784016,1790.29,3212.833,3017.192,1527.411,-0.1229747,0.0008612399,-0.06425888,0.084111824631691,-0.110051058232784,-0.033236488699913,-0.03121219533433,-0.0134297356845702,0.019321835755004,3
0.240005493164063,-0.0507195740938187,2.93284702301025,1.13860702514648,-0.0630219993990999,2.93869977472688,1.18187070996396,2159.743,3168.378,2517.042,1558.441,-0.1149628,-0.0009880328,-0.05362222,0.0897327065467834,-0.136454343795776,0.00115860626101494,-0.0368361158647881,-0.0158495515746756,0.0228033104678445,3
0.260009765625,-0.0488372482359409,2.92966485023499,1.13913786411285,-0.0638185570309634,2.93835703823113,1.18236381708338,2352.013,3159.412,2273.765,1495.506,-0.1090522,-0.001904693,-0.04623621,0.0941163077950478,-0.159107685089111,0.0265439357608557,-0.0428699302682246,-0.0184457333472145,0.0265385290140116,3
0.279998779296875,-0.0468917116522789,2.92608761787415,1.13999617099762,-0.0647390625194898,2.93796097043536,1.18293365383054,2352.616,3152.114,2324.222,1363.801,-0.1078197,-0.001744903,-0.04152241,0.0972766205668449,-0.178861856460571,0.0429139509797096,-0.0492963837173861,-0.0212108567320638,0.030516809833474,3
0.300003051757813,-0.0449087023735046,2.92214369773865,1.1410619020462,-0.0657927507678135,2.93750759781875,1.18358593705038,2228.539,3144.003,2573.283,1194.658,-0.1110906,-0.0007360977,-0.03798413,0.0991505533456802,-0.197190672159195,0.0532859116792679,-0.0561132031658829,-0.0241439437008635,0.0347367458022363,3
0.32000732421875,-0.0429168939590454,2.91783547401428,1.142294049263,-0.0669865614821475,2.93699393441958,1.18432496275165,2074.583,3132.379,2872.953,1032.57,-0.1169293,0.0006862616,-0.03398087,0.0995904207229614,-0.21540854871273,0.0616071633994579,-0.0633036493784043,-0.0272377918282996,0.0391879745362408,3
0.339996337890625,-0.0409489125013351,2.91315102577209,1.1437075138092,-0.068326768706371,2.93641728069206,1.18515461486636,1955.467,3107.796,3109.127,921.0769,-0.1228452,0.002069636,-0.02837385,0.0983994007110596,-0.234225735068321,0.070673480629921,-0.0708499516420146,-0.0304847548730522,0.0438594951176439,3
0.360000610351563,-0.0390401557087898,2.90807723999023,1.14534330368042,-0.0698225328270578,2.93577369517774,1.1860805641102,1903.863,3065.42,3222.775,881.333,-0.1267068,0.003093272,-0.020868,0.095437578856945,-0.253692746162415,0.0817914456129074,-0.0787518717320621,-0.0338847303337087,0.0487511600740379,3
0.3800048828125,-0.0372257195413113,2.90261030197144,1.14724361896515,-0.0714797725314022,2.93506063123087,1.18710647443246,1924.528,3020.975,3206.629,896.1696,-0.1274131,0.003642173,-0.01188622,0.0907221138477325,-0.273345023393631,0.0950184091925621,-0.0869921272359981,-0.0374302820709642,0.0538522707687797,3
0.400009155273438,-0.0355372875928879,2.89676117897034,1.14943170547485,-0.0733051402689975,2.93427522648826,1.18823646401636,1991.477,2989.806,3098.674,938.3961,-0.1250413,0.003790547,-0.00220776,0.0844215303659439,-0.292451411485672,0.109406314790249,-0.0955591682828665,-0.0411164404980124,0.0591556772815509,3
0.419998168945313,-0.034001998603344,2.89055466651917,1.15190613269806,-0.0753034649285836,2.93341540321397,1.18947352217404,2072.185,2974.161,2953.307,987.2515,-0.120508,0.003707658,0.007336726,0.0767646357417107,-0.310325592756271,0.123719803988934,-0.104434660908044,-0.0449353170220673,0.0646500300148815,3
0.44000244140625,-0.0326425582170486,2.88402462005615,1.15464150905609,-0.077483988232608,2.93247718495301,1.19082336997196,2135.583,2972.881,2826.178,1022.98,-0.1150816,0.003565184,0.01615218,0.06797194480896,-0.326506614685059,0.136771738529205,-0.113620829717891,-0.048887868829098,0.0703367061060819,4
0.460006713867188,-0.0314784571528435,2.8772075176239,1.15760171413422,-0.0798512213598696,2.93145863067119,1.19228880004469,2168.962,2977.208,2748.252,1039.728,-0.1098634,0.003475352,0.02394107,0.0582051165401936,-0.340853691101074,0.148011460900307,-0.123099793815011,-0.0529664022684887,0.0762046364278779,4
0.480010986328125,-0.0305268317461014,2.87013840675354,1.16074800491333,-0.0824109101018722,2.93035726811493,1.19387336931088,2168.592,2985.123,2732.592,1031.328,-0.1055475,0.003481769,0.03074964,0.0475816465914249,-0.353460431098938,0.157311946153641,-0.132860437136906,-0.0571661344090936,0.082246939608052,4
0.5,-0.0298037137836218,2.8628466129303,1.16405248641968,-0.085166398670376,2.92917165836334,1.1955791479969,2146.519,2988.878,2762.734,1010.245,-0.1022744,0.003568948,0.0367963,0.0361557267606258,-0.364584982395172,0.165222704410553,-0.142884000065179,-0.0614789935111996,0.0884520025491718,4
0.520004272460938,-0.0293244365602732,2.85535669326782,1.16749906539917,-0.088127196023106,2.92789770997757,1.19741202260058,2115.841,2992.636,2818.178,977.4754,-0.09984457,0.003687212,0.0424155,0.0239637289196253,-0.3744957447052,0.172326371073723,-0.153174893518032,-0.065906877469682,0.0948225558197254,4
0.540008544921875,-0.0291042495518923,2.8476881980896,1.17108619213104,-0.0912963635428427,2.92653410573011,1.19937388826368,2089.834,2991.271,2869.976,952.1167,-0.09781738,0.003777768,0.04785562,0.0110093057155609,-0.383429437875748,0.179354906082153,-0.163714777034477,-0.0704418948965508,0.101347245800684,4
0.55999755859375,-0.0291577726602554,2.83985805511475,1.17481660842896,-0.094676112580471,2.92507989413848,1.20146611391775,2071.348,2990.442,2908.866,932.2226,-0.09579444,0.003795154,0.05330012,-0.00267583504319191,-0.391506731510162,0.186522141098976,-0.17448465888317,-0.0750758741803766,0.108014315705644,5
0.580001831054688,-0.0294992178678513,2.83188247680664,1.17869865894318,-0.0982762614093182,2.92353085067394,1.20369477754168,2062.479,2984.351,2922.688,933.3072,-0.0933864,0.003718004,0.05874104,-0.0170722827315331,-0.398783802986145,0.194102853536606,-0.185490414529404,-0.0798113433697334,0.11482740272751,5
0.600006103515625,-0.0301415398716927,2.82377767562866,1.18274009227753,-0.102098762959148,2.92188613504538,1.20606108809202,2067.714,2984.797,2911.555,937.9503,-0.09049155,0.003538631,0.06411032,-0.0321164317429066,-0.405236750841141,0.202069357037544,-0.196713446836865,-0.0846403006364086,0.121774994352997,5
0.620010375976563,-0.031095877289772,2.81556153297424,1.18694269657135,-0.106147859919355,2.92014392174208,1.20856767199563,2074.946,2987.365,2887.039,950.9464,-0.08718017,0.003271681,0.06929349,-0.0477165207266808,-0.410808056592941,0.210130676627159,-0.20814339888717,-0.0895582896877615,0.128850679156259,5
0.639999389648438,-0.0323716439306736,2.80725240707397,1.19130575656891,-0.110424235525481,2.91830391678686,1.21121495220784,2082.481,2991.06,2854.959,970.1055,-0.08360195,0.00294076,0.07414681,-0.0637887194752693,-0.415460377931595,0.218154788017273,-0.219761081350814,-0.0945570538913933,0.136042578028218,5
0.660003662109375,-0.0339761599898338,2.79886889457703,1.19582259654999,-0.114938248900541,2.91636166293851,1.21400934151928,2086.948,2999.234,2828.556,982.1326,-0.08001201,0.002567563,0.07860488,-0.0802257210016251,-0.419170081615448,0.225840017199516,-0.231574097577923,-0.0996398647564507,0.143355397804799,5
0.680007934570313,-0.0359153933823109,2.79042935371399,1.20048832893372,-0.119690355154666,2.91431696437584,1.21695112166479,2088.566,3006.449,2804.913,996.3063,-0.07659092,0.002170243,0.08260209,-0.0969619154930115,-0.421975672245026,0.233284249901772,-0.243563621239988,-0.104798621839723,0.150777484091833,6
0.699996948242188,-0.0381932370364666,2.78195095062256,1.2052915096283,-0.124680083855354,2.91217002351282,1.22004000142426,2084.089,3017.129,2798.565,995.943,-0.0735613,0.001757801,0.08620282,-0.113892078399658,-0.423921823501587,0.240160822868347,-0.255710395848158,-0.11002503961202,0.158296916205407,6
0.720001220703125,-0.0408131293952465,2.77344870567322,1.21022713184357,-0.129918284978346,2.90991617190799,1.22328269744952,2073.091,3019.208,2797.87,1006.715,-0.07086885,0.001346516,0.08940201,-0.130994647741318,-0.425111651420593,0.246781304478645,-0.268023157655716,-0.11532287703907,0.16591910230247,6
0.740005493164063,-0.0437773279845715,2.7649359703064,1.21528995037079,-0.13540428105644,2.90755570105657,1.22667879035609,2067.624,3027.787,2803.459,999.4951,-0.06857853,0.000928209,0.09229995,-0.148210316896439,-0.425631612539291,0.253141760826111,-0.280482990349159,-0.120683994959631,0.173632332283853,6
0.760009765625,-0.0470875464379787,2.75642442703247,1.22047662734985,-0.141140917956636,2.9050873864615,1.23023004187122,2057.271,3030.316,2811.906,1000.861,-0.06659926,0.0005070809,0.0949451,-0.165510505437851,-0.425578534603119,0.259333938360214,-0.293080296154222,-0.126104263719567,0.181430664670081,6
0.779998779296875,-0.0507449768483639,2.74792385101318,1.22578585147858,-0.147126184485884,2.90251209348295,1.23393520697061,2050.06,3032.664,2819.066,1000.851,-0.06484158,8.252537E-05,0.0973779,-0.182871550321579,-0.425034433603287,0.265460759401321,-0.305795832832518,-0.131575403921268,0.189302187598958,6
0.800003051757813,-0.0547502376139164,2.7394425868988,1.23121631145477,-0.153371683173492,2.89982482987671,1.2378014681726,2044.338,3034.551,2824.748,1001.203,-0.0632293,-0.0003451457,0.09962762,-0.200262740254402,-0.424062490463257,0.271524995565414,-0.318639638509124,-0.13710173468952,0.197253115148089,6
0.82000732421875,-0.0591037683188915,2.73098802566528,1.23677098751068,-0.159875221826383,2.89702653888221,1.24182746840525,2043.917,3037.163,2820.176,1006.002,-0.06170544,-0.0007765777,0.1016768,-0.217676311731339,-0.422722458839417,0.277733623981476,-0.331592781842754,-0.14267511039705,0.205271727915392,6
0.839996337890625,-0.0638045370578766,2.72256708145142,1.2424453496933,-0.166633637018892,2.89411858163313,1.24601124935738,2042.829,3042.504,2820.364,1003.035,-0.06034616,-0.001213869,0.1035681,-0.235039249062538,-0.421045452356339,0.283720195293427,-0.344636106234817,-0.148287288494656,0.213346167053785,6
0.860000610351563,-0.0688517838716507,2.7141854763031,1.24824094772339,-0.173659158941841,2.89109569582005,1.2503603820997,2038.602,3041.087,2813.527,1017.833,-0.05904175,-0.001638377,0.1052291,-0.252362489700317,-0.419084399938583,0.289777904748917,-0.357780475378537,-0.153942943326036,0.221483157706883,6
0.8800048828125,-0.074243426322937,2.7058482170105,1.25415480136871,-0.180948461186242,2.88795931270381,1.25487280742661,2042.873,3049.005,2808.542,1012.376,-0.05794186,-0.002061287,0.1067034,-0.26958304643631,-0.416867285966873,0.295692503452301,-0.371007022483504,-0.159633957038354,0.229671020432672,6
0.900009155273438,-0.0799770802259445,2.69755935668945,1.26018476486206,-0.188503099076414,2.88470876307182,1.25954948815793,2039.426,3050.7,2804.54,1020.254,-0.05703479,-0.002467685,0.1079697,-0.286681741476059,-0.414444029331207,0.301496088504791,-0.384306908919572,-0.165356526615982,0.237904283698049,7
0.919998168945313,-0.0860495269298553,2.68932223320007,1.26632714271545,-0.196318384305134,2.8813460641717,1.26438752200817,2038.106,3054.312,2804.798,1020,-0.0563658,-0.002855441,0.1090506,-0.303624272346497,-0.411857694387436,0.307121515274048,-0.397661187980262,-0.171102499820431,0.246171218589148,7
0.94000244140625,-0.0924574583768845,2.68113899230957,1.27257943153381,-0.204407453948074,2.87786556348678,1.26939504145298,2034.564,3055.509,2807.883,1022.019,-0.05590987,-0.003218164,0.1099562,-0.320395916700363,-0.409157544374466,0.312616586685181,-0.411081631631503,-0.176876941799768,0.254479112513653,7
0.960006713867188,-0.0991973578929901,2.67301106452942,1.27894222736359,-0.212765478812529,2.87426933888379,1.27456905699201,2035.837,3058.924,2807.477,1021.004,-0.05567445,-0.003557451,0.1107007,-0.336995035409927,-0.406395643949509,0.3181411921978,-0.424549556012544,-0.182671813410681,0.262816399271726,7
0.980010986328125,-0.106264814734459,2.66493892669678,1.28541028499603,-0.221393324468958,2.87055701793193,1.27991010445463,2033.961,3062.117,2815.921,1014.159,-0.0557064,-0.003876497,0.1113455,-0.353372693061829,-0.403612166643143,0.323405474424362,-0.438056556301695,-0.188483498293199,0.271177875878363,7
1,-0.113656237721443,2.65692162513733,1.29198634624481,-0.230284798736574,2.86673126495361,1.28541435058594,2030.695,3059.749,2817.392,1022.522,-0.05586353,-0.004159858,0.1118483,-0.369571924209595,-0.400863975286484,0.328804910182953,-0.451584000205995,-0.194303979492187,0.279552008056641,7
1.02000427246094,-0.121366769075394,2.64895820617676,1.29866433143616,-0.239454009753966,2.86278600961093,1.2910905289958,2031.844,3063.615,2830.329,1007.995,-0.05623851,-0.004422445,0.1123016,-0.385525524616241,-0.398169726133347,0.333899259567261,-0.465144357597929,-0.200138622445408,0.287946515251652,7
1.04000854492188,-0.129393264651299,2.64104652404785,1.30545318126678,-0.248894644448595,2.85872396824263,1.29693473159157,2032.265,3060.668,2823.79,1022.351,-0.05663905,-0.004647749,0.1126095,-0.401325315237045,-0.395587891340256,0.339443206787109,-0.47871923339115,-0.205979512261105,0.296350010028666,7
1.05999755859375,-0.137729853391647,2.63318419456482,1.31234121322632,-0.258599401509697,2.85454828239877,1.30294243851408,2037.514,3069.239,2840.569,994.8904,-0.05733679,-0.004866128,0.1129395,-0.416829913854599,-0.393111228942871,0.344403207302094,-0.492290296490434,-0.211818761581115,0.30475114456651,7
1.08000183105469,-0.146373823285103,2.62536811828613,1.31934010982513,-0.268583149539609,2.85025255453512,1.30912285413647,2030.096,3058.437,2833.118,1026.879,-0.05792801,-0.005029113,0.1130989,-0.432197690010071,-0.390806585550308,0.34994649887085,-0.50587040849135,-0.217661904390701,0.313157880805523,7
1.10000610351563,-0.155319020152092,2.61759519577026,1.32643854618073,-0.278838480013141,2.84583997233313,1.31547139222872,2044.179,3072.08,2848.754,987.1954,-0.05883295,-0.005192631,0.1133043,-0.447261720895767,-0.388645023107529,0.354924649000168,-0.519441457145546,-0.223501147495394,0.321559006401169,7
1.12001037597656,-0.164562851190567,2.60986113548279,1.33364915847778,-0.289365134970699,2.84131064678559,1.32198789310157,2036.584,3061.506,2838.887,1022.141,-0.05964043,-0.005301821,0.1133493,-0.462189555168152,-0.386698067188263,0.360528409481049,-0.532995796775449,-0.22933320117373,0.329949788314817,8
1.13999938964844,-0.174098506569862,2.6021625995636,1.3409560918808,-0.300154365346813,2.83666834237095,1.3286669406667,2047.899,3074.009,2861.922,979.2258,-0.06078506,-0.005411011,0.1134767,-0.476785570383072,-0.384923100471497,0.365347385406494,-0.546515580872639,-0.235150386571708,0.338319178707607,8
1.16000366210938,-0.18392413854599,2.59449458122253,1.34837687015533,-0.311222084148811,2.83190621216671,1.33551838583369,2038.531,3059.528,2849.984,1023.251,-0.06171876,-0.005454154,0.1134201,-0.491281777620316,-0.383401602506638,0.371040284633636,-0.560014026276883,-0.240958390526247,0.34667535943296,8
1.18000793457031,-0.19403275847435,2.58685326576233,1.35589408874512,-0.322559451663168,2.82702805965467,1.34253675639879,2057.417,3077.725,2875.057,965.2696,-0.06304448,-0.005511146,0.1134961,-0.505431115627289,-0.382068246603012,0.37585860490799,-0.573473482003304,-0.246749618311663,0.355007403690405,8
1.19999694824219,-0.204422980546951,2.57923269271851,1.36352860927582,-0.334156660511822,2.8220381046756,1.34971598112778,2045.609,3060.88,2858.225,1019.858,-0.064114,-0.00549996,0.1133809,-0.519510328769684,-0.381023049354553,0.381727248430252,-0.58687652428584,-0.252516572968185,0.36330452533874,8
1.22000122070313,-0.215086907148361,2.57162928581238,1.37125432491302,-0.346030421585499,2.81692915700008,1.35706640485806,2061.932,3079.149,2897.03,950.3438,-0.06561816,-0.005507417,0.1134679,-0.533195793628693,-0.380165040493011,0.386284828186035,-0.600236516861372,-0.258265004538453,0.371574997167698,8
1.24000549316406,-0.226025328040123,2.56403660774231,1.37910723686218,-0.358170848086624,2.8117054706409,1.36458190719098,2051,3057.059,2863.134,1028.551,-0.06664987,-0.005429653,0.1132732,-0.546922028064728,-0.379638195037842,0.392647951841354,-0.613536214864368,-0.263987493038594,0.379808143784027,8
1.260009765625,-0.23722830414772,2.55645132064819,1.38704490661621,-0.37057666480527,2.80636759428526,1.37226169871082,2077.478,3088.362,2918.661,917.516,-0.06838252,-0.00540888,0.1134332,-0.560147702693939,-0.37926572561264,0.396883457899094,-0.626768731761373,-0.26968107538565,0.387999702095469,8
1.27999877929688,-0.248699262738228,2.5488657951355,1.39512002468109,-0.383236695417198,2.80092033679326,1.3800988607405,2050.765,3049.495,2867.537,1048.003,-0.06931942,-0.005264537,0.1131711,-0.573549866676331,-0.37927633523941,0.403757274150848,-0.639917282339435,-0.275338529371412,0.396139281255613,8
1.30000305175781,-0.260425627231598,2.54127812385559,1.40326941013336,-0.396168722856641,2.79535604666509,1.38810440176341,2090.966,3095.854,2948.698,880.5728,-0.07122997,-0.0052166,0.1134408,-0.586317718029022,-0.379378408193588,0.407471865415573,-0.652995275331231,-0.280965624398954,0.404235181908735,8
1.32000732421875,-0.27241525053978,2.53367948532104,1.41157531738281,-0.409361504843077,2.78967956113998,1.39627136227237,2053.404,3040.236,2862.494,1077.294,-0.07190908,-0.005001949,0.1130714,-0.599479794502258,-0.379933297634125,0.415296137332916,-0.6659860834168,-0.286555206197011,0.41227711095171,8
1.33999633789063,-0.284650593996048,2.52607011795044,1.41993951797485,-0.422802873722428,2.78389611561957,1.40459220990988,2114.093,3112.683,2980.641,822.2579,-0.07412483,-0.00495561,0.1135274,-0.611767411231995,-0.380472660064697,0.418210417032242,-0.678873453515705,-0.29210028151913,0.420255006953505,8
1.36000061035156,-0.297145277261734,2.51843881607056,1.42848122119904,-0.436511415158101,2.77799771321212,1.41307845008695,2044.702,3022.972,2855.263,1128.793,-0.07443429,-0.004658934,0.1130209,-0.624737918376923,-0.381564885377884,0.42708620429039,-0.691670720740693,-0.297606588091785,0.42817712498415,9
1.3800048828125,-0.30987611413002,2.5107889175415,1.43706095218658,-0.450474904562636,2.77198961381608,1.4217225152016,2140.71,3131.907,3019.415,751.1089,-0.07696322,-0.00462378,0.1136991,-0.636540830135345,-0.382492750883102,0.428985357284546,-0.704361775018035,-0.303067194200314,0.436033492140578,9
1.40000915527344,-0.322864383459091,2.50310659408569,1.44584965705872,-0.464691155755482,2.76587275808388,1.43052305190393,2038.937,3005.061,2833.024,1194.191,-0.07679331,-0.004244014,0.1129968,-0.649414241313934,-0.38411745429039,0.439433842897415,-0.716940488958393,-0.308479463400265,0.443820315276901,9
1.41999816894531,-0.336077302694321,2.49539947509766,1.45464050769806,-0.47914673136562,2.75965292774086,1.43947174182117,2169.546,3158.549,3074.942,651.8289,-0.07984796,-0.004247209,0.1140193,-0.660647630691528,-0.385354518890381,0.439542859792709,-0.729391385793766,-0.313836736470737,0.451528013536465,9
1.44000244140625,-0.349548608064651,2.48764896392822,1.46368598937988,-0.493861275572861,2.75332167044526,1.4485807456364,2017.703,2971.876,2798.204,1304.752,-0.07887005,-0.003747068,0.1129947,-0.673563361167908,-0.387520909309387,0.452272742986679,-0.741727567798258,-0.319144650954242,0.459164697851088,9
1.46000671386719,-0.36323145031929,2.47986960411072,1.47268378734589,-0.508821304757097,2.74688478782212,1.45784171634646,2214.702,3200.289,3146.293,503.3526,-0.08265653,-0.003828028,0.1145005,-0.684143364429474,-0.388964205980301,0.449892222881317,-0.753933682518823,-0.324396601119133,0.466720864320996,9
1.48001098632813,-0.377177178859711,2.4720356464386,1.48200404644012,-0.524024159888143,2.74034342397783,1.467253007885,1987.744,2928.22,2732.36,1467.425,-0.08056702,-0.00318088,0.1129956,-0.697285830974579,-0.391698718070984,0.466013759374619,-0.766004036374583,-0.329590137176618,0.474192988348404,9
1.5,-0.391317367553711,2.46417164802551,1.49119567871094,-0.539455198877605,2.73370387899399,1.4768055561018,2270.391,3260.453,3250.33,289.0909,-0.08553647,-0.003392335,0.1152294,-0.707010447978973,-0.393203258514404,0.459583193063736,-0.777924000354858,-0.334718964672088,0.481572013878822,9
1.52000427246094,-0.405730694532394,2.45624017715454,1.50081050395966,-0.555135099954955,2.72695725560613,1.48651216180595,1928.707,2856.61,2630.747,1726.406,-0.08170152,-0.002515089,0.1129613,-0.720665812492371,-0.396571427583694,0.480739086866379,-0.789706299681991,-0.339788558913217,0.48886581843107,9
1.54000854492188,-0.420317649841309,2.44828033447266,1.51019072532654,-0.571049184024557,2.72010986981902,1.49636373793799,2329.275,3373.873,3368.24,0,-0.08820656,-0.002822418,0.1163065,-0.729348719120026,-0.39799776673317,0.469013214111328,-0.801336412291853,-0.344792671461508,0.496065412155667,9
1.55999755859375,-0.435193628072739,2.44023942947388,1.52012610435486,-0.587181951496087,2.71316839067337,1.50635068951315,1858.27,2751.449,2476.295,2085.3,-0.08208662,-0.00157233,0.1129927,-0.743799090385437,-0.402049839496613,0.496767431497574,-0.812800388649436,-0.349725300221754,0.503162159625937,9
1.58000183105469,-0.450232207775116,2.43216443061829,1.52981472015381,-0.60355483331529,2.70612359703193,1.51648628330776,2102.018,3743.152,3228.765,0,-0.08822999,-0.0007046724,0.1183052,-0.751929461956024,-0.403755098581314,0.484430730342865,-0.824110582941666,-0.354591760855452,0.510163708672098,9
1.60000610351563,-0.465553402900696,2.42401027679443,1.54001402854919,-0.620152298932711,2.69898217125626,1.52676090517188,1970.213,2549.88,2422.393,2232.828,-0.08157103,0.001566749,0.114556,-0.766059219837189,-0.407708406448364,0.509962856769562,-0.835253140422976,-0.35938609205264,0.51706148254665,9
1.62001037597656,-0.481031179428101,2.41582775115967,1.54994225502014,-0.636970945360177,2.69174557755711,1.53717244849371,2200.702,3657.851,3228.939,0,-0.08767872,0.003206787,0.1184985,-0.773889183998108,-0.409127712249756,0.496411859989166,-0.846223126656604,-0.364106170663034,0.523852426598179,9
1.63999938964844,-0.496780812740326,2.40757536888123,1.56035053730011,-0.653994195024907,2.68442094880091,1.54771065096602,2067.34,2520.029,2493.078,2108.491,-0.08203068,0.005893175,0.1134287,-0.787482142448425,-0.412621349096298,0.520413637161255,-0.857007552155828,-0.368746407673381,0.530528499715628,9
1.66000366210938,-0.512681365013123,2.39929604530334,1.57052624225616,-0.671244443874359,2.67699864863716,1.55838937674714,2179.29,3701.238,3222.62,0,-0.08871628,0.00801904,0.1163789,-0.795030057430267,-0.413971602916718,0.508785128593445,-0.867618167158098,-0.373311858882592,0.53709697585572,9
1.68000793457031,-0.528829753398895,2.39095139503479,1.58109998703003,-0.688705090349012,2.66948582025311,1.56919834868089,2135.41,2523.442,2656.811,1872.805,-0.0853623,0.01076828,0.1112985,-0.807415425777435,-0.417232662439346,0.528688132762909,-0.878042061913515,-0.377796969585941,0.543549863268291,9
1.69999694824219,-0.545123159885406,2.38257527351379,1.59147155284882,-0.706358800111611,2.66188992212981,1.58012683598675,2245.603,3545.276,3326.471,0,-0.09259652,0.01269181,0.1131235,-0.81467068195343,-0.418801486492157,0.518576920032501,-0.888267004546665,-0.382196476749158,0.549879589839776,9
1.72000122070313,-0.561646580696106,2.37412714958191,1.60220718383789,-0.724228658537036,2.6542010212754,1.5911891296115,2130.437,2591.676,2830.5,1639.484,-0.0905805,0.01499496,0.1085881,-0.826174974441528,-0.42240098118782,0.536779820919037,-0.898304216251578,-0.386515208538549,0.556093102023817,9
1.74000549316406,-0.578311800956726,2.36563491821289,1.6127872467041,-0.742297311768984,2.64642658456943,1.60237448669139,2256.271,3471.819,3399.719,0,-0.09746318,0.01639356,0.1105514,-0.833262622356415,-0.424616932868958,0.529005587100983,-0.908141534469281,-0.390747931744771,0.562182870617028,9
1.760009765625,-0.595196723937988,2.35705661773682,1.62372207641602,-0.760560719141003,2.63856835059778,1.61368040586141,2115.764,2650.115,2914.117,1512.833,-0.09543491,0.01808996,0.1072356,-0.844239771366119,-0.428910076618195,0.546741545200348,-0.91777478390713,-0.394892849856044,0.568146310914365,9
1.77999877929688,-0.612219750881195,2.34842205047607,1.63451337814331,-0.779000609654483,2.63063418086074,1.62509557650306,2296.648,3385.503,3450.218,0,-0.1014089,0.01875682,0.1097951,-0.851157784461975,-0.431723326444626,0.539567530155182,-0.927192788821983,-0.398945154262308,0.57397650459845,9
1.80000305175781,-0.629462659358978,2.33968830108643,1.64569127559662,-0.797640935141499,2.62261376955408,1.63663482594136,2078.836,2691.896,2887.979,1539.727,-0.09794201,0.01986803,0.1073311,-0.862143158912659,-0.436693042516708,0.558897852897644,-0.936405971974637,-0.402909329586356,0.579679903854719,9
1.82000732421875,-0.64684009552002,2.33089160919189,1.65672481060028,-0.816463410111527,2.61451498441355,1.64828683458664,2301.582,3417.483,3414.281,0,-0.1028689,0.02001317,0.1108885,-0.868872582912445,-0.439830183982849,0.551676690578461,-0.94540321420156,-0.406780591562751,0.585249625391268,9
1.83999633789063,-0.664439499378204,2.32199025154114,1.66816973686218,-0.835449117627072,2.60634596486888,1.66003989195343,2061.909,2694.909,2789.225,1657.145,-0.09791325,0.02081584,0.1088702,-0.879969120025635,-0.44506961107254,0.572243809700012,-0.954174163352093,-0.410554485950274,0.590679260733698,9
1.86000061035156,-0.682167291641235,2.31302928924561,1.67943716049194,-0.854622615239374,2.59809614449182,1.6719092003358,2306.922,3451.564,3374.919,0,-0.1023234,0.02071021,0.1130179,-0.886392891407013,-0.448042392730713,0.563371002674103,-0.962728579444532,-0.414235212212131,0.595974851798267,9
1.8800048828125,-0.700121402740479,2.30396676063538,1.69114398956299,-0.873964974649439,2.58977366760063,1.68388304221498,2047.651,2675.253,2684.884,1804.251,-0.09617527,0.02147959,0.1107402,-0.897705256938934,-0.453125864267349,0.585344612598419,-0.971056158224177,-0.417818336715394,0.601130019760457,9
1.90000915527344,-0.718198239803314,2.29485297203064,1.7026492357254,-0.893471623792247,2.58138050142717,1.69595858726494,2274.227,3547.426,3313.693,0,-0.1005322,0.02150154,0.1152724,-0.903839945793152,-0.45569059252739,0.575264036655426,-0.979153483542501,-0.421302389586788,0.606142649861596,9
1.91999816894531,-0.736500084400177,2.28564834594727,1.71458506584167,-0.913122862707269,2.57292512231409,1.70812364027167,2055.137,2630.63,2637.433,1894.334,-0.0941257,0.02247927,0.1126079,-0.915094137191772,-0.460236817598343,0.596794068813324,-0.987011339258123,-0.424683405378145,0.611007036871143,9
1.94000244140625,-0.75491988658905,2.27640390396118,1.72629773616791,-0.932943991899774,2.5643966441608,1.72039386345315,2270.316,3561.573,3308.204,0,-0.09864881,0.02271428,0.1168372,-0.920991480350494,-0.462224245071411,0.585633456707001,-0.994638524886308,-0.427965170275055,0.615728628108227,9
1.96000671386719,-0.77356219291687,2.26708126068115,1.73843574523926,-0.952915303453826,2.55580354673295,1.73275705667061,2072.881,2609.724,2640.411,1900.427,-0.09241009,0.02386357,0.1136359,-0.932115435600281,-0.466137558221817,0.60689914226532,-1.00202586176059,-0.431143734953757,0.620301741541062,9
1.97999572753906,-0.792318642139435,2.25772833824158,1.75035262107849,-0.973016570682103,2.54715453300902,1.74520069864106,2249.629,3592.381,3301.975,0,-0.09713134,0.02431097,0.1175832,-0.937824130058289,-0.467643737792969,0.595843553543091,-1.00916501115878,-0.434215511495054,0.624721215103391,9
2,-0.811289429664612,2.24830937385559,1.76266574859619,-0.993273599084619,2.53843849960327,1.7577407641983,2089.999,2593.303,2688.266,1850.583,-0.09142099,0.02555957,0.1142031,-0.948537766933441,-0.470946699380875,0.61565762758255,-1.01606400046349,-0.437183953857422,0.628992018127441,9
2.02000427246094,-0.830370903015137,2.23886871337891,1.77476346492767,-1.01366615605493,2.52966415204104,1.77036472839513,2272.195,3541.987,3331.638,0,-0.09615663,0.02599134,0.1176005,-0.954073488712311,-0.472036242485046,0.604888439178467,-1.02271452148052,-0.440045487257004,0.633109007445237,9
2.04000854492188,-0.849659144878387,2.22937059402466,1.78724753856659,-1.03418924440916,2.52083364047092,1.78306949773667,2099.696,2614.477,2729.614,1775.269,-0.09080794,0.02711871,0.1141451,-0.964409708976746,-0.474897503852844,0.624205708503723,-1.02911391720548,-0.442798968459032,0.637070538244476,9
2.05999755859375,-0.869052708148956,2.21985673904419,1.79952216148376,-1.05482201812353,2.5119559343546,1.79584216754118,2265.022,3527.763,3349.229,0,-0.09547166,0.02740791,0.1174304,-0.969684362411499,-0.475703090429306,0.613732576370239,-1.03525504859546,-0.445441325732794,0.640872191117535,9
2.08000183105469,-0.88864541053772,2.21029138565063,1.8121749162674,-1.07559088172821,2.50301967256038,1.80869908347065,2090.44,2625.187,2750.663,1744.969,-0.09008728,0.02836873,0.1141305,-0.979632139205933,-0.478253960609436,0.632635831832886,-1.04114485287423,-0.447975543971863,0.644518260536375,9
2.10000610351563,-0.908337593078613,2.20071578025818,1.82461810112,-1.09647498538954,2.49403382618922,1.82162733848484,2274.017,3504.399,3355.719,0,-0.09447777,0.02843828,0.1174069,-0.984608232975006,-0.478797525167465,0.622159421443939,-1.04677621342161,-0.450398561093403,0.648004340974112,9
2.12001037597656,-0.92822253704071,2.19109439849854,1.83744275569916,-1.11746913671118,2.48500062938421,1.83462371824305,2080.481,2639.623,2734.112,1747.809,-0.08878074,0.02920515,0.1142042,-0.994248390197754,-0.481071680784225,0.641230404376984,-1.05214690704168,-0.452709420518306,0.651329056166548,9
2.13999938964844,-0.948199093341827,2.18146800994873,1.85004580020905,-1.138551967509,2.47592927627801,1.8476749948214,2265.345,3509.956,3347.049,0,-0.09297202,0.02908915,0.1176467,-0.998826205730438,-0.481308788061142,0.630154848098755,-1.05725102347782,-0.454905579228273,0.654488747383304,8
2.16000366210938,-0.96836268901825,2.17180323600769,1.86303448677063,-1.15975039167652,2.46680818657414,1.86079782920208,2061.299,2635.654,2699.963,1794.597,-0.08676632,0.02975103,0.1144249,-1.00818336009979,-0.483250498771667,0.649432241916656,-1.0620943502576,-0.456989527434725,0.657486997379635,8
2.18000793457031,-0.988609611988068,2.16214108467102,1.8757883310318,-1.18104303873349,2.45764655539322,1.87397899203979,2257.078,3529.042,3323.042,0,-0.09077651,0.02954752,0.1179817,-1.01234531402588,-0.483107715845108,0.637690007686615,-1.06667099276523,-0.458958728849171,0.660320157107579,7
2.19999694824219,-1.00903713703156,2.15244889259338,1.88892877101898,-1.20240821395574,2.44845371736898,1.88720505326679,2054.632,2627.254,2656.775,1841,-0.0842491,0.03017553,0.1146059,-1.02137899398804,-0.484615445137024,0.657020270824432,-1.07097597819164,-0.460811043810786,0.662985148161421,7
2.22000122070313,-1.02953815460205,2.1427686214447,1.9018120765686,-1.22387315175433,2.43921795429519,1.90049287228091,2239.585,3545.836,3309.094,0,-0.0882726,0.02996512,0.118175,-1.02504920959473,-0.484012067317963,0.644163012504578,-1.07501419914593,-0.462548577472581,0.665484999299265,7
2.24000549316406,-1.05021321773529,2.13306760787964,1.9150857925415,-1.24541615591711,2.42994860144581,1.91382901809327,2047.075,2610.549,2618.837,1891.258,-0.08147196,0.03063148,0.114485,-1.03374874591827,-0.485034018754959,0.663683593273163,-1.07878069424208,-0.464169195088763,0.667816639186824,5
2.260009765625,-1.07095181941986,2.12338829040527,1.9280891418457,-1.26703177594152,2.42064800401982,1.92721011658316,2215.503,3582.698,3281.1,0,-0.0855892,0.03051325,0.1180411,-1.03693532943726,-0.483982741832733,0.650166213512421,-1.08227399942825,-0.465672266718726,0.669979161506271,4
2.27999877929688,-1.09185409545898,2.11369895935059,1.94146752357483,-1.28869796983554,2.41132564607061,1.9406225227075,2046.276,2587.095,2606.417,1912.521,-0.07886312,0.03126039,0.1141046,-1.04511630535126,-0.484470814466476,0.668916523456573,-1.08549040888332,-0.467056197851165,0.67197027217779,3
2.30000305175781,-1.11281037330627,2.10403966903687,1.9545613527298,-1.31044231452835,2.40196966201596,1.95408330789913,2212.469,3569.619,3282.074,0,-0.08307358,0.03118728,0.1173566,-1.04780888557434,-0.482963591814041,0.654691994190216,-1.08843358680109,-0.468322565086307,0.673792239511894,0
2.32000732421875,-1.13391947746277,2.09438037872314,1.96802484989166,-1.33224276726637,2.39258953623693,1.96757882664355,2046.688,2581.987,2602.811,1905.595,-0.07645296,0.03193691,0.1131272,-1.05546414852142,-0.482968747615814,0.673174798488617,-1.09109983431736,-0.469469776906228,0.675442773735451,0
2.33999633789063,-1.1550726890564,2.08475828170776,1.98120033740997,-1.35407709248145,2.38319483607731,1.98109531406483,2195.132,3583.977,3268.211,0,-0.08078859,0.03188378,0.1162414,-1.05765283107758,-0.481105387210846,0.658772051334381,-1.09348640563071,-0.470496651869278,0.67692017506657,0
2.36000061035156,-1.17636513710022,2.07514452934265,1.99472415447235,-1.37597305876702,2.37377361348711,1.99464996024512,2039.512,2572.398,2615.583,1890.159,-0.07439966,0.03261039,0.1119481,-1.06462705135345,-0.480691701173782,0.67619377374649,-1.09559602313537,-0.471404361345641,0.678226128796969,0
2.3800048828125,-1.19769144058228,2.06557416915894,2.00795483589172,-1.39790843013262,2.36433543599182,2.00822900004707,2207.19,3547.944,3274.784,0,-0.07875021,0.03245164,0.1147509,-1.06631171703339,-0.478514283895493,0.661530017852783,-1.09742594550583,-0.472191725819537,0.679358937915576,0
2.40000915527344,-1.2191447019577,2.05601835250854,2.02152872085571,-1.41987760424917,2.35488271411715,2.02182896536211,2030.539,2585.655,2615.491,1867.325,-0.07247739,0.03303913,0.1103873,-1.07267069816589,-0.477785140275955,0.678698062896729,-1.09897546783438,-0.472858441988871,0.680318166050934,0
2.41999816894531,-1.24062061309814,2.04651093482971,2.03480195999146,-1.44185817738692,2.34542508756209,2.03543598721428,2190.421,3547.84,3271.719,0,-0.07686096,0.03274987,0.1132004,-1.07379269599915,-0.475375771522522,0.663657069206238,-1.10024313330221,-0.473403883025206,0.681102911362803,0
2.44000244140625,-1.26221144199371,2.03702259063721,2.04841303825378,-1.46387808506052,2.33595053645515,2.04906735901791,2009.133,2583.58,2605.345,1880.77,-0.07044967,0.03322841,0.108873,-1.07954776287079,-0.474405735731125,0.680555939674377,-1.10123038958312,-0.473828671822132,0.681714070030222,0
2.46000671386719,-1.28381395339966,2.02758717536926,2.06171441078186,-1.48591492338117,2.32646870056377,2.06270921169857,2187.118,3540.939,3261.207,0,-0.07472777,0.03281061,0.1117008,-1.08012044429779,-0.471777975559235,0.665072381496429,-1.10193578218388,-0.474132182551855,0.682150741652607,0
2.47999572753906,-1.3055202960968,2.01817560195923,2.07535433769226,-1.50794623031618,2.31698924467309,2.07634764018804,1995.345,2584.121,2575.959,1903.414,-0.06810448,0.03318479,0.1073385,-1.08531773090363,-0.470568776130676,0.681991100311279,-1.10235882472314,-0.474314205938057,0.682412625136718,0
2.5,-1.32722592353821,2.00882196426392,2.08866691589355,-1.52999999932945,2.30750012397766,2.08999997377396,2170.259,3547.088,3249.832,0,-0.0723485,0.03268161,0.1102432,-1.08528935909271,-0.467697858810425,0.665625095367432,-1.10250000050292,-0.474374949932098,0.682500019669533,0
2.52000427246094,-1.34902548789978,1.99949729442596,2.10232353210449,-1.55205376834272,2.29801100328223,2.10365230735988,1979.364,2573.51,2535.427,1951.13,-0.0653854,0.03301754,0.1057252,-1.089972615242,-0.46623095870018,0.682830691337585,-1.10235882472314,-0.474314205938057,0.682412625136718,0
2.54000854492188,-1.37081253528595,1.99023520946503,2.11563897132874,-1.57410188948011,2.28852431271001,2.11730114464159,2150.326,3575.257,3219.281,0,-0.06965657,0.03252233,0.1087134,-1.08935451507568,-0.463106364011765,0.665776610374451,-1.10193535162022,-0.474131997292339,0.682150475113189,0
2.55999755859375,-1.39268088340759,1.98100864887238,2.12928891181946,-1.59612191359838,2.27904971150017,2.13093258853001,1968.236,2553.619,2508.128,1988.323,-0.06259707,0.0328856,0.1040326,-1.09341943264008,-0.461323648691177,0.682502269744873,-1.10123038958312,-0.473828671822132,0.681714070030222,0
2.58000183105469,-1.41452503204346,1.97185039520264,2.14258146286011,-1.61814182127198,2.26957516039323,2.14456396033363,2144.911,3568.641,3209.967,0,-0.0669311,0.03240041,0.1068463,-1.09221041202545,-0.457910418510437,0.664622604846954,-1.10024313330221,-0.473403883025206,0.681102911362804,0
2.60000610351563,-1.43643808364868,1.96273422241211,2.1562066078186,-1.64013916343638,2.26011031859448,2.15818136301212,1961.378,2545.843,2487.612,2003.672,-0.05985295,0.03275993,0.1019066,-1.09566187858582,-0.455812633037567,0.68126118183136,-1.09897439291323,-0.472857979480329,0.680317500623536,0
2.62001037597656,-1.45831561088562,1.95369076728821,2.16946697235107,-1.66210831390746,2.25065760689379,2.17178131368948,2126.316,3587.449,3188.148,0,-0.06433931,0.03230089,0.1046471,-1.09386658668518,-0.452162891626358,0.663014769554138,-1.09742465646102,-0.47219117117957,0.679358139935436,0
2.63999938964844,-1.48024725914001,1.94469499588013,2.18304347991943,-1.68402693989188,2.24122663446822,2.18534998730279,1951.144,2533.511,2484.799,2006.661,-0.05745344,0.03266062,0.09961168,-1.09658801555634,-0.449787616729736,0.678828597068787,-1.09559602313537,-0.471404361345641,0.67822612879697,0
2.66000366210938,-1.50213134288788,1.93577647209167,2.19624423980713,-1.70592290617745,2.23180541187802,2.19890463348308,2126.578,3561.266,3192.93,0,-0.06202555,0.032154,0.1021182,-1.09420669078827,-0.445930927991867,0.660043120384216,-1.09348640563071,-0.470496651869278,0.67692017506657,0
2.68000793457031,-1.52405655384064,1.92690944671631,2.2097601890564,-1.72777388024004,2.22240354818443,2.21243142733407,1939.425,2536.618,2478.323,2001.141,-0.0551791,0.03243645,0.09696103,-1.09626352787018,-0.443352699279785,0.675792932510376,-1.09109790637238,-0.469468947365361,0.675441580245664,0
2.69999694824219,-1.54592275619507,1.91812229156494,2.22289705276489,-1.74955768413056,2.21303058593937,2.22591663964878,2109.714,3571.854,3177.098,0,-0.05981833,0.03187414,0.09948309,-1.09330534934998,-0.439366042613983,0.656849086284637,-1.08843358680109,-0.468322565086308,0.673792239511893,0
2.72000122070313,-1.56781542301178,1.90938973426819,2.23633527755737,-1.77130202882336,2.20367460188472,2.23937742484041,1920.802,2529.932,2476.123,2005.458,-0.05300809,0.0320928,0.09438451,-1.09463882446289,-0.436629235744476,0.671908795833588,-1.08549040888332,-0.467056197851165,0.671970272177789,0
2.74000549316406,-1.58963811397552,1.90073931217194,2.24938726425171,-1.79298473688851,2.19434513834902,2.25280005402337,2120.297,3541.208,3175.391,0,-0.05760524,0.03140097,0.09675279,-1.09112787246704,-0.432515561580658,0.652600824832916,-1.08227143928024,-0.465671165158559,0.669977576652695,0
2.760009765625,-1.61147451400757,1.89214634895325,2.26274180412292,-1.81460030360772,2.18504456385877,2.26618111951479,1904.687,2540.023,2457.981,2008.453,-0.0507247,0.03148677,0.09162458,-1.09182393550873,-0.429647952318192,0.667725026607513,-1.07877792518082,-0.464168003639063,0.667814925005998,0
2.77999877929688,-1.63322913646698,1.88363790512085,2.27570009231567,-1.83612684690458,2.17578229366013,2.27950707526701,2102.828,3548.36,3162.595,0,-0.05534688,0.03068665,0.09408645,-1.08773398399353,-0.42543026804924,0.64791864156723,-1.07501419914593,-0.462548577472581,0.665484999299265,0
2.80000305175781,-1.65498518943787,1.87518906593323,2.28895950317383,-1.85759178470316,2.16654653058634,2.29279489428112,1880.35,2533.605,2434.423,2040.868,-0.04825648,0.03069964,0.08897284,-1.08781015872955,-0.422441899776459,0.662965834140778,-1.07097597819164,-0.460811043810786,0.662985148161422,0
2.82000732421875,-1.67664885520935,1.86682713031769,2.30181241035461,-1.87897323600723,2.1573466894188,2.30603103117811,2098.126,3546.885,3145.911,0,-0.05283019,0.02982172,0.09146316,-1.08317542076111,-0.418099850416183,0.642640352249146,-1.06666760390385,-0.458957270716794,0.660318059240952,0
2.83999633789063,-1.69830203056335,1.85852801799774,2.31496715545654,-1.90024960698239,2.14819206138118,2.31920211834584,1865.75,2529.68,2402.414,2070.089,-0.04557041,0.0297752,0.08628001,-1.08266019821167,-0.414956629276276,0.657739698886871,-1.06209435025759,-0.456989527434725,0.657486997379635,0
2.86000061035156,-1.71985149383545,1.85031843185425,2.3276994228363,-1.9214480311499,2.13907097167731,2.33232495272651,2082.19,3552.46,3132.99,0,-0.05017928,0.02886118,0.08880755,-1.07746493816376,-0.410464733839035,0.636614322662354,-1.05725102347782,-0.454905579228273,0.654488747383304,0
2.8800048828125,-1.74137914180756,1.84217572212219,2.34073781967163,-1.94254691640495,2.12999271078668,2.34538616777867,1850.318,2518.395,2368.963,2109.602,-0.04270539,0.02880046,0.08347487,-1.07638144493103,-0.40714693069458,0.651914298534393,-1.0521429102862,-0.45270770082608,0.651326581984514,0
2.90000915527344,-1.76279211044312,1.83412575721741,2.35334324836731,-1.96354098577478,2.12095954924324,2.35838249680481,2065.785,3571.964,3106.909,0,-0.04738935,0.02791034,0.08603368,-1.07065212726593,-0.402500629425049,0.630276441574097,-1.04677201701582,-0.450396755497224,0.648001743199023,0
2.91999816894531,-1.78417074680328,1.82614612579346,2.36624550819397,-1.98440911693069,2.11198057539494,2.37130086407726,1837.744,2502.935,2350.135,2134.31,-0.03991706,0.02787225,0.08059061,-1.06893157958984,-0.398983061313629,0.645112454891205,-1.04114485287423,-0.447975543971863,0.644518260536375,0
2.94000244140625,-1.805424451828,1.8182624578476,2.37870287895203,-2.00517798053537,2.10304431360073,2.38415778000673,2062.848,3558.349,3101.421,0,-0.0446724,0.02698261,0.0829815,-1.06267952919006,-0.394175231456757,0.622863471508026,-1.03525504859546,-0.445441325732794,0.640872191117535,0
2.96000671386719,-1.82663118839264,1.81045293807983,2.39145636558533,-2.02582645724542,2.09415985092405,2.3969401707136,1827.263,2500.115,2335.139,2141.865,-0.03721182,0.02691975,0.07737757,-1.06033778190613,-0.390476763248444,0.637674272060394,-1.02910913225408,-0.442796909628122,0.637067576131623,0
2.97999572753906,-1.84770262241364,1.80274188518524,2.40376043319702,-2.04633384260397,2.08533609591429,2.40963521915279,2048.307,3568.816,3083.191,0,-0.04208593,0.02602663,0.07973421,-1.05357074737549,-0.385550171136856,0.615201890468597,-1.02271452148052,-0.440045487257004,0.633109007445237,0
3,-1.86871337890625,1.79510760307312,2.41634774208069,-2.06672639957428,2.07656174835205,2.42225918334961,1809.791,2492.855,2332.362,2146.424,-0.03473667,0.02594405,0.0741329,-1.05054938793182,-0.381707966327667,0.629367530345917,-1.01606400046349,-0.437183953857422,0.628992018127441,0
3.02000427246094,-1.88957941532135,1.78757405281067,2.42847967147827,-2.0869834279768,2.06784571494631,2.43479924890685,2055.994,3541.133,3081.482,0,-0.03964861,0.02497517,0.07630934,-1.04329323768616,-0.376685798168182,0.606599569320679,-1.00916501115878,-0.434215511495054,0.624721215103391,0
3.04000854492188,-1.91037201881409,1.78011929988861,2.44089460372925,-2.10709998486405,2.05919012250926,2.44725235590455,1794.054,2502.027,2321.297,2142.711,-0.03234516,0.02479409,0.07068599,-1.03964412212372,-0.372743159532547,0.620742499828339,-1.00202031904361,-0.431141350077486,0.620298310335216,0
3.05999755859375,-1.93101000785828,1.77276599407196,2.45284676551819,-2.12705600675913,2.05060360379452,2.45960608409476,2041.686,3540.694,3073.443,0,-0.03732101,0.02373986,0.07291134,-1.03188979625702,-0.367663681507111,0.597614228725433,-0.994638524886308,-0.427965170275055,0.615728628108227,0
3.08000183105469,-1.95156288146973,1.76549291610718,2.46508073806763,-2.14687713595163,2.04207512564123,2.47187630727625,1769.558,2499.352,2305.204,2164.036,-0.02989132,0.02348752,0.06734388,-1.02764463424683,-0.36365333199501,0.61169308423996,-0.987011339258122,-0.424683405378145,0.611007036871143,0
3.10000610351563,-1.97195136547089,1.75832271575928,2.47684478759766,-2.16654331551667,2.03361331798384,2.48405060925705,2038.774,3533.384,3060.908,0,-0.03482243,0.02235273,0.06960196,-1.01943230628967,-0.35851177573204,0.588196933269501,-0.979147395688901,-0.421299770153459,0.606138881190213,0
3.12001037597656,-1.99224400520325,1.75123429298401,2.4888927936554,-2.18604984110275,2.02522020497339,2.49612607781951,1753.274,2498.849,2277.229,2187.326,-0.02723828,0.02202821,0.06403263,-1.01463508605957,-0.354410380125046,0.602396845817566,-0.971049893464309,-0.41781564116424,0.601126141575667,0
3.13999938964844,-2.01236319541931,1.74425077438354,2.50045847892761,-2.20537738341953,2.01690410346351,2.50809074721212,2028.833,3533.991,3046.943,0,-0.03219442,0.0208369,0.06634233,-1.00597047805786,-0.349184215068817,0.578282177448273,-0.962728579444533,-0.414235212212131,0.595974851798267,0
3.16000366210938,-2.03237628936768,1.7373514175415,2.51231002807617,-2.22455088103183,2.00865428308644,2.51996005559448,1731.98,2491.11,2249.727,2222.732,-0.02440521,0.02047963,0.06071338,-1.00064313411713,-0.344966173171997,0.592573642730713,-0.954174163352092,-0.410554485950274,0.590679260733698,0
3.18000793457031,-2.05220746994019,1.73055875301361,2.52367043495178,-2.24355101420387,2.00047905658478,2.53172204312984,2020.97,3539.722,3026.305,0,-0.0293704,0.01927229,0.06303275,-0.991555631160736,-0.339632868766785,0.568024635314941,-0.945396434568188,-0.406777674475913,0.585245428475253,0
3.19999694824219,-2.0719211101532,1.72385346889496,2.53531503677368,-2.2623590635174,1.99238647840124,2.54336512160655,1720.095,2484.89,2222.917,2246.122,-0.02153805,0.01889837,0.05732689,-0.985687851905823,-0.335266798734665,0.582234025001526,-0.936405971974636,-0.402909329586355,0.579679903854719,0
3.22000122070313,-2.09144449234009,1.71725702285767,2.5464551448822,-2.28099938900442,1.98436606709459,2.55490437104486,2011.451,3535.281,3017.464,0,-0.02660498,0.01768341,0.05959479,-0.976176083087921,-0.329820215702057,0.557002007961273,-0.927192788821982,-0.398945154262308,0.573976504598449,0
3.24000549316406,-2.11084032058716,1.71075081825256,2.55788207054138,-2.29945328359428,1.9764258717947,2.56632821087688,1704.805,2478.56,2199.972,2270.191,-0.01870764,0.01729817,0.05376535,-0.969781517982483,-0.325317680835724,0.571347713470459,-0.91776751470058,-0.394889722119544,0.568141810929231,0
3.260009765625,-2.13003730773926,1.70435512065887,2.56879782676697,-2.31771654397337,1.96856770107001,2.57763403905129,1997.096,3546.861,2997.853,0,-0.02388589,0.01610451,0.05604398,-0.959864437580109,-0.319776833057404,0.545787274837494,-0.908134108040216,-0.390744736359816,0.562178273303667,0
3.27999877929688,-2.1490957736969,1.69805216789246,2.57999277114868,-2.33577134012187,1.96079922667992,2.58881081793642,1689.77,2469.523,2187.612,2284.717,-0.0160546,0.01572871,0.05018979,-0.952914774417877,-0.315153419971466,0.559746444225311,-0.898304216251578,-0.386515208538549,0.556093102023818,0
3.30000305175781,-2.16794776916504,1.69186127185822,2.59066700935364,-2.35364119854729,1.95311032582551,2.59987311156116,1996.842,3527.244,2996.054,0,-0.02129943,0.01451883,0.05234372,-0.942613542079926,-0.309536755084991,0.533717811107635,-0.888267004546666,-0.382196476749158,0.549879589839776,0
3.32000732421875,-2.18665075302124,1.68576502799988,2.60162281990051,-2.37130830610839,1.94550866300381,2.61080989274252,1675.457,2471.199,2173.412,2291.323,-0.01345695,0.01410204,0.04642453,-0.93513697385788,-0.304819971323013,0.54779452085495,-0.878034183119985,-0.377793579561194,0.543544985919778,0
3.33999633789063,-2.20513987541199,1.67978203296661,2.61205458641052,-2.38875555478454,1.93800159931817,2.62161057080077,1985.452,3532.854,2979.925,0,-0.01878221,0.01287156,0.04860304,-0.924461126327515,-0.299152076244354,0.521584212779999,-0.867618167158097,-0.373311858882592,0.53709697585572,0
3.36000061035156,-2.22346901893616,1.67389464378357,2.62276101112366,-2.406005803634,1.93057929915441,2.6322892965819,1655.612,2467.348,2162.857,2303.714,-0.01096264,0.01242926,0.04273739,-0.916451811790466,-0.29436382651329,0.535324335098267,-0.857007552155826,-0.36874640767338,0.530528499715627,0
3.3800048828125,-2.24157762527466,1.6681215763092,2.63293647766113,-2.42304196557559,1.92324911460621,2.64283549236868,1991.662,3510.324,2974.775,0,-0.01631506,0.01113769,0.04482153,-0.905433356761932,-0.288654416799545,0.508779287338257,-0.846214826007803,-0.364102599125748,0.523847288101157,0
3.40000915527344,-2.25951623916626,1.66244554519653,2.64338970184326,-2.43986044461333,1.91601259293018,2.6532469320683,1638.706,2473.95,2144.462,2312.197,-0.008473646,0.01062267,0.03895095,-0.896930038928986,-0.283805131912231,0.522662699222565,-0.835244706287931,-0.359382463079953,0.517056261415284,0
3.41999816894531,-2.2772274017334,1.65688419342041,2.6533043384552,-2.45644516534361,1.90887665092339,2.66351366424015,1980.242,3510.975,2963.56,0,-0.0139001,0.009279773,0.04109499,-0.885574519634247,-0.278065532445908,0.495730996131897,-0.824110582941664,-0.354591760855451,0.510163708672097,0
3.44000244140625,-2.29475975036621,1.6514208316803,2.66349720954895,-2.47281804716281,1.90183185728196,2.67364925803476,1616.585,2470.689,2124.421,2337.105,-0.005960154,0.008723976,0.03526207,-0.876605093479156,-0.273165613412857,0.50964879989624,-0.812800388649434,-0.349725300221754,0.503162159625937,0
3.46000671386719,-2.31205868721008,1.64607286453247,2.67314386367798,-2.4889630419904,1.89488511704659,2.68364377892579,1977.793,3504.511,2950.935,0,-0.01140632,0.007342945,0.03742477,-0.864950299263,-0.267389237880707,0.482337921857834,-0.801327600455845,-0.344788879974649,0.496059957209413,0
3.47999572753906,-2.32916927337646,1.64082467556,2.68307137489319,-2.50486489870395,1.88804299234919,2.69348778574196,1601.359,2469.457,2099.886,2358.215,-0.003392867,0.00674907,0.03158335,-0.855543673038483,-0.262420803308487,0.496377915143967,-0.789706299681989,-0.339788558913217,0.488865818431069,0
3.5,-2.34604167938232,1.63569259643555,2.69244194030762,-2.5205447997813,1.88129636896134,2.70319439144611,1969.134,3501.752,2940.832,0,-0.008905611,0.005349464,0.03377045,-0.843606114387512,-0.25660052895546,0.468528121709824,-0.777924000354857,-0.334718964672089,0.481572013878822,0
3.52000427246094,-2.36271739006042,1.63066136837006,2.70209741592407,-2.53598752699493,1.87465179486116,2.71275417523047,1585.596,2464.469,2075.103,2384.563,-0.0007946873,0.00473761,0.027882,-0.833784639835358,-0.251558870077133,0.48277422785759,-0.765994882555673,-0.32958619854407,0.474187321698442,0
3.54000854492188,-2.37914896011353,1.62574768066406,2.71118879318237,-2.55119019794619,1.86811051026429,2.72216535275294,1960.805,3506.77,2923.198,0,-0.006395315,0.003348426,0.03009419,-0.821586549282074,-0.245690822601318,0.454569548368454,-0.753924423002452,-0.324392617007921,0.466715132239272,0
3.55999755859375,-2.39537596702576,1.62093615531921,2.72056221961975,-2.56613872308604,1.86167857751006,2.73141920191151,1570.439,2458.38,2057.561,2403.681,0.001696263,0.002743636,0.02418956,-0.811351299285889,-0.240574911236763,0.468669265508652,-0.741727567798258,-0.319144650954242,0.459164697851087,0
3.58000183105469,-2.41135430335999,1.61624276638031,2.72936272621155,-2.58085326729328,1.85534732021446,2.74052820572674,1959.231,3494.001,2917.476,0,-0.003992078,0.001357636,0.02632973,-0.798914432525635,-0.234672263264656,0.440028756856918,-0.729391385793765,-0.313836736470737,0.451528013536464,0
3.60000610351563,-2.42711997032166,1.61165261268616,2.73844790458679,-2.59531978247425,1.84912278287974,2.74948366775945,1556.665,2458.829,2041.805,2414.488,0.00408419,0.0007363564,0.02038359,-0.788276970386505,-0.229500979185104,0.454255044460297,-0.716930938559024,-0.308475354130224,0.443814403124743,0
3.6199951171875,-2.44263219833374,1.60718107223511,2.74695611000061,-2.60952509409627,1.84301063413925,2.75827743234631,1951.489,3495.392,2904.171,0,-0.001717739,-0.0006455503,0.02253347,-0.775610685348511,-0.22358226776123,0.425406992435455,-0.704361775018033,-0.303067194200314,0.436033492140578,0
3.63999938964844,-2.45792365074158,1.60281324386597,2.75574493408203,-2.6234885835008,1.83700253474321,2.76692149746096,1538.63,2456.983,2031.322,2425.852,0.006297873,-0.00127086,0.01663541,-0.764579951763153,-0.218382582068443,0.439444363117218,-0.691670720740692,-0.297606588091786,0.428177124984152,0
3.66000366210938,-2.47295832633972,1.59856390953064,2.76395606994629,-2.63719712493647,1.83110413233575,2.77540773763803,1945.82,3484.482,2890.11,11.99153,0.0004992614,-0.002641323,0.01874613,-0.751718401908875,-0.212469503283501,0.410555392503738,-0.678873453515702,-0.29210028151913,0.420255006953505,0
3.68000793457031,-2.48776435852051,1.59441888332367,2.77244400978088,-2.65064865588166,1.82531631436231,2.78373487607838,1528.999,2460.898,2020.773,2423.565,0.008413917,-0.003281547,0.012906,-0.740315675735474,-0.207249730825424,0.424398601055145,-0.665976209205203,-0.286550957599616,0.412270998344358,0
3.69999694824219,-2.50231027603149,1.59039187431335,2.78036165237427,-2.66383127580226,1.81964420129024,2.79189554578451,1920.622,3485.345,2859.019,49.71249,0.002759047,-0.004580637,0.01501625,-0.727285385131836,-0.201351091265678,0.395882695913315,-0.65299527533123,-0.280965624398954,0.404235181908735,0
3.72000122070313,-2.51662063598633,1.58646988868713,2.78853940963745,-2.6767633032417,1.81407991116207,2.79990108680742,1527.067,2462.328,2019.378,2405.548,0.01046884,-0.005188903,0.009302569,-0.715528666973114,-0.196102350950241,0.40888911485672,-0.639917282339434,-0.275338529371411,0.396139281255611,0
3.74000549316406,-2.53066825866699,1.58266568183899,2.79616379737854,-2.6894328975087,1.80862853869646,2.80774416919516,1900.869,3468.229,2818.581,111.284,0.005121849,-0.006377206,0.01123216,-0.7023646235466,-0.190213859081268,0.381223887205124,-0.626758665639204,-0.269676744214497,0.387993470686332,0
3.760009765625,-2.54447340965271,1.57896709442139,2.80402207374573,-2.70183851231475,1.80329074921818,2.81542383572149,1537.686,2476.42,2028.767,2350.975,0.01238337,-0.006947122,0.005658636,-0.690254628658295,-0.184919819235802,0.392912417650223,-0.613526094901139,-0.263983138701136,0.379801879044709,0
3.77999877929688,-2.55801248550415,1.57538616657257,2.81135082244873,-2.7139695770734,1.79807109095524,2.82293354268985,1876.654,3440.682,2775.921,191.632,0.007366696,-0.008012386,0.00729186,-0.676960647106171,-0.179056793451309,0.36644259095192,-0.60023651686137,-0.258265004538452,0.371574997167698,0
3.80000305175781,-2.57130241394043,1.57191109657288,2.81887888908386,-2.72584333814708,1.79296214327972,2.83028396642013,1547.29,2501.092,2053.409,2271.247,0.01399743,-0.008541822,0.001936788,-0.66449362039566,-0.173748597502708,0.376401364803314,-0.586876524285838,-0.252516572968186,0.363304525338741,0
3.82000732421875,-2.58432364463806,1.56855177879333,2.82591032981873,-2.73744929742843,1.78796842323393,2.8374686080838,1851.763,3403.379,2731.149,286.3739,0.009381059,-0.009492571,0.003229609,-0.65106737613678,-0.16795215010643,0.351578116416931,-0.573463232144022,-0.246745208083563,0.355001058539243,0
3.83999633789063,-2.59708881378174,1.56529831886292,2.83310151100159,-2.74877791451009,1.78309403578861,2.84448156171422,1559.395,2536.919,2086.409,2169.299,0.01524103,-0.009999105,-0.001788046,-0.638256669044495,-0.162679582834244,0.359558969736099,-0.560014026276881,-0.240958390526246,0.346675359432959,0
3.86000061035156,-2.60958313941956,1.56215810775757,2.83983325958252,-2.75984563331209,1.77833190558438,2.85133300688122,1820.888,3356.931,2687.134,396.7437,0.01111675,-0.01084652,-0.0008143947,-0.624707162380219,-0.15700326859951,0.336591124534607,-0.546515580872635,-0.235150386571708,0.338319178707605,0
3.8800048828125,-2.6218147277832,1.55912232398987,2.846684217453,-2.77064299647982,1.77368610185671,2.85801708903178,1571.521,2577.437,2122.457,2060.056,0.01623973,-0.01133921,-0.005411543,-0.6115962266922,-0.15181502699852,0.342550843954086,-0.532985466132484,-0.229328756186666,0.329943393154704,0
3.90000915527344,-2.63377380371094,1.55619621276855,2.85311675071716,-2.78116944461445,1.76915686529929,2.86453346187138,1794.989,3306.724,2639.07,511.063,0.01268036,-0.01210513,-0.004739361,-0.597943902015686,-0.146288022398949,0.321628868579865,-0.519431110871129,-0.223496695782554,0.321552601564443,0
3.91999816894531,-2.64546537399292,1.55337238311768,2.85962677001953,-2.79141684911929,1.7647476934202,2.87087709341145,1582.459,2621.594,2157.6,1949.66,0.01708953,-0.01258983,-0.008866728,-0.584590017795563,-0.141206011176109,0.325500398874283,-0.505870408491346,-0.2176619043907,0.313157880805522,0
3.94000244140625,-2.65688276290894,1.55065536499023,2.86575937271118,-2.8014005971492,1.76045196555656,2.87705750903383,1768.958,3252.8,2590.848,630.2455,0.01415898,-0.01328225,-0.008491223,-0.570862948894501,-0.13584178686142,0.306625783443451,-0.492290296490434,-0.211818761581115,0.30475114456651,0
