t,x_s1,x_s2,x_s3,x_s_d1,x_s_d2,x_s_d3,propellers_rpms1,propellers_rpms2,propellers_rpms3,propellers_rpms4,rollRad,pitchRad,yawRad,v_s1,v_s2,v_s3,v_s_d1,v_s_d2,v_s_d3,insideCount
0,-0.0599999986588955,2.94000005722046,1.17999994754791,-0.0599999986588955,2.94000005722046,1.17999994754791,0,0,0,0,0,0,0,0,0,0,-1.06581410364015E-15,4.44089209850063E-16,4.44089209850063E-16,0
0.0200042724609375,-0.0599999986588955,2.94000005722046,1.1771354675293,-0.0600018701838461,2.93999925195556,1.18000110611101,0,0,0,0,0.0163538,-0.002474609,-2.024222E-05,3.71994488546079E-08,3.50004931704007E-08,-0.143225952982903,-0.000280105751305916,-0.000120521679537258,0.00017339880334547,5
0.040008544921875,-0.0599999986588955,2.94000005722046,1.17048275470734,-0.060014880898484,2.93999365380853,1.18000916036316,0,0,0,0,0.03270752,-0.004950816,-5.430172E-05,3.62924410524101E-08,3.44428769949445E-08,-0.332637369632721,-0.00111143977225461,-0.000478221483967637,0.00068803416424398,6
0.05999755859375,-0.0600004345178604,2.94013261795044,1.16416549682617,-0.0600498857373401,2.93997859220429,1.18003083002592,3185.406,2835.785,1501.1,2767.662,0.03127991,-0.00494336,-0.01646952,-2.17784399865195E-05,0.0066222520545125,-0.315860867500305,-0.00247936261166862,-0.00106680046642749,0.00153484356504269,6
0.0800018310546875,-0.0599162206053734,2.94038772583008,1.15857696533203,-0.0601175574246769,2.93994947496775,1.18007272202403,3065.603,3067.191,2155.165,2024.121,0.01897616,-0.004310593,-0.04351445,0.00421066209673882,0.0127498498186469,-0.279423803091049,-0.00437268608126799,-0.00188144466206175,0.00270690098422899,6
0.100006103515625,-0.0596375502645969,2.94068765640259,1.15374839305878,-0.0602282404704493,2.93990185114529,1.18014124010193,2640.55,3831.823,2620.117,1134.666,-0.00585203,-0.002888465,-0.070145,0.0139334313571453,0.0149977942928672,-0.241429135203362,-0.00677739276378709,-0.00291612276782231,0.00419552897277328,6
0.1199951171875,-0.0590848885476589,2.94089889526367,1.14957022666931,-0.0603918861403606,2.93983143898525,1.18024254456713,2092.257,4101.995,3169.267,755.9441,-0.04011946,-0.0004511395,-0.08993602,0.0276331827044487,0.010561915114522,-0.208908408880234,-0.00967801353495435,-0.00416417885169243,0.00599115140585487,5
0.139999389648438,-0.0582314729690552,2.94085621833801,1.14596664905548,-0.0606185767455666,2.93973390035084,1.18038287685052,1509.855,4074.803,3736.029,702.1855,-0.07649131,0.002388559,-0.09949782,0.0426708832383156,-0.00212948210537434,-0.180178716778755,-0.0130660253322238,-0.00562194567796536,0.00808849210174802,4
0.160003662109375,-0.0570994354784489,2.94039487838745,1.14297807216644,-0.0609177895434042,2.93960515744296,1.18056810382587,1135.512,3846.901,4069.715,879.8438,-0.1062772,0.00433537,-0.09870101,0.0566019415855408,-0.0230683255940676,-0.14942978322506,-0.0169265510445065,-0.00728302204135792,0.0104783414199936,4
0.180007934570313,-0.0557376965880394,2.93938803672791,1.14071130752563,-0.0612988491946875,2.93944119812059,1.1808039979024,1101.067,3565.422,4009.876,1148.784,-0.1236298,0.004492212,-0.09000153,0.0680869668722153,-0.0503395609557629,-0.113339848816395,-0.0212468478482708,-0.00914192506089775,0.0131528109458008,3
0.199996948242188,-0.0541964247822762,2.9377772808075,1.13924860954285,-0.0617704296168641,2.93923829023936,1.18109592864822,1373.293,3339.69,3594.843,1386.305,-0.1278791,0.003022907,-0.07725032,0.0770636424422264,-0.0805353000760078,-0.0731324404478073,-0.0260104776919234,-0.0111915819022102,0.0161017247421801,3
0.220001220703125,-0.0525141768157482,2.93557620048523,1.13858377933502,-0.0623420644491781,2.93899233174064,1.18144979784016,1790.206,3212.872,3017.312,1527.349,-0.1229773,0.0008617942,-0.06425941,0.0841125175356865,-0.110050216317177,-0.0332397148013115,-0.03121219533433,-0.0134297356845702,0.019321835755004,3
0.240005493164063,-0.0507195144891739,2.93284702301025,1.13860690593719,-0.0630219993990999,2.93869977472688,1.18187070996396,2159.71,3168.368,2517.11,1558.431,-0.1149649,-0.0009880328,-0.05362222,0.0897331759333611,-0.136454284191132,0.00115685164928436,-0.0368361158647881,-0.0158495515746756,0.0228033104678445,3
0.260009765625,-0.0488371849060059,2.92966485023499,1.13913774490356,-0.0638185570309634,2.93835703823113,1.18236381708338,2352.021,3159.399,2273.759,1495.527,-0.1090532,-0.001904693,-0.04623567,0.0941165611147881,-0.159108281135559,0.0265440363436937,-0.0428699302682246,-0.0184457333472145,0.0265385290140116,3
0.279998779296875,-0.0468916520476341,2.92608761787415,1.13999605178833,-0.0647390625194898,2.93796097043536,1.18293365383054,2352.649,3152.11,2324.171,1363.826,-0.1078191,-0.001744903,-0.04152134,0.0972767546772957,-0.178862720727921,0.0429151058197021,-0.0492963837173861,-0.0212108567320638,0.030516809833474,3
0.300003051757813,-0.0449086427688599,2.92214369773865,1.14106178283691,-0.0657927507678135,2.93750759781875,1.18358593705038,2228.581,3143.998,2573.213,1194.69,-0.111089,-0.0007360977,-0.03798307,0.0991505682468414,-0.197191417217255,0.0532874427735806,-0.0561132031658829,-0.0241439437008635,0.0347367458022363,3
0.32000732421875,-0.0429168343544006,2.91783547401428,1.14229393005371,-0.0669865614821475,2.93699393441958,1.18432496275165,2074.616,3132.378,2872.897,1032.591,-0.1169282,0.0006861416,-0.03398034,0.099590428173542,-0.215408980846405,0.0616083256900311,-0.0633036493784043,-0.0272377918282996,0.0391879745362408,3
0.339996337890625,-0.0409488454461098,2.91315102577209,1.14370739459991,-0.068326768706371,2.93641728069206,1.18515461486636,1955.486,3107.803,3109.1,921.0756,-0.1228442,0.002069674,-0.02837385,0.098399430513382,-0.234225749969482,0.0706739574670792,-0.0708499516420146,-0.0304847548730522,0.0438594951176439,3
0.360000610351563,-0.0390400923788548,2.90807723999023,1.14534318447113,-0.0698225328270578,2.93577369517774,1.1860805641102,1903.863,3065.427,3222.776,881.325,-0.1267068,0.003093285,-0.02086853,0.0954377427697182,-0.253692507743835,0.0817913115024567,-0.0787518717320621,-0.0338847303337087,0.0487511600740379,3
0.3800048828125,-0.0372256450355053,2.90261030197144,1.14724349975586,-0.0714797725314022,2.93506063123087,1.18710647443246,1924.516,3020.987,3206.658,896.144,-0.1274136,0.003642264,-0.01188675,0.0907223746180534,-0.27334463596344,0.0950177162885666,-0.0869921272359981,-0.0374302820709642,0.0538522707687797,3
0.400009155273438,-0.0355372056365013,2.89676117897034,1.14943158626556,-0.0733051402689975,2.93427522648826,1.18823646401636,1991.458,2989.805,3098.712,938.3819,-0.1250423,0.003790877,-0.002208293,0.0844217911362648,-0.292451053857803,0.109405532479286,-0.0955591682828665,-0.0411164404980124,0.0591556772815509,3
0.419998168945313,-0.0340019091963768,2.89055466651917,1.15190601348877,-0.0753034649285836,2.93341540321397,1.18947352217404,2072.166,2974.159,2953.344,987.2394,-0.1205091,0.003707911,0.007336433,0.0767648816108704,-0.310325384140015,0.123719096183777,-0.104434660908044,-0.0449353170220673,0.0646500300148815,3
0.44000244140625,-0.0326424725353718,2.88402462005615,1.1546413898468,-0.077483988232608,2.93247718495301,1.19082336997196,2135.575,2972.877,2826.198,1022.976,-0.1150821,0.003565242,0.01615212,0.0679721087217331,-0.326506644487381,0.136771500110626,-0.113620829717891,-0.048887868829098,0.0703367061060819,4
0.460006713867188,-0.031478364020586,2.8772075176239,1.15760159492493,-0.0798512213598696,2.93145863067119,1.19228880004469,2168.96,2977.208,2748.259,1039.726,-0.1098634,0.003475457,0.02394124,0.058205209672451,-0.340853810310364,0.148011475801468,-0.123099793815011,-0.0529664022684887,0.0762046364278779,4
0.479995727539063,-0.0305267293006182,2.87013840675354,1.16074788570404,-0.0824088828700873,2.93035814037613,1.19387211435783,2168.603,2985.116,2732.572,1031.346,-0.1055475,0.003481876,0.03074988,0.0475816465914249,-0.353460669517517,0.157312542200089,-0.132852887402757,-0.0571628859694044,0.0822422659629699,4
0.5,-0.0298036057502031,2.86284685134888,1.16405189037323,-0.085166398670376,2.92917165836334,1.1955791479969,2145.644,2988.672,2763.654,1010.352,-0.1022675,0.003569687,0.03679948,0.0361564084887505,-0.36458283662796,0.165200531482697,-0.142884000065179,-0.0614789935111996,0.0884520025491718,4
0.520004272460938,-0.0293244086205959,2.8553569316864,1.16749942302704,-0.088127196023106,2.92789770997757,1.19741202260058,2117.586,2992.454,2816.102,978.1207,-0.09982859,0.003686653,0.04240823,0.0239601396024227,-0.37449836730957,0.172376409173012,-0.153174893518032,-0.065906877469682,0.0948225558197254,4
0.540008544921875,-0.029104121029377,2.84768843650818,1.17108595371246,-0.0912963635428427,2.92653410573011,1.19937388826368,2089.49,2992.879,2871.014,949.5595,-0.09782963,0.00377652,0.04786168,0.0110139362514019,-0.383424609899521,0.17932716012001,-0.163714777034477,-0.0704418948965508,0.101347245800684,4
0.55999755859375,-0.0291576385498047,2.83985829353333,1.17481660842896,-0.094676112580471,2.92507989413848,1.20146611391775,2070.459,2988.351,2908.318,935.895,-0.09579071,0.003795461,0.05329345,-0.00267618056386709,-0.391506403684616,0.18653430044651,-0.17448465888317,-0.0750758741803766,0.108014315705644,5
0.580001831054688,-0.0294990241527557,2.83188271522522,1.17869818210602,-0.0982762614093182,2.92353085067394,1.20369477754168,2062.963,2985.829,2923.573,930.3849,-0.09339653,0.003717921,0.0587426,-0.0170686915516853,-0.398780584335327,0.194080397486687,-0.185490414529404,-0.0798113433697334,0.11482740272751,5
0.600006103515625,-0.0301413536071777,2.82377791404724,1.18273973464966,-0.102098762959148,2.92188613504538,1.20606108809202,2067.328,2983.743,2911.17,939.8867,-0.09049102,0.003539302,0.0641062,-0.032116562128067,-0.405237048864365,0.202078774571419,-0.196713446836865,-0.0846403006364086,0.121774994352997,5
0.6199951171875,-0.0310956351459026,2.81556177139282,1.1869421005249,-0.106144683970236,2.92014528826426,1.20856570593183,2075.257,2988.207,2887.596,949.1855,-0.08718816,0.003271594,0.06929605,-0.0477139949798584,-0.41080704331398,0.210117220878601,-0.208134604141382,-0.0895545055543457,0.128845234789665,5
0.639999389648438,-0.0323713682591915,2.80725264549255,1.19130480289459,-0.110424235525481,2.91830391678686,1.21121495220784,2081.202,2989.964,2855.89,971.5552,-0.08359236,0.002941961,0.07414906,-0.0637870207428932,-0.415459036827087,0.218133002519608,-0.219761081350814,-0.0945570538913933,0.136042578028218,5
0.660003662109375,-0.0339759923517704,2.79886913299561,1.19582295417786,-0.114938248900541,2.91636166293851,1.21400934151928,2089.184,2999.817,2825.831,982.176,-0.0799939,0.002567055,0.07859816,-0.0802312940359116,-0.419172525405884,0.225905641913414,-0.231574097577923,-0.0996398647564507,0.143355397804799,5
0.680007934570313,-0.0359150879085064,2.79042959213257,1.20048773288727,-0.119690355154666,2.91431696437584,1.21695112166479,2088.189,3007.938,2806.594,993.1869,-0.07660796,0.002167584,0.08261287,-0.0969546288251877,-0.421971291303635,0.233240574598312,-0.243563621239988,-0.104798621839723,0.150777484091833,6
0.699996948242188,-0.0381929911673069,2.78195118904114,1.20529162883759,-0.124680083855354,2.91217002351282,1.22004000142426,2082.805,3014.546,2797.043,1001.57,-0.07354852,0.001758744,0.08619376,-0.113895371556282,-0.42392310500145,0.240196377038956,-0.255710395848158,-0.11002503961202,0.158296916205407,6
0.720001220703125,-0.0408127494156361,2.7734489440918,1.21022629737854,-0.129918284978346,2.90991617190799,1.22328269744952,2074.179,3021.464,2799.736,1001.317,-0.07088589,0.001345347,0.08940861,-0.130987554788589,-0.42510786652565,0.246734634041786,-0.268023157655716,-0.11532287703907,0.16591910230247,6
0.740005493164063,-0.0437770150601864,2.76493620872498,1.2152898311615,-0.13540428105644,2.90755570105657,1.22667879035609,2066.653,3025.773,2801.952,1004.23,-0.06856894,0.0009296256,0.09229098,-0.148213773965836,-0.425633013248444,0.253178387880325,-0.280482990349159,-0.120683994959631,0.173632332283853,6
0.760009765625,-0.0470870994031429,2.75642466545105,1.22047567367554,-0.141140917956636,2.9050873864615,1.23023004187122,2058.238,3032.29,2813.711,995.9208,-0.06661738,0.0005056766,0.09495273,-0.165503621101379,-0.425575941801071,0.25928983092308,-0.293080296154222,-0.126104263719567,0.181430664670081,6
0.779998779296875,-0.0507446192204952,2.74792385101318,1.22578573226929,-0.147126184485884,2.90251209348295,1.23393520697061,2049.042,3030.692,2817.364,1005.779,-0.06483039,8.415811E-05,0.09737036,-0.182876020669937,-0.425036996603012,0.26550281047821,-0.305795832832518,-0.131575403921268,0.189302187598958,6
0.800003051757813,-0.0547497309744358,2.7394425868988,1.23121535778046,-0.153371683173492,2.89982482987671,1.2378014681726,2045.395,3036.493,2826.635,996.1022,-0.06324582,-0.0003467436,0.09963726,-0.200256019830704,-0.424061000347137,0.271479427814484,-0.318639638509124,-0.13710173468952,0.197253115148089,6
0.82000732421875,-0.0591033808887005,2.73098802566528,1.23677110671997,-0.159875221826383,2.89702653888221,1.24182746840525,2042.851,3035.148,2818.108,1011.398,-0.06168893,-0.0007749799,0.1016693,-0.217682540416718,-0.422725886106491,0.277784794569016,-0.331592781842754,-0.14267511039705,0.205271727915392,6
0.839996337890625,-0.063804030418396,2.72256708145142,1.24244451522827,-0.166633637018892,2.89411858163313,1.24601124935738,2044.064,3044.617,2822.467,997.3263,-0.06036268,-0.001215467,0.1035792,-0.235032230615616,-0.421044111251831,0.283669382333755,-0.344636106234817,-0.148287288494656,0.213346167053785,6
0.860000610351563,-0.0688514411449432,2.71418523788452,1.24824130535126,-0.173659158941841,2.89109569582005,1.2503603820997,2037.321,3038.873,2811.068,1024.067,-0.05902151,-0.001636246,0.1052199,-0.252370446920395,-0.419087916612625,0.289838463068008,-0.357780475378537,-0.153942943326036,0.221483157706883,6
0.8800048828125,-0.0742429196834564,2.70584797859192,1.2541538476944,-0.180948461186242,2.88795931270381,1.25487280742661,2044.306,3051.4,2811.177,1005.607,-0.05796157,-0.002063417,0.1067159,-0.269574522972107,-0.416865229606628,0.295628756284714,-0.371007022483504,-0.159633957038354,0.229671020432672,6
0.900009155273438,-0.0799767524003983,2.69755911827087,1.26018524169922,-0.188503099076414,2.88470876307182,1.25954948815793,2037.842,3048.119,2801.521,1027.781,-0.05701029,-0.002465022,0.1079575,-0.286691874265671,-0.414447396993637,0.301570236682892,-0.384306908919572,-0.165356526615982,0.237904283698049,7
0.919998168945313,-0.0860490202903748,2.68932199478149,1.26632606983185,-0.196318384305134,2.8813460641717,1.26438752200817,2039.895,3057.166,2808.166,1011.61,-0.05639084,-0.002858104,0.1090652,-0.303613424301147,-0.411854535341263,0.307039976119995,-0.397661187980262,-0.171102499820431,0.246171218589148,7
0.94000244140625,-0.0924571752548218,2.68113875389099,1.27258026599884,-0.204407453948074,2.87786556348678,1.26939504145298,2032.528,3052.365,2804.074,1031.44,-0.05588004,-0.003214435,0.1099402,-0.320408761501312,-0.409161180257797,0.312710106372833,-0.411081631631503,-0.176876941799768,0.254479112513653,7
0.960006713867188,-0.0991967916488647,2.67301082611084,1.2789409160614,-0.212765478812529,2.87426933888379,1.27456905699201,2038.135,3062.439,2811.89,1010.291,-0.05570854,-0.003561179,0.1107191,-0.336980730295181,-0.406391352415085,0.318034440279007,-0.424549556012544,-0.182671813410681,0.262816399271726,7
0.979995727539063,-0.106264591217041,2.66493844985962,1.28541147708893,-0.22138664033507,2.87055989392801,1.27990596665734,2031.298,3058.155,2810.895,1026.372,-0.05566806,-0.003871171,0.1113248,-0.35338968038559,-0.403616786003113,0.323528707027435,-0.438046240701377,-0.188479059778567,0.271171490030365,7
1,-0.113655522465706,2.65692138671875,1.29198348522186,-0.230284798736574,2.86673126495361,1.28541435058594,2032.336,3063.478,2825.755,1008.043,-0.05589922,-0.004163586,0.1118783,-0.369546055793762,-0.400855094194412,0.32860341668129,-0.451584000205995,-0.194303979492187,0.279552008056641,7
1.02000427246094,-0.121366828680038,2.64895796775818,1.29866766929626,-0.239454009753966,2.86278600961093,1.2910905289958,2030.896,3058.886,2817.636,1027.449,-0.05614796,-0.004414456,0.1122567,-0.385565489530563,-0.398176640272141,0.334206819534302,-0.465144357597929,-0.200138622445408,0.287946515251652,7
1.04000854492188,-0.129392400383949,2.64104652404785,1.30544984340668,-0.248894644448595,2.85872396824263,1.29693473159157,2036.795,3069.42,2837.324,993.9427,-0.05674557,-0.00466213,0.1126667,-0.401278406381607,-0.395571559667587,0.339110732078552,-0.47871923339115,-0.205979512261105,0.296350010028666,7
1.05999755859375,-0.13773001730442,2.63318395614624,1.31234550476074,-0.258599401509697,2.85454828239877,1.30294243851408,2028.938,3057.268,2824.804,1032.938,-0.05721855,-0.004851747,0.1128728,-0.416881680488586,-0.393123358488083,0.344784289598465,-0.492290296490434,-0.211818761581115,0.30475114456651,7
1.08000183105469,-0.146372631192207,2.62536835670471,1.31933498382568,-0.268583149539609,2.85025255453512,1.30912285413647,2040.037,3072.05,2852.497,981.9425,-0.05807769,-0.00504669,0.1131737,-0.432131826877594,-0.390785038471222,0.349473804235458,-0.50587040849135,-0.217661904390701,0.313157880805523,7
1.10000610351563,-0.155319347977638,2.61759495735168,1.32644438743591,-0.278838480013141,2.84583997233313,1.31547139222872,2032.558,3056.18,2826.344,1039.579,-0.05866837,-0.005171326,0.1132113,-0.447336137294769,-0.388664871454239,0.355469077825546,-0.519441457145546,-0.223501147495394,0.321559006401169,7
1.1199951171875,-0.164561286568642,2.60986161231995,1.33364176750183,-0.289357002179081,2.84131414609862,1.32198285851614,2050.433,3080.315,2866.11,959.4048,-0.05985082,-0.005326855,0.1134581,-0.462097108364105,-0.386669546365738,0.359866559505463,-0.532985466132485,-0.229328756186667,0.329943393154705,8
1.13999938964844,-0.174099013209343,2.6021625995636,1.34096312522888,-0.300154365346813,2.83666834237095,1.3286669406667,2029.673,3050.82,2832.302,1053.594,-0.06053365,-0.005379586,0.1133537,-0.47688689827919,-0.384951919317245,0.366068780422211,-0.546515580872639,-0.235150386571708,0.338319178707607,8
1.16000366210938,-0.183922439813614,2.59449529647827,1.3483681678772,-0.311222084148811,2.83190621216671,1.33551838583369,2061.435,3086.589,2882.19,937.3464,-0.06196963,-0.005488242,0.1135583,-0.491169840097427,-0.383362770080566,0.370255142450333,-0.560014026276883,-0.240958390526247,0.34667535943296,8
1.18000793457031,-0.194033741950989,2.58685302734375,1.35590493679047,-0.322559451663168,2.82702805965467,1.34253675639879,2033.838,3049.119,2834.655,1061.979,-0.06274248,-0.005475459,0.1133387,-0.505566000938416,-0.382108271121979,0.376835912466049,-0.573473482003304,-0.246749618311663,0.355007403690405,8
1.19999694824219,-0.204420655965805,2.57923364639282,1.36351573467255,-0.334156660511822,2.8220381046756,1.34971598112778,2070.386,3093.205,2906.815,909.0734,-0.06448152,-0.005544169,0.1135748,-0.519344508647919,-0.380967408418655,0.380542933940887,-0.58687652428584,-0.252516572968185,0.36330452533874,8
1.22000122070313,-0.21508851647377,2.5716290473938,1.37126958370209,-0.346030421585499,2.81692915700008,1.35706640485806,2031.731,3040.091,2838.902,1083.908,-0.0651798,-0.005451491,0.1132343,-0.533393621444702,-0.380228281021118,0.38769394159317,-0.600236516861372,-0.258265004538453,0.371574997167698,8
1.24000549316406,-0.226022109389305,2.56403803825378,1.37908816337585,-0.358170848086624,2.8117054706409,1.36458190719098,2087.699,3104.2,2933.759,866.7263,-0.06718676,-0.005493036,0.1135542,-0.546681523323059,-0.379555195569992,0.390930742025375,-0.613536214864368,-0.263987493038594,0.379808143784027,8
1.25999450683594,-0.237230911850929,2.55645084381104,1.38706707954407,-0.3705671011502,2.80637170925886,1.37225577835275,2032.822,3031.783,2833.562,1112.808,-0.06774123,-0.005326855,0.113095,-0.560440182685852,-0.379365801811218,0.398948282003403,-0.626758665639206,-0.269676744214496,0.387993470686331,8
1.27999877929688,-0.248694702982903,2.54886794090271,1.39509069919586,-0.383236695417198,2.80092033679326,1.3800988607405,2103.015,3116.949,2973.594,811.3431,-0.07009014,-0.005355084,0.1135919,-0.573190748691559,-0.379147201776505,0.401182591915131,-0.639917282339435,-0.275338529371412,0.396139281255613,8
1.30000305175781,-0.260430216789246,2.54127717018127,1.4033043384552,-0.396168722856641,2.79535604666509,1.38810440176341,2028.073,3014.082,2816.329,1171.093,-0.07023182,-0.005092497,0.1129274,-0.586774110794067,-0.379538834095001,0.410680741071701,-0.652995275331231,-0.280965624398954,0.404235181908735,8
1.32000732421875,-0.272408902645111,2.53368258476257,1.41153335571289,-0.409361504843077,2.78967956113998,1.39627136227237,2133.898,3143.645,3020.755,718.4275,-0.07311016,-0.005143629,0.1137137,-0.59893786907196,-0.379731148481369,0.411448806524277,-0.6659860834168,-0.286555206197011,0.41227711095171,8
1.33999633789063,-0.284657806158066,2.52606797218323,1.41999101638794,-0.422802873722428,2.78389611561957,1.40459220990988,2011.055,2986.09,2787.705,1264.936,-0.07265423,-0.00476546,0.1127703,-0.612443566322327,-0.380725711584091,0.422885000705719,-0.678873453515705,-0.29210028151913,0.420255006953505,8
1.36000061035156,-0.297136574983597,2.5184428691864,1.42841911315918,-0.436511415158101,2.77799771321212,1.41307845008695,2168.859,3177.054,3089.268,592.191,-0.07620423,-0.004860802,0.1139693,-0.623940050601959,-0.381257653236389,0.4214026927948,-0.691670720740693,-0.297606588091785,0.42817712498415,9
1.3800048828125,-0.309887796640396,2.51078510284424,1.43713736534119,-0.450474904562636,2.77198961381608,1.4217225152016,1987.337,2946.512,2733.553,1405.463,-0.07477464,-0.004332963,0.1125879,-0.63755851984024,-0.382889717817307,0.435911238193512,-0.704361775018035,-0.303067194200314,0.436033492140578,9
1.40000915527344,-0.322852581739426,2.50311207771301,1.44575822353363,-0.464691155755482,2.76587275808388,1.43052305190393,2223.327,3232.934,3178.623,400.2711,-0.07940268,-0.004531102,0.1144181,-0.648241698741913,-0.383652299642563,0.431042492389679,-0.716940488958393,-0.308479463400265,0.443820315276901,9
1.41999816894531,-0.336096376180649,2.49539256095886,1.45475506782532,-0.47914673136562,2.75965292774086,1.43947174182117,1939.31,2885.191,2649.612,1624.722,-0.07656748,-0.003797668,0.1123951,-0.662190675735474,-0.385978609323502,0.449840545654297,-0.729391385793766,-0.313836736470737,0.451528013536465,9
1.44000244140625,-0.349533170461655,2.4876561164856,1.46355175971985,-0.493861275572861,2.75332167044526,1.4485807456364,2292.684,3310.094,3310.385,125.8526,-0.08271565,-0.004149205,0.1151399,-0.671842098236084,-0.386817902326584,0.439834713935852,-0.741727567798258,-0.319144650954242,0.459164697851088,9
1.46000671386719,-0.363263338804245,2.4798572063446,1.4728569984436,-0.508821304757097,2.74688478782212,1.45784171634646,1867.615,2796.618,2510.907,1954.833,-0.07770944,-0.003118029,0.1121279,-0.68650496006012,-0.389945030212402,0.465259283781052,-0.753933682518823,-0.324396601119133,0.466720864320996,9
1.47999572753906,-0.37717068195343,2.47203612327576,1.48191344738007,-0.524012471663969,2.74034845309416,1.46724577231745,2171.116,3603.806,3266.962,0,-0.08434711,-0.002785666,0.1166797,-0.695369303226471,-0.391059339046478,0.452824324369431,-0.765994882555672,-0.329586198544069,0.474187321698441,9
1.5,-0.391372978687286,2.46414542198181,1.49149966239929,-0.539455198877605,2.73370387899399,1.4768055561018,1900.137,2621.93,2421.318,2201.428,-0.0780695,-0.0009518138,0.1130637,-0.710115671157837,-0.394537210464478,0.479308724403381,-0.777924000354858,-0.334718964672088,0.481572013878822,9
1.52000427246094,-0.405744850635529,2.45623135566711,1.50081944465637,-0.555135099954955,2.72695725560613,1.48651216180595,2153.614,3685.66,3214.397,0,-0.08447174,0.0003216405,0.1175115,-0.718592464923859,-0.395699858665466,0.46599143743515,-0.789706299681991,-0.339788558913217,0.48886581843107,9
1.54000854492188,-0.420402765274048,2.44825148582458,1.51063585281372,-0.571049184024557,2.72010986981902,1.49636373793799,2009.669,2529.722,2441.216,2176.835,-0.07860586,0.00280657,0.1129093,-0.73289555311203,-0.398990333080292,0.49082350730896,-0.801336412291853,-0.344792671461508,0.496065412155667,9
1.55999755859375,-0.435224026441574,2.4402494430542,1.52020025253296,-0.587181951496087,2.71316839067337,1.50635068951315,2176.8,3684.062,3210.176,0,-0.08538307,0.004691892,0.1162452,-0.741063117980957,-0.400104641914368,0.478218138217926,-0.812800388649436,-0.349725300221754,0.503162159625937,9
1.58000183105469,-0.450312167406082,2.43218541145325,1.53019797801971,-0.60355483331529,2.70612359703193,1.51648628330776,2087.049,2517.469,2573.524,1987.171,-0.08130897,0.007397594,0.1111305,-0.754406332969666,-0.403198659420013,0.499885767698288,-0.824110582941666,-0.354591760855452,0.510163708672098,9
1.60000610351563,-0.465557992458344,2.42409491539001,1.53998100757599,-0.620152298932711,2.69898217125626,1.52676090517188,2214.123,3604.449,3270.734,0,-0.08862521,0.009364118,0.1133695,-0.762291252613068,-0.40452054142952,0.489150643348694,-0.835253140422976,-0.35938609205264,0.51706148254665,9
1.6199951171875,-0.481050431728363,2.41593790054321,1.55014610290527,-0.636958033083316,2.69175113334911,1.53716445517924,2117.03,2565.832,2742.586,1744.999,-0.08634927,0.01182515,0.1085975,-0.774623155593872,-0.40785413980484,0.50825560092926,-0.846214826007804,-0.364102599125749,0.523847288101157,9
1.63999938964844,-0.496695458889008,2.40774297714233,1.56013262271881,-0.653994195024907,2.68442094880091,1.54771065096602,2239.434,3497.766,3366.987,0,-0.09371237,0.01341287,0.1105271,-0.782252788543701,-0.40974497795105,0.499326556921005,-0.857007552155828,-0.368746407673381,0.530528499715628,9
1.66000366210938,-0.512575209140778,2.39946746826172,1.57049107551575,-0.671244443874359,2.67699864863716,1.55838937674714,2106.345,2624.543,2857.153,1588.741,-0.09182792,0.0153613,0.1066724,-0.793988466262817,-0.413776755332947,0.517922639846802,-0.867618167158098,-0.373311858882592,0.53709697585572,9
1.68000793457031,-0.528604388237,2.3911395072937,1.58070087432861,-0.688705090349012,2.66948582025311,1.56919834868089,2260.03,3438.973,3415.284,0,-0.09848157,0.01637105,0.109137,-0.801460564136505,-0.416404038667679,0.510488092899323,-0.878042061913515,-0.377796969585941,0.543549863268291,9
1.69999694824219,-0.544863820075989,2.38271546363831,1.59129178524017,-0.706358800111611,2.66188992212981,1.58012683598675,2085.175,2663.501,2878.619,1555.674,-0.09577207,0.01778447,0.1063129,-0.812971174716949,-0.421201258897781,0.529545962810516,-0.888267004546665,-0.382196476749158,0.549879589839776,9
1.72000122070313,-0.561269462108612,2.37422895431519,1.60173630714417,-0.724228658537036,2.6542010212754,1.5911891296115,2290.391,3405.197,3425.097,0,-0.101411,0.01821402,0.1094971,-0.820282757282257,-0.424320578575134,0.522225797176361,-0.898304216251578,-0.386515208538549,0.556093102023817,9
1.74000549316406,-0.577907681465149,2.36563611030579,1.61259496212006,-0.742297311768984,2.64642658456943,1.60237448669139,2066.168,2685.746,2812.191,1628.528,-0.09721869,0.01921771,0.1072002,-0.831912457942963,-0.429636567831039,0.542932450771332,-0.908141534469281,-0.390747931744771,0.562182870617028,9
1.75999450683594,-0.594687759876251,2.35697817802429,1.62329483032227,-0.760546715064628,2.63857437616062,1.61367173667103,2291.589,3457.108,3376.206,0,-0.1021658,0.01932883,0.111173,-0.839002907276154,-0.432892173528671,0.534994900226593,-0.917767514700581,-0.394889722119545,0.568141810929231,9
1.77999877929688,-0.611702144145966,2.34821271896362,1.63442087173462,-0.779000609654483,2.63063418086074,1.62509557650306,2051.888,2670.977,2731.927,1746.653,-0.09685811,0.02020938,0.1090022,-0.850715756416321,-0.438267230987549,0.556302905082703,-0.927192788821983,-0.398945154262308,0.57397650459845,9
1.80000305175781,-0.628853738307953,2.33938694000244,1.64536488056183,-0.797640935141499,2.62261376955408,1.63663482594136,2300.682,3490.232,3340.131,0,-0.1015357,0.02023661,0.1132213,-0.85758101940155,-0.441284954547882,0.547199249267578,-0.936405971974637,-0.402909329586356,0.579679903854719,9
1.82000732421875,-0.646241009235382,2.33045935630798,1.65674459934235,-0.816463410111527,2.61451498441355,1.64828683458664,2052.986,2656.239,2673.66,1829.629,-0.09571667,0.02114784,0.1107498,-0.869368076324463,-0.446381688117981,0.568983316421509,-0.94540321420156,-0.406780591562751,0.585249625391268,9
1.83999633789063,-0.663761138916016,2.32147908210754,1.66792404651642,-0.835449117627072,2.60634596486888,1.66003989195343,2277.286,3543.862,3317.127,0,-0.1004901,0.02129981,0.1150529,-0.87600702047348,-0.44901117682457,0.558970928192139,-0.954174163352093,-0.410554485950274,0.590679260733698,9
1.86000061035156,-0.681515455245972,2.31240606307983,1.67953109741211,-0.854622615239374,2.59809614449182,1.6719092003358,2059.317,2627.364,2665.639,1868.918,-0.09461732,0.02236099,0.1122634,-0.887714266777039,-0.453645646572113,0.580353677272797,-0.962728579444532,-0.414235212212131,0.595974851798267,9
1.8800048828125,-0.699399650096893,2.30328893661499,1.69093334674835,-0.873964974649439,2.58977366760063,1.68388304221498,2273.64,3555.907,3316.874,0,-0.09944244,0.0226668,0.1163236,-0.894208788871765,-0.455854773521423,0.570110023021698,-0.971056158224177,-0.417818336715394,0.601130019760457,9
1.90000915527344,-0.717514157295227,2.29408884048462,1.702751994133,-0.893471623792247,2.58138050142717,1.69595858726494,2079.194,2617.912,2685.615,1844.437,-0.0938189,0.02381231,0.1132748,-0.905726969242096,-0.459993362426758,0.590934574604034,-0.979153483542501,-0.421302389586788,0.606142649861596,9
1.91999816894531,-0.735755264759064,2.2848527431488,1.71436583995819,-0.913122862707269,2.57292512231409,1.70812364027167,2270.021,3549.351,3332.582,0,-0.09868343,0.02418407,0.1170581,-0.912056863307953,-0.461821705102921,0.58069509267807,-0.987011339258123,-0.424683405378145,0.611007036871143,9
1.94000244140625,-0.754221439361572,2.27554225921631,1.72638475894928,-0.932943991899774,2.5643966441608,1.72039386345315,2087.714,2616.188,2719.007,1806.25,-0.09322502,0.02532791,0.1138894,-0.923310518264771,-0.465524107217789,0.600948393344879,-0.994638524886308,-0.427965170275055,0.615728628108227,9
1.96000671386719,-0.772810876369476,2.26620149612427,1.73820602893829,-0.952915303453826,2.55580354673295,1.73275705667061,2275.219,3535.124,3343.601,0,-0.09794893,0.0256571,0.1174536,-0.929472327232361,-0.467037409543991,0.591061174869537,-1.00202586176059,-0.431143734953757,0.620301741541062,9
1.97999572753906,-0.791619122028351,2.25679397583008,1.75042378902435,-0.973016570682103,2.54715453300902,1.74520069864106,2096.391,2627.322,2737.479,1765.651,-0.09259332,0.02669908,0.1143015,-0.940413892269135,-0.470370829105377,0.610890448093414,-1.00916501115878,-0.434215511495054,0.624721215103391,9
2,-0.810545146465302,2.2473623752594,1.76243960857391,-0.993273599084619,2.53843849960327,1.7577407641983,2275.767,3515.347,3359.822,0,-0.09717608,0.02689207,0.1177779,-0.946300208568573,-0.471574395895004,0.600789368152618,-1.01606400046349,-0.437183953857422,0.628992018127441,9
2.02000427246094,-0.829685091972351,2.23787021636963,1.77485656738281,-1.01366615605493,2.52966415204104,1.77036472839513,2090.524,2635.389,2731.517,1765.383,-0.09156746,0.0278085,0.1146081,-0.957001745700836,-0.474602878093719,0.620845913887024,-1.02271452148052,-0.440045487257004,0.633109007445237,9
2.04000854492188,-0.848936557769775,2.22835993766785,1.78706812858582,-1.03418924440916,2.52083364047092,1.78306949773667,2264.916,3533.124,3346.106,0,-0.09597979,0.02790058,0.1182091,-0.962570250034332,-0.475516229867935,0.610579311847687,-1.02911391720548,-0.442798968459032,0.637070538244476,9
2.05999755859375,-0.868395507335663,2.21879625320435,1.79967379570007,-1.05482201812353,2.5119559343546,1.79584216754118,2083.61,2629.77,2717.256,1784.212,-0.09014108,0.02874414,0.1150631,-0.972944021224976,-0.47818922996521,0.630285620689392,-1.03525504859546,-0.445441325732794,0.640872191117535,9
2.08000183105469,-0.887958347797394,2.20922183990479,1.81206035614014,-1.07559088172821,2.50301967256038,1.80869908347065,2267.851,3521.698,3345.983,0,-0.09439308,0.02873234,0.1186116,-0.978142857551575,-0.478725463151932,0.619326591491699,-1.04114485287423,-0.447975543971863,0.644518260536375,9
2.10000610351563,-0.907723426818848,2.19960165023804,1.82484698295593,-1.09647498538954,2.49403382618922,1.82162733848484,2077.383,2629.974,2689.837,1810.237,-0.08822466,0.02950714,0.1152989,-0.988256633281708,-0.481008470058441,0.639333963394165,-1.04677621342161,-0.450398561093403,0.648004340974112,9
2.1199951171875,-0.92758446931839,2.18997812271118,1.83740532398224,-1.11745308225396,2.48500753716864,1.83461377976925,2249.089,3554.578,3321.031,0,-0.09243619,0.02947457,0.1189368,-0.993052303791046,-0.481165558099747,0.627918601036072,-1.0521429102862,-0.45270770082608,0.651326581984514,9
2.13999938964844,-0.947639346122742,2.18031859397888,1.85035085678101,-1.138551967509,2.47592927627801,1.8476749948214,2069.571,2614.278,2675.877,1836.265,-0.08616018,0.03025243,0.1155263,-1.00274682044983,-0.482983410358429,0.647275567054749,-1.05725102347782,-0.454905579228273,0.654488747383304,9
2.16000366210938,-0.967782199382782,2.17066431045532,1.86305618286133,-1.15975039167652,2.46680818657414,1.86079782920208,2257.122,3540.119,3316.391,0,-0.09034454,0.0301729,0.1189477,-1.00713634490967,-0.482707321643829,0.635266423225403,-1.0620943502576,-0.456989527434725,0.657486997379635,8
2.18000793457031,-0.988110840320587,2.16098308563232,1.87614607810974,-1.18104303873349,2.45764655539322,1.87397899203979,2066.518,2616.78,2661.423,1840.277,-0.08405788,0.0309007,0.1153249,-1.01642870903015,-0.484063476324081,0.654492199420929,-1.06667099276523,-0.458958728849171,0.660320157107579,8
2.19999694824219,-1.00851774215698,2.15131545066833,1.88898468017578,-1.20240821395574,2.44845371736898,1.88720505326679,2236.66,3555.505,3308.25,0,-0.08832107,0.03079962,0.1187098,-1.02035331726074,-0.483394116163254,0.641932487487793,-1.07097597819164,-0.460811043810786,0.662985148161421,7
2.22000122070313,-1.02910113334656,2.14162921905518,1.90219914913177,-1.22387315175433,2.43921795429519,1.90049287228091,2055.993,2605.934,2654.968,1854.499,-0.08198968,0.03151375,0.1149687,-1.02917277812958,-0.484318554401398,0.660723567008972,-1.07501419914593,-0.462548577472581,0.665484999299265,7
2.24000549316406,-1.04975402355194,2.13196349143982,1.915154337883,-1.24541615591711,2.42994860144581,1.91382901809327,2232.903,3551.76,3301.639,0,-0.08622357,0.03137849,0.1182304,-1.0326452255249,-0.483278691768646,0.647761940956116,-1.07878069424208,-0.464169195088763,0.667816639186824,5
2.25999450683594,-1.07057356834412,2.12228751182556,1.92847990989685,-1.26701526177039,2.4206551096063,1.92719989352455,2052.812,2604.196,2642.801,1856.848,-0.07988152,0.03204539,0.1143604,-1.04097497463226,-0.483797818422318,0.66628098487854,-1.08227143928024,-0.465671165158559,0.669977576652695,5
2.27999877929688,-1.09145224094391,2.11263942718506,1.94153273105621,-1.28869796983554,2.41132564607061,1.9406225227075,2218.149,3551.822,3300.09,0,-0.08412606,0.03186652,0.1175627,-1.04393076896667,-0.482403248548508,0.652641713619232,-1.08549040888332,-0.467056197851165,0.67197027217779,2
2.30000305175781,-1.11248791217804,2.10298824310303,1.95495665073395,-1.31044231452835,2.40196966201596,1.95408330789913,2044.192,2597.252,2622.537,1877.219,-0.07761836,0.03250001,0.1135296,-1.05178940296173,-0.482557654380798,0.671195268630981,-1.08843358680109,-0.468322565086307,0.673792239511894,1
2.32000732421875,-1.1335723400116,2.09337139129639,1.96809875965118,-1.33224276726637,2.39258953623693,1.96757882664355,2202.033,3570.384,3279.933,0,-0.08187409,0.03231352,0.1167394,-1.05422389507294,-0.48084557056427,0.657103538513184,-1.09109983431736,-0.469469776906228,0.675442773735451,0
2.33999633789063,-1.15480244159698,2.08375883102417,1.98160004615784,-1.35407709248145,2.38319483607731,1.98109531406483,2036.376,2583.971,2609.206,1893.53,-0.07533816,0.03293871,0.1125964,-1.06150412559509,-0.480623841285706,0.675062596797943,-1.09348640563071,-0.470496651869278,0.67692017506657,0
2.36000061035156,-1.17607045173645,2.07418727874756,1.99480557441711,-1.37597305876702,2.37377361348711,1.99464996024512,2199.835,3556.534,3277.928,0,-0.07959229,0.03271187,0.1156321,-1.06339430809021,-0.478576153516769,0.660276591777802,-1.09559602313537,-0.471404361345641,0.678226128796969,0
2.3800048828125,-1.19747304916382,2.06462717056274,2.00836968421936,-1.39790843013262,2.36433543599182,2.00822900004707,2029.367,2581.832,2591.46,1903.162,-0.07297488,0.03328978,0.1112884,-1.07013297080994,-0.478003263473511,0.678207635879517,-1.09742594550583,-0.472191725819537,0.679358937915576,0
2.40000915527344,-1.21890234947205,2.05511379241943,2.02163076400757,-1.41987760424917,2.35488271411715,2.02182896536211,2181.994,3575.897,3257.033,0,-0.07730091,0.03304443,0.1143071,-1.07146620750427,-0.475673288106918,0.663049876689911,-1.09897546783438,-0.472858441988871,0.680318166050934,0
2.41999816894531,-1.24045324325562,2.04561853408813,2.03523588180542,-1.44185817738692,2.34542508756209,2.03543598721428,2018.929,2570.833,2582.976,1912.922,-0.07075646,0.0335976,0.1098914,-1.07754945755005,-0.474768370389938,0.680256426334381,-1.10024313330221,-0.473403883025206,0.681102911362803,0
2.44000244140625,-1.26201939582825,2.03617548942566,2.04852437973022,-1.46387808506052,2.33595053645515,2.04906735901791,2181.661,3554.395,3259.424,0,-0.07511286,0.03328542,0.1127261,-1.07830965518951,-0.472156226634979,0.664425075054169,-1.10123038958312,-0.473828671822132,0.681714070030222,0
2.46000671386719,-1.28369557857513,2.02675604820251,2.06215739250183,-1.48591492338117,2.32646870056377,2.06270921169857,2007.871,2571.77,2568.018,1919.522,-0.0684965,0.03376572,0.108154,-1.08381152153015,-0.470968544483185,0.681655704975128,-1.10193578218388,-0.474132182551855,0.682150741652607,0
2.47999572753906,-1.30537581443787,2.01739311218262,2.07546758651733,-1.50794623031618,2.31698924467309,2.07634764018804,2162.239,3573.521,3239.156,0,-0.0729035,0.03341376,0.1110239,-1.08399927616119,-0.468137383460999,0.665513932704926,-1.10235882472314,-0.474314205938057,0.682412625136718,0
2.5,-1.32715213298798,2.00805974006653,2.08910751342773,-1.52999999932945,2.30750012397766,2.08999997377396,1992.531,2560.358,2561.537,1931.367,-0.066293,0.03385549,0.1064444,-1.08881938457489,-0.466681808233261,0.681998550891876,-1.10250000050292,-0.474374949932098,0.682500019669533,0
2.52000427246094,-1.34892106056213,1.9987872838974,2.10241508483887,-1.55205376834272,2.29801100328223,2.10365230735988,2171.911,3547.159,3235.756,0,-0.07067763,0.03340196,0.1091203,-1.08845090866089,-0.463621556758881,0.665383398532867,-1.10235882472314,-0.474314205938057,0.682412625136718,0
2.54000854492188,-1.370774269104,1.98954856395721,2.11605143547058,-1.57410188948011,2.28852431271001,2.11730114464159,1980.667,2567.651,2544.637,1933.207,-0.0640421,0.03373638,0.104438,-1.09265553951263,-0.461928397417068,0.681812822818756,-1.10193535162022,-0.474131997292339,0.682150475113189,0
2.55999755859375,-1.39260804653168,1.98037505149841,2.12934446334839,-1.59612191359838,2.27904971150017,2.13093258853001,2152.354,3556.707,3224.28,0,-0.06848852,0.03320193,0.1071549,-1.09169042110443,-0.458677709102631,0.664654016494751,-1.10123038958312,-0.473828671822132,0.681714070030222,0
2.58000183105469,-1.41451358795166,1.97123968601227,2.14296126365662,-1.61814182127198,2.26957516039323,2.14456396033363,1960.027,2559.396,2527.244,1958.754,-0.06171556,0.03348093,0.1024399,-1.09526860713959,-0.456776410341263,0.680840492248535,-1.10024313330221,-0.473403883025206,0.681102911362804,0
2.60000610351563,-1.43638813495636,1.96217274665833,2.15622520446777,-1.64013916343638,2.26011031859448,2.15818136301212,2147.5,3553.866,3210.634,0,-0.06612842,0.03287937,0.1051308,-1.09373593330383,-0.453336983919144,0.663194000720978,-1.09897439291323,-0.472857979480329,0.680317500623536,0
2.6199951171875,-1.45832216739655,1.95314848423004,2.16981101036072,-1.66209156852628,2.2506648119635,2.17177094750084,1948.516,2556.354,2501.869,1978.198,-0.05925107,0.03309836,0.1003307,-1.09670531749725,-0.451221406459808,0.679292619228363,-1.09742594550583,-0.472191725819537,0.679358937915576,0
2.63999938964844,-1.48021388053894,1.94419682025909,2.18302845954895,-1.68402693989188,2.24122663446822,2.18534998730279,2131.364,3557.015,3201.49,0,-0.06369695,0.0324522,0.1030304,-1.09457302093506,-0.447585344314575,0.660867631435394,-1.09559602313537,-0.471404361345641,0.67822612879697,0
2.66000366210938,-1.50215303897858,1.93529176712036,2.19657063484192,-1.70592290617745,2.23180541187802,2.19890463348308,1934.153,2546.409,2471.971,2012.411,-0.05661454,0.03264716,0.09807899,-1.09696328639984,-0.445259153842926,0.677113831043243,-1.09348640563071,-0.470496651869278,0.67692017506657,0
2.68000793457031,-1.52403807640076,1.92646288871765,2.20973443984985,-1.72777388024004,2.22240354818443,2.21243142733407,2114.151,3577.17,3176.309,0,-0.06111369,0.03201174,0.1008138,-1.0942530632019,-0.44143733382225,0.658185958862305,-1.09109790637238,-0.469468947365361,0.675441580245664,0
2.69999694824219,-1.5459578037262,1.91768538951874,2.22321248054504,-1.74955768413056,2.21303058593937,2.22591663964878,1922.559,2530.911,2454.187,2035.554,-0.0540169,0.03221742,0.09575593,-1.09598135948181,-0.438877105712891,0.673905372619629,-1.08843358680109,-0.468322565086308,0.673792239511893,0
2.72000122070313,-1.56781160831451,1.90898835659027,2.23629879951477,-1.77130202882336,2.20367460188472,2.23937742484041,2111.632,3562.935,3171.543,0,-0.05856131,0.03156556,0.09832066,-1.09269738197327,-0.434854179620743,0.654319822788239,-1.08549040888332,-0.467056197851165,0.671970272177789,0
2.74000549316406,-1.58968734741211,1.90034699440002,2.24969911575317,-1.79298473688851,2.19434513834902,2.25280005402337,1912.999,2528.006,2437.303,2044.624,-0.05143842,0.03173634,0.09308361,-1.09379279613495,-0.432076454162598,0.670018672943115,-1.08227143928024,-0.465671165158559,0.669977576652695,0
2.75999450683594,-1.61148643493652,1.89178895950317,2.26270222663879,-1.81458384274179,2.18505164650952,2.26617092945464,2095.194,3577.612,3151.281,0,-0.05609043,0.03107569,0.09562483,-1.08994090557098,-0.427898108959198,0.650156080722809,-1.07878069424208,-0.464169195088763,0.667816639186824,0
2.77999877929688,-1.63329255580902,1.8832905292511,2.27600431442261,-1.83612684690458,2.17578229366013,2.27950707526701,1896.788,2518.194,2434.319,2050.869,-0.04906608,0.03122434,0.09036935,-1.09031844139099,-0.424930185079575,0.66511058807373,-1.07501419914593,-0.462548577472581,0.665484999299265,0
2.80000305175781,-1.65501117706299,1.87487828731537,2.28890228271484,-1.85759178470316,2.16654653058634,2.29279489428112,2103.822,3549.702,3149.264,0,-0.05374845,0.03048114,0.09270314,-1.08592355251312,-0.420610666275024,0.644904434680939,-1.07097597819164,-0.460811043810786,0.662985148161422,0
2.82000732421875,-1.67672371864319,1.86652827262878,2.30209755897522,-1.87897323600723,2.1573466894188,2.30603103117811,1882.931,2527.031,2423.853,2045.263,-0.04678162,0.03052552,0.08739445,-1.08563959598541,-0.417498230934143,0.659763514995575,-1.06666760390385,-0.458957270716794,0.660318059240952,0
2.83999633789063,-1.69833755493164,1.85826647281647,2.31488060951233,-1.90024960698239,2.14819206138118,2.31920211834584,2087.617,3551.243,3141.465,0,-0.0515343,0.02969275,0.08976388,-1.08068180084229,-0.4130839407444,0.63915753364563,-1.06209435025759,-0.456989527434725,0.657486997379635,0
2.86000061035156,-1.71993255615234,1.8500691652298,2.32795786857605,-1.9214480311499,2.13907097167731,2.33232495272651,1859.28,2523.107,2409.817,2065.054,-0.04444976,0.02966355,0.08449151,-1.07975828647614,-0.409869015216827,0.653859257698059,-1.05725102347782,-0.454905579228273,0.654488747383304,0
2.8800048828125,-1.74141812324524,1.84196186065674,2.34061551094055,-1.94254691640495,2.12999271078668,2.34538616777867,2084.187,3544.346,3129.379,0,-0.04915024,0.02874431,0.08687777,-1.07427608966827,-0.405362248420715,0.632878541946411,-1.0521429102862,-0.45270770082608,0.651326581984514,0
2.89999389648438,-1.7628732919693,1.83392119407654,2.3535680770874,-1.96352501326936,2.1209664217661,2.35837260906308,1844.035,2522.589,2383.329,2085.894,-0.04191762,0.02863694,0.08159204,-1.07275581359863,-0.402031183242798,0.647627711296082,-1.04677621342161,-0.450398561093403,0.648004340974112,0
2.91999816894531,-1.78420805931091,1.82597315311432,2.36608672142029,-1.98440911693069,2.11198057539494,2.37130086407726,2070.715,3544.867,3119.118,0,-0.04661757,0.02765446,0.0840342,-1.0667370557785,-0.397410839796066,0.62593138217926,-1.04114485287423,-0.447975543971863,0.644518260536375,0
2.94000244140625,-1.80550122261047,1.81809413433075,2.37890625,-2.00517798053537,2.10304431360073,2.38415778000673,1826.826,2514.346,2349.262,2124.729,-0.0391245,0.0275085,0.07864722,-1.06466376781464,-0.393943816423416,0.640971302986145,-1.03525504859546,-0.445441325732794,0.640872191117535,0
2.96000671386719,-1.82666385173798,1.81031036376953,2.39128160476685,-2.02582645724542,2.09415985092405,2.3969401707136,2055.078,3564.095,3092.298,0,-0.04386067,0.02652692,0.08116454,-1.05813407897949,-0.389193773269653,0.618772745132446,-1.02910913225408,-0.442796909628122,0.637067576131623,0
2.97999572753906,-1.84777319431305,1.80259907245636,2.40395069122314,-2.04633384260397,2.08533609591429,2.40963521915279,1812.414,2499.669,2325.606,2155.334,-0.03629889,0.02639212,0.07569315,-1.05545592308044,-0.385550081729889,0.633454978466034,-1.02271452148052,-0.440045487257004,0.633109007445237,0
3,-1.86874151229858,1.79498648643494,2.41616249084473,-2.06672639957428,2.07656174835205,2.42225918334961,2052.406,3552.406,3084.312,0,-0.04108405,0.02540477,0.07807714,-1.04842817783356,-0.380647242069244,0.610595166683197,-1.01606400046349,-0.437183953857422,0.628992018127441,0
3.02000427246094,-1.88964486122131,1.78744971752167,2.42866921424866,-2.0869834279768,2.06784571494631,2.43479924890685,1801.12,2495.942,2305.245,2170.109,-0.03348392,0.02524871,0.07244039,-1.04516136646271,-0.376825302839279,0.625331997871399,-1.00916501115878,-0.434215511495054,0.624721215103391,0
3.04000854492188,-1.91039764881134,1.78001403808594,2.44071292877197,-2.10709998486405,2.05919012250926,2.44725235590455,2037.029,3565.957,3063.676,0,-0.03839213,0.02426843,0.07480615,-1.037642121315,-0.371797740459442,0.602186918258667,-1.00202031904361,-0.431141350077486,0.620298310335216,0
3.05999755859375,-1.93107223510742,1.77265739440918,2.45304036140442,-2.12705600675913,2.05060360379452,2.45960608409476,1785.772,2487.627,2296.566,2179.819,-0.03090439,0.02410561,0.06914427,-1.03373181819916,-0.36782494187355,0.616376101970673,-0.994638524886308,-0.427965170275055,0.615728628108227,0
3.08000183105469,-1.95158696174622,1.76540350914001,2.46489500999451,-2.14687713595163,2.04207512564123,2.47187630727625,2037.472,3542.354,3064.862,0,-0.03588024,0.02308198,0.07136013,-1.02573561668396,-0.362694650888443,0.592736124992371,-0.987011339258122,-0.424683405378145,0.611007036871143,0
3.10000610351563,-1.9720116853714,1.75823128223419,2.47703576087952,-2.16654331551667,2.03361331798384,2.48405060925705,1769.991,2490.888,2283.749,2184.436,-0.02836799,0.02285428,0.06563193,-1.02123391628265,-0.358611792325974,0.607035517692566,-0.979147395688901,-0.421299770153459,0.606138881190213,0
3.1199951171875,-1.99226701259613,1.75116300582886,2.48870015144348,-2.18603502400946,2.02522658035469,2.49611690533293,2023.207,3551.247,3047.711,0,-0.0334035,0.02178873,0.06790064,-1.01277482509613,-0.353414535522461,0.583220839500427,-0.971056158224178,-0.417818336715394,0.601130019760458,0
3.13999938964844,-2.01242089271545,1.74417805671692,2.50064206123352,-2.20537738341953,2.01690410346351,2.50809074721212,1749.027,2485.501,2273.524,2198.25,-0.02587634,0.02151976,0.06224145,-1.00766599178314,-0.349240779876709,0.597100019454956,-0.962728579444533,-0.414235212212131,0.595974851798267,0
3.16000366210938,-2.03239607810974,1.73729860782623,2.51210021972656,-2.22455088103183,2.00865428308644,2.51996005559448,2031.107,3526.13,3042.772,0,-0.03089533,0.02036617,0.06440853,-0.998777449131012,-0.343972861766815,0.572904646396637,-0.954174163352092,-0.410554485950274,0.590679260733698,0
3.18000793457031,-2.05225825309753,1.73050475120544,2.52383947372437,-2.24355101420387,2.00047905658478,2.53172204312984,1731.922,2492.576,2251.921,2208.971,-0.02328934,0.02000455,0.05872535,-0.993118166923523,-0.339708983898163,0.58696037530899,-0.945396434568188,-0.406777674475913,0.585245428475253,0
3.19999694824219,-2.07193422317505,1.72381699085236,2.53508567810059,-2.2623590635174,1.99238647840124,2.54336512160655,2016.434,3531.849,3028.678,0,-0.02836053,0.01878501,0.0609739,-0.983796536922455,-0.334375470876694,0.562314927577972,-0.936405971974636,-0.402909329586355,0.579679903854719,0
3.22000122070313,-2.09148621559143,1.71721649169922,2.54661273956299,-2.28099938900442,1.98436606709459,2.55490437104486,1708.654,2486.537,2228.872,2239.724,-0.02060168,0.01837905,0.05530635,-0.977605283260345,-0.33002108335495,0.576355040073395,-0.927192788821982,-0.398945154262308,0.573976504598449,0
3.24000549316406,-2.11084389686584,1.71072435379028,2.55763792991638,-2.29945328359428,1.9764258717947,2.56632821087688,2013.453,3527.212,3013.654,0,-0.02566968,0.01711437,0.05756181,-0.967887938022614,-0.324605405330658,0.551261901855469,-0.91776751470058,-0.394889722119544,0.568141810929231,0
3.25999450683594,-2.1300675868988,1.70432186126709,2.56894564628601,-2.31770268688992,1.96857366338589,2.57762546085652,1693.884,2483.879,2201.33,2263.658,-0.01781282,0.01666775,0.05184584,-0.961187958717346,-0.320133239030838,0.565387070178986,-0.90814153446928,-0.390747931744771,0.562182870617026,0
3.27999877929688,-2.14908933639526,1.69802951812744,2.57973885536194,-2.33577134012187,1.96079922667992,2.58881081793642,2001.43,3527.622,3002.409,0,-0.0229458,0.0153832,0.05411717,-0.95107901096344,-0.314624071121216,0.539655148983002,-0.898304216251578,-0.386515208538549,0.556093102023818,0
3.30000305175781,-2.16796684265137,1.69182884693146,2.59081816673279,-2.35364119854729,1.95311032582551,2.59987311156116,1677.988,2476.336,2174.118,2293.818,-0.0149627,0.01492164,0.04830961,-0.943887948989868,-0.310028076171875,0.553964674472809,-0.888267004546666,-0.382196476749158,0.549879589839776,0
3.32000732421875,-2.18663501739502,1.68574035167694,2.60137486457825,-2.37130830610839,1.94550866300381,2.61080989274252,1989.831,3537.317,2981.858,0,-0.0201825,0.01365288,0.05060006,-0.933409988880157,-0.30442413687706,0.527831017971039,-0.878034183119985,-0.377793579561194,0.543544985919778,0
3.33999633789063,-2.20514917373657,1.67974650859833,2.61221218109131,-2.38875555478454,1.93800159931817,2.62161057080077,1662.897,2467.022,2156.849,2314.042,-0.01221699,0.01320321,0.04474473,-0.925707578659058,-0.299700349569321,0.541860938072205,-0.867618167158097,-0.373311858882592,0.53709697585572,0
3.36000061035156,-2.2234468460083,1.67386615276337,2.62251687049866,-2.406005803634,1.93057929915441,2.6322892965819,1987.924,3522.863,2976.574,0,-0.01751188,0.01193243,0.04692286,-0.91487842798233,-0.294011414051056,0.515231311321259,-0.857007552155826,-0.36874640767338,0.530528499715627,0
3.3800048828125,-2.24158072471619,1.66808247566223,2.63310384750366,-2.42304196557559,1.92324911460621,2.64283549236868,1649.456,2466.833,2140.848,2323.613,-0.009549563,0.01145832,0.04098519,-0.906677067279816,-0.289179533720016,0.529348134994507,-0.846214826007803,-0.364102599125748,0.523847288101157,0
3.39999389648438,-2.25949048995972,1.6624139547348,2.64315366744995,-2.43984769972619,1.91601807669906,2.65323904237604,1977.323,3527.496,2960.925,0,-0.01495152,0.01018323,0.04316168,-0.895503401756287,-0.28342992067337,0.502496659755707,-0.835253140422974,-0.35938609205264,0.51706148254665,0
3.41999816894531,-2.27722644805908,1.65684366226196,2.65347933769226,-2.45644516534361,1.90887665092339,2.66351366424015,1630.431,2463.094,2131.204,2334.63,-0.007048322,0.009696381,0.0372557,-0.88679438829422,-0.278518944978714,0.516283333301544,-0.824110582941664,-0.354591760855451,0.510163708672097,0
3.44000244140625,-2.29473280906677,1.6513888835907,2.66326189041138,-2.47281804716281,1.90183185728196,2.67364925803476,1981.959,3506.452,2956.301,0,-0.0125062,0.008377568,0.03933201,-0.875304877758026,-0.272729843854904,0.489122629165649,-0.812800388649434,-0.349725300221754,0.503162159625937,0
3.46000671386719,-2.31205487251282,1.64603352546692,2.67332196235657,-2.4889630419904,1.89488511704659,2.68364377892579,1613.838,2469.396,2115.919,2340.294,-0.00462165,0.007830271,0.03342789,-0.866118848323822,-0.267762899398804,0.50300520658493,-0.801327600455845,-0.344788879974649,0.496059957209413,0
3.47999572753906,-2.32914161682129,1.64079463481903,2.68283200263977,-2.50486489870395,1.88804299234919,2.69348778574196,1971.897,3504.253,2947.152,0,-0.01016209,0.006466779,0.03554964,-0.854321539402008,-0.261954188346863,0.475502014160156,-0.789706299681989,-0.339788558913217,0.488865818431069,0
3.5,-2.34603548049927,1.63565576076508,2.69262051582336,-2.5205447997813,1.88129636896134,2.70319439144611,1592.127,2467.529,2098.246,2361.48,-0.002200304,0.005879821,0.02969461,-0.84468948841095,-0.256950199604034,0.489427596330643,-0.777924000354857,-0.334718964672089,0.481572013878822,0
3.52000427246094,-2.36268758773804,1.63063311576843,2.70185232162476,-2.53598752699493,1.87465179486116,2.71275417523047,1969.93,3496.603,2935.72,0,-0.007759386,0.004477793,0.03183832,-0.832621574401855,-0.251119911670685,0.461589455604553,-0.765994882555673,-0.32958619854407,0.474187321698442,0
3.54000854492188,-2.37913918495178,1.62571215629578,2.71136546134949,-2.55119019794619,1.86811051026429,2.72216535275294,1576.971,2467.387,2074.75,2380.792,0.0002691067,0.003850172,0.02599378,-0.822575151920319,-0.246064260601997,0.475654095411301,-0.753924423002452,-0.324392617007921,0.466715132239272,0
3.55999755859375,-2.39534449577332,1.62090754508972,2.72031235694885,-2.56613872308604,1.86167857751006,2.73141920191151,1963.812,3492.766,2924.666,0,-0.005361476,0.002424333,0.02816264,-0.810257315635681,-0.24020554125309,0.447339296340942,-0.741727567798258,-0.319144650954242,0.459164697851087,0
3.58000183105469,-2.41134071350098,1.61620593070984,2.72954273223877,-2.58085326729328,1.85534732021446,2.74052820572674,1558.061,2463.589,2053.484,2405.836,0.002754621,0.001778318,0.02230213,-0.799818754196167,-0.235094651579857,0.461515337228775,-0.729391385793765,-0.313836736470737,0.451528013536464,0
3.60000610351563,-2.427086353302,1.61162185668945,2.73820042610168,-2.59531978247425,1.84912278287974,2.74948366775945,1959.428,3491.79,2909.813,0,-0.002934271,0.0003504157,0.0244757,-0.787275195121765,-0.229202434420586,0.432884752750397,-0.716930938559024,-0.308475354130224,0.443814403124743,0
3.6199951171875,-2.4426155090332,1.60714101791382,2.74714183807373,-2.60952509409627,1.84301063413925,2.75827743234631,1545.467,2461.548,2033.047,2422.053,0.005162251,-0.0003057309,0.01860228,-0.776454031467438,-0.224029928445816,0.447067320346832,-0.704361775018033,-0.303067194200314,0.436033492140578,0
3.63999938964844,-2.45788931846619,1.60277891159058,2.75550103187561,-2.6234885835008,1.83700253474321,2.76692149746096,1953.555,3483.826,2903.121,0.6795927,-0.0006359629,-0.001730522,0.02075162,-0.763701260089874,-0.218116357922554,0.417963236570358,-0.691670720740692,-0.297606588091786,0.428177124984152,0
3.66000366210938,-2.47293949127197,1.59852087497711,2.76414728164673,-2.63719712493647,1.83110413233575,2.77540773763803,1530.811,2459.806,2015.125,2438.672,0.007464415,-0.00239578,0.01484718,-0.752514064311981,-0.212903812527657,0.432314068078995,-0.678873453515702,-0.29210028151913,0.420255006953505,0
3.68000793457031,-2.48773121833801,1.59438121318817,2.77221298217773,-2.65064865588166,1.82531631436231,2.78373487607838,1932.57,3495.83,2876.484,17.51845,0.001660832,-0.003756655,0.01705341,-0.739573180675507,-0.206981793045998,0.403281509876251,-0.665976209205203,-0.286550957599616,0.412270998344358,0
3.69999694824219,-2.50229167938232,1.59034657478333,2.7805540561676,-2.66383127580226,1.81964420129024,2.79189554578451,1523.452,2454.381,2007.744,2439.348,0.009609566,-0.004381433,0.01122625,-0.72802859544754,-0.201731696724892,0.417048156261444,-0.65299527533123,-0.280965624398954,0.404235181908735,0
3.72000122070313,-2.51659059524536,1.58643019199371,2.7883243560791,-2.6767633032417,1.81407991116207,2.79990108680742,1910.744,3484.921,2844.107,65.88683,0.004026714,-0.005622998,0.01331543,-0.7149418592453,-0.195812836289406,0.388516038656235,-0.639917282339434,-0.275338529371411,0.396139281255611,0
3.74000549316406,-2.53065133094788,1.5826199054718,2.79635000228882,-2.6894328975087,1.80862853869646,2.80774416919516,1531.299,2460.031,2012.294,2401.566,0.01165414,-0.006197176,0.007573567,-0.703042447566986,-0.190513357520103,0.401283293962479,-0.626758665639204,-0.269676744214497,0.387993470686332,0
3.75999450683594,-2.54444766044617,1.57892775535583,2.80382513999939,-2.70182915057228,1.80329477731443,2.81541804035694,1891.542,3465.083,2803.952,130.1829,0.006335065,-0.007316236,0.009409797,-0.689818322658539,-0.184604585170746,0.3737553358078,-0.613536214864365,-0.263987493038594,0.379808143784027,0
3.77999877929688,-2.55799865722656,1.57534229755402,2.81152415275574,-2.7139695770734,1.79807109095524,2.82293354268985,1538.402,2478.443,2032.795,2334.857,0.0134023,-0.007844075,0.003841494,-0.677551448345184,-0.17927722632885,0.384950339794159,-0.60023651686137,-0.258265004538452,0.371574997167698,0
3.80000305175781,-2.57128238677979,1.57187390327454,2.81870269775391,-2.72584333814708,1.79296214327972,2.83028396642013,1867.894,3432.004,2760.357,217.5246,0.008452171,-0.00884276,0.005346462,-0.664189994335175,-0.173418298363686,0.358926594257355,-0.586876524285838,-0.252516572968186,0.363304525338741,0
3.82000732421875,-2.58431363105774,1.56851172447205,2.82606720924377,-2.73744929742843,1.78796842323393,2.8374686080838,1550.873,2510.34,2063.139,2239.013,0.01477825,-0.0093445,7.005152E-05,-0.651558876037598,-0.168108150362968,0.368230819702148,-0.573463232144022,-0.246745208083563,0.355001058539243,0
3.83999633789063,-2.59707498550415,1.56526494026184,2.83294701576233,-2.74877791451009,1.78309403578861,2.84448156171422,1838.264,3388.97,2715.939,323.0033,0.0102773,-0.01023559,0.0012471,-0.638064622879028,-0.162352696061134,0.343994498252869,-0.560014026276881,-0.240958390526246,0.346675359432959,0
3.86000061035156,-2.6095769405365,1.5621223449707,2.8399715423584,-2.75984563331209,1.77833190558438,2.85133300688122,1560.917,2548.842,2100.826,2131.758,0.01585286,-0.01071922,-0.003626693,-0.625103354454041,-0.157115623354912,0.351220577955246,-0.546515580872635,-0.235150386571708,0.338319178707605,0
3.8800048828125,-2.62180685997009,1.55909252166748,2.84655284881592,-2.77064299647982,1.77368610185671,2.85801708903178,1811.276,3338.738,2667.752,438.2401,0.01192665,-0.01152137,-0.002769155,-0.61149400472641,-0.151501789689064,0.329064458608627,-0.532985466132484,-0.229328756186666,0.329943393154704,0
3.89999389648438,-2.6337718963623,1.55616521835327,2.85323619842529,-2.78116151864576,1.76916027562219,2.86452855531919,1574.886,2593.698,2136.645,2016.424,0.01674969,-0.01200287,-0.007177219,-0.598254978656769,-0.146362364292145,0.334172517061234,-0.519441457145543,-0.223501147495394,0.321559006401168,0
3.91999816894531,-2.64546298980713,1.55334687232971,2.85951805114746,-2.79141684911929,1.7647476934202,2.87087709341145,1782.529,3284.523,2618.778,560.7219,0.01345276,-0.01272778,-0.006624347,-0.584556519985199,-0.140909194946289,0.314087003469467,-0.505870408491346,-0.2176619043907,0.313157880805522,0
3.94000244140625,-2.65688467025757,1.55062925815582,2.86586117744446,-2.8014005971492,1.76045196555656,2.87705750903383,1589.078,2639.403,2169.086,1904.316,0.01758438,-0.01320449,-0.01056742,-0.57110071182251,-0.135876253247261,0.317155748605728,-0.492290296490434,-0.211818761581115,0.30475114456651,0
