t,x_s1,x_s2,x_s3,x_s_d1,x_s_d2,x_s_d3,propellers_rpms1,propellers_rpms2,propellers_rpms3,propellers_rpms4,rollRad,pitchRad,yawRad,v_s1,v_s2,v_s3,v_s_d1,v_s_d2,v_s_d3,insideCount
0,-0.0599999986588955,2.94000005722046,1.17999994754791,-0.0599999986588955,2.94000005722046,1.17999994754791,0,0,0,0,0,0,0,0,0,0,-1.06581410364015E-15,4.44089209850063E-16,4.44089209850063E-16,0
0.0200042724609375,-0.0599999986588955,2.94000005722046,1.1771354675293,-0.0600018701838461,2.93999925195556,1.18000110611101,0,0,0,0,0.0163538,-0.002474609,-2.024222E-05,3.71994488546079E-08,3.50004931704007E-08,-0.143225952982903,-0.000280105751305916,-0.000120521679537258,0.00017339880334547,5
0.040008544921875,-0.0599999986588955,2.94000005722046,1.17048275470734,-0.060014880898484,2.93999365380853,1.18000916036316,0,0,0,0,0.03270752,-0.004950816,-5.430172E-05,3.62924410524101E-08,3.44428769949445E-08,-0.332637369632721,-0.00111143977225461,-0.000478221483967637,0.00068803416424398,6
0.0600128173828125,-0.0600004345178604,2.94013261795044,1.16416549682617,-0.0600499235789167,2.93997857592211,1.18003085345166,3185.406,2835.785,1501.1,2767.662,0.03127991,-0.00494336,-0.01646952,-2.17784399865195E-05,0.0066222520545125,-0.315860867500305,-0.00248060856799822,-0.00106733656662813,0.00153561487136384,6
0.0800018310546875,-0.0599162206053734,2.94038772583008,1.15857708454132,-0.0601175574246769,2.93994947496775,1.18007272202403,3065.867,3067.289,2154.926,2024.011,0.01897359,-0.004311125,-0.04351499,0.00421075755730271,0.0127500332891941,-0.279417961835861,-0.00437268608126799,-0.00188144466206175,0.00270690098422899,6
0.100006103515625,-0.0596375651657581,2.94068765640259,1.15374827384949,-0.0602282404704493,2.93990185114529,1.18014124010193,2639.975,3831.739,2620.523,1134.889,-0.005854161,-0.002888465,-0.07014393,0.013932827860117,0.0149973286315799,-0.241438910365105,-0.00677739276378709,-0.00291612276782231,0.00419552897277328,6
0.120010375976563,-0.0590849071741104,2.94089889526367,1.14957010746002,-0.0603920338334453,2.93983137543704,1.18024263599618,2092.432,4101.934,3169.28,755.8676,-0.04011893,-0.0004511395,-0.08993442,0.0276328176259995,0.010560616850853,-0.208907812833786,-0.00968041450003567,-0.00416521191989172,0.00599263771761404,5
0.1400146484375,-0.0582314841449261,2.94085621833801,1.14596676826477,-0.0606187761383957,2.93973381455767,1.18038300028418,1510.421,4074.854,3735.698,701.9178,-0.07649344,0.002388238,-0.09949782,0.0426710844039917,-0.00213099643588066,-0.1801697909832,-0.0130687916036232,-0.00562313592726786,0.00809020455552005,4
0.160003662109375,-0.0570994541049004,2.94039487838745,1.14297819137573,-0.0609177895434042,2.93960515744296,1.18056810382587,1135.167,3847.011,4069.809,879.9608,-0.106282,0.004335389,-0.09870048,0.0566016100347042,-0.0230689980089664,-0.149431332945824,-0.0169265510445065,-0.00728302204135792,0.0104783414199936,4
0.180007934570313,-0.0557377487421036,2.93938803672791,1.14071118831635,-0.0612988491946875,2.93944119812059,1.1808039979024,1100.43,3565.302,4010.24,1149.179,-0.1236303,0.004492573,-0.0899994,0.0680853426456451,-0.0503404960036278,-0.113347604870796,-0.0212468478482708,-0.00914192506089775,0.0131528109458008,3
0.20001220703125,-0.0541965141892433,2.9377772808075,1.13924860954285,-0.0617708265342762,2.93923811945689,1.181096174359,1373.745,3339.551,3594.687,1386.189,-0.1278749,0.003022905,-0.07724925,0.0770617872476578,-0.0805380195379257,-0.0731271952390671,-0.0260142813927851,-0.0111932185284278,0.0161040794142088,3
0.220001220703125,-0.0525142811238766,2.93557620048523,1.1385840177536,-0.0623420644491781,2.93899233174064,1.18144979784016,1790.946,3213.082,3016.825,1526.891,-0.1229779,0.0008612729,-0.06425995,0.0841116979718208,-0.110052846372128,-0.0332267470657825,-0.03121219533433,-0.0134297356845702,0.019321835755004,3
0.240005493164063,-0.050719641149044,2.93284702301025,1.13860690593719,-0.0630219993990999,2.93869977472688,1.18187070996396,2158.704,3168.435,2517.614,1558.799,-0.1149655,-0.0009875001,-0.05362009,0.0897320359945297,-0.136453807353973,0.00114540755748749,-0.0368361158647881,-0.0158495515746756,0.0228033104678445,3
0.260009765625,-0.0488373450934887,2.92966485023499,1.13913786411285,-0.0638185570309634,2.93835703823113,1.18236381708338,2352.386,3158.956,2273.64,1495.78,-0.109049,-0.001904693,-0.04623674,0.094114750623703,-0.159109726548195,0.0265484005212784,-0.0428699302682246,-0.0184457333472145,0.0265385290140116,3
0.280014038085938,-0.0468918345868587,2.92608761787415,1.13999617099762,-0.0647398147611713,2.93796064676678,1.18293411950397,2352.763,3152.554,2324.092,1363.323,-0.107817,-0.001744903,-0.04152188,0.097275547683239,-0.17886321246624,0.0429179966449738,-0.0493014380023661,-0.0212130314496903,0.0305199386766456,3
0.300003051757813,-0.0449088290333748,2.92214369773865,1.14106214046478,-0.0657927507678135,2.93750759781875,1.18358593705038,2229.25,3143.925,2572.715,1194.61,-0.1110932,-0.000737163,-0.03798626,0.0991501435637474,-0.197192639112473,0.0533004030585289,-0.0561132031658829,-0.0241439437008635,0.0347367458022363,3
0.32000732421875,-0.0429170280694962,2.91783547401428,1.14229381084442,-0.0669865614821475,2.93699393441958,1.18432496275165,2073.253,3132.583,2873.833,1032.737,-0.1169346,0.000686906,-0.03397767,0.0995900705456734,-0.215407222509384,0.0615863278508186,-0.0633036493784043,-0.0272377918282996,0.0391879745362408,3
0.340011596679688,-0.0409490875899792,2.91315102577209,1.14370739459991,-0.0683278498358171,2.93641681551226,1.18515528413699,1955.843,3107.046,3108.956,921.7288,-0.1228404,0.00206999,-0.02837545,0.09839728474617,-0.234228149056435,0.0706794112920761,-0.0708558471483356,-0.0304872915447207,0.0438631447168985,3
0.360000610351563,-0.0390403494238853,2.90807700157166,1.145343542099,-0.0698225328270578,2.93577369517774,1.1860805641102,1904.906,3066.252,3222.155,880.0884,-0.1267111,0.003092855,-0.0208696,0.095436803996563,-0.253695756196976,0.0818078592419624,-0.0787518717320621,-0.0338847303337087,0.0487511600740379,3
0.3800048828125,-0.0372259095311165,2.90261006355286,1.14724338054657,-0.0714797725314022,2.93506063123087,1.18710647443246,1923.033,3020.899,3207.663,896.6167,-0.1274195,0.003642878,-0.01188143,0.0907219648361206,-0.273343980312347,0.0949945077300072,-0.0869921272359981,-0.0374302820709642,0.0538522707687797,3
0.400009155273438,-0.0355375483632088,2.89676094055176,1.14943170547485,-0.0733051402689975,2.93427522648826,1.18823646401636,1991.88,2988.899,3098.257,939.4393,-0.1250333,0.003790842,-0.002209891,0.0844183340668678,-0.292455196380615,0.109418623149395,-0.0955591682828665,-0.0411164404980124,0.0591556772815509,3
0.420013427734375,-0.0340022817254066,2.89055442810059,1.15190613269806,-0.0753050585276311,2.93341471753282,1.18947450868777,2072.593,2975.194,2953.278,985.7797,-0.1205054,0.003707574,0.007339281,0.0767631232738495,-0.310326933860779,0.123721823096275,-0.104441553474511,-0.0449382827008623,0.0646542968418633,3
0.44000244140625,-0.0326428860425949,2.88402414321899,1.15464210510254,-0.077483988232608,2.93247718495301,1.19082336997196,2136.363,2972.498,2825.113,1023.694,-0.1150821,0.003564086,0.0161494,0.06796994805336,-0.326510280370712,0.136798545718193,-0.113620829717891,-0.048887868829098,0.0703367061060819,4
0.460006713867188,-0.0314787551760674,2.87720704078674,1.15760147571564,-0.0798512213598696,2.93145863067119,1.19228880004469,2167.359,2977.698,2749.932,1039.013,-0.1098735,0.003475894,0.02394751,0.0582066476345062,-0.340851038694382,0.147971451282501,-0.123099793815011,-0.0529664022684887,0.0762046364278779,4
0.480010986328125,-0.0305272080004215,2.8701376914978,1.16074812412262,-0.0824109101018722,2.93035726811493,1.19387336931088,2168.927,2983.575,2731.822,1033.515,-0.1055357,0.00348243,0.03074396,0.0475772172212601,-0.353464215993881,0.157333239912987,-0.132860437136906,-0.0571661344090936,0.082246939608052,4
0.5,-0.0298041123896837,2.86284589767456,1.16405248641968,-0.085166398670376,2.92917165836334,1.1955791479969,2147.135,2990.705,2763.099,1007.326,-0.1022755,0.003568713,0.03680045,0.03615503013134,-0.364584624767303,0.165215343236923,-0.142884000065179,-0.0614789935111996,0.0884520025491718,4
0.520004272460938,-0.0293248873203993,2.85535597801208,1.16749930381775,-0.088127196023106,2.92789770997757,1.19741202260058,2115.542,2991.464,2817.638,979.5313,-0.09983658,0.003687037,0.04241389,0.0239608623087406,-0.37449711561203,0.172340825200081,-0.153174893518032,-0.065906877469682,0.0948225558197254,4
0.540008544921875,-0.0291047133505344,2.84768748283386,1.17108631134033,-0.0912963635428427,2.92653410573011,1.19937388826368,2090.02,2992,2870.185,950.9201,-0.09781631,0.003777338,0.04785747,0.0110086910426617,-0.383428335189819,0.179350420832634,-0.163714777034477,-0.0704418948965508,0.101347245800684,4
0.560012817382813,-0.0291582718491554,2.83985733985901,1.17481684684753,-0.0946787750684717,2.92507874854427,1.20146776212465,2071.17,2989.912,2908.606,933.2144,-0.09578964,0.003794833,0.05329831,-0.00267750676721334,-0.391506224870682,0.186529040336609,-0.174492968360474,-0.0750794495163205,0.10801945966793,5
0.580001831054688,-0.0294997505843639,2.8318817615509,1.17869937419891,-0.0982762614093182,2.92353085067394,1.20369477754168,2063.563,2985.059,2921.714,932.5121,-0.09339333,0.003716684,0.05873792,-0.0170739218592644,-0.398784518241882,0.194126635789871,-0.185490414529404,-0.0798113433697334,0.11482740272751,5
0.600006103515625,-0.0301419831812382,2.8237771987915,1.18273961544037,-0.102098762959148,2.92188613504538,1.20606108809202,2065.717,2984.595,2914.027,937.5336,-0.09050806,0.003538909,0.06411723,-0.0321117900311947,-0.405232816934586,0.202010348439217,-0.196713446836865,-0.0846403006364086,0.121774994352997,5
0.620010375976563,-0.0310964398086071,2.81556105613708,1.18694305419922,-0.106147859919355,2.92014392174208,1.20856767199563,2075.276,2985.754,2885.562,954.0013,-0.08716419,0.003273296,0.06928408,-0.0477229058742523,-0.410811692476273,0.210169672966003,-0.20814339888717,-0.0895582896877615,0.128850679156259,5
0.639999389648438,-0.0323721654713154,2.80725193023682,1.19130563735962,-0.110424235525481,2.91830391678686,1.21121495220784,2083.612,2993.523,2856.102,965.1603,-0.083611,0.002939852,0.07415476,-0.0637865588068962,-0.415458291769028,0.218128651380539,-0.219761081350814,-0.0945570538913933,0.136042578028218,5
0.660003662109375,-0.0339767932891846,2.79886841773987,1.19582319259644,-0.114938248900541,2.91636166293851,1.21400934151928,2086.099,2997.222,2827.108,986.5827,-0.07999763,0.002568088,0.07859996,-0.0802310705184937,-0.419172495603561,0.225876703858376,-0.231574097577923,-0.0996398647564507,0.143355397804799,5
0.680007934570313,-0.035915981978178,2.79042887687683,1.20048832893372,-0.119690355154666,2.91431696437584,1.21695112166479,2089.277,3008.123,2805.923,992.722,-0.07659677,0.002169156,0.08260877,-0.0969596728682518,-0.421973347663879,0.233259856700897,-0.243563621239988,-0.104798621839723,0.150777484091833,6
0.70001220703125,-0.0381939150393009,2.7819504737854,1.20529210567474,-0.124683985757554,2.91216834463331,1.22004241688759,2083.416,3015.589,2797.35,999.503,-0.07354799,0.001758523,0.0861972,-0.113896518945694,-0.423922568559647,0.240190714597702,-0.255719729227087,-0.11002905550423,0.158302694011575,6
0.720001220703125,-0.0408138148486614,2.77344822883606,1.21022796630859,-0.129918284978346,2.90991617190799,1.22328269744952,2074.851,3021.131,2797.322,1003.499,-0.07088323,0.001344652,0.08940262,-0.130995154380798,-0.42511123418808,0.246793732047081,-0.268023157655716,-0.11532287703907,0.16591910230247,6
0.740005493164063,-0.0437779016792774,2.76493573188782,1.21528959274292,-0.13540428105644,2.90755570105657,1.22667879035609,2064.861,3026.351,2806.101,1000.966,-0.06859451,0.0009287919,0.0923053,-0.148204520344734,-0.425629615783691,0.253078669309616,-0.280482990349159,-0.120683994959631,0.173632332283853,6
0.760009765625,-0.0470882542431355,2.75642418861389,1.2204772233963,-0.141140917956636,2.9050873864615,1.23023004187122,2057.974,3029.378,2810.148,1003.164,-0.06658223,0.000510105,0.09493443,-0.165517836809158,-0.425581425428391,0.259379595518112,-0.293080296154222,-0.126104263719567,0.181430664670081,6
0.780014038085938,-0.050745602697134,2.7479236125946,1.22578561306,-0.147130850634402,2.90251008576961,1.23393809553882,2051.361,3035.004,2820.756,995.2722,-0.06485543,8.157911E-05,0.09738699,-0.182867184281349,-0.425032407045364,0.265421390533447,-0.305805585769442,-0.131579600337561,0.189308225131511,6
0.800003051757813,-0.0547511018812656,2.73944234848022,1.23121809959412,-0.153371683173492,2.89982482987671,1.2378014681726,2044.277,3032.929,2820.688,1007.238,-0.06321812,-0.000344613,0.09961555,-0.200274929404259,-0.424068123102188,0.271624267101288,-0.318639638509124,-0.13710173468952,0.197253115148089,6
0.82000732421875,-0.0591042824089527,2.73098802566528,1.23676979541779,-0.159875221826383,2.89702653888221,1.24182746840525,2042.864,3039.062,2826.469,998.3239,-0.06174752,-0.0007792409,0.1017005,-0.217659130692482,-0.42271900177002,0.277582049369812,-0.331592781842754,-0.14267511039705,0.205271727915392,6
0.840011596679688,-0.0638055205345154,2.72256684303284,1.24244725704193,-0.166638895824778,2.89411631891588,1.24601450480873,2041.547,3037.887,2814.239,1015.843,-0.06029184,-0.001206945,0.1035405,-0.235061526298523,-0.421054512262344,0.283872663974762,-0.344646098867604,-0.148291588045382,0.213352352969496,6
0.860000610351563,-0.0688524842262268,2.71418523788452,1.24824070930481,-0.173659158941841,2.89109569582005,1.2503603820997,2043.68,3048.163,2817.814,1000.681,-0.05909661,-0.001644768,0.1052545,-0.252348572015762,-0.419081747531891,0.289674192667007,-0.357780475378537,-0.153942943326036,0.221483157706883,6
0.8800048828125,-0.0742443948984146,2.70584774017334,1.25415599346161,-0.180948461186242,2.88795931270381,1.25487280742661,2036.464,3042.083,2805.689,1029.089,-0.05791044,-0.002055428,0.1066874,-0.26959615945816,-0.416875183582306,0.29576501250267,-0.371007022483504,-0.159633957038354,0.229671020432672,6
0.900009155273438,-0.0799778401851654,2.69755887985229,1.26018404960632,-0.188503099076414,2.88470876307182,1.25954948815793,2043.631,3055.318,2808.409,1007.173,-0.05705716,-0.002469283,0.1079861,-0.286672174930573,-0.414443045854568,0.301405191421509,-0.384306908919572,-0.165356526615982,0.237904283698049,7
0.920013427734375,-0.0860506892204285,2.68932151794434,1.2663289308548,-0.196324452211266,2.88134345332121,1.26439127833112,2035.985,3050.835,2799.915,1030.963,-0.05632266,-0.00285118,0.1090325,-0.303642600774765,-0.411864042282104,0.307242929935455,-0.397671404529394,-0.171106895716105,0.246177543119742,7
0.94000244140625,-0.0924584567546844,2.68113827705383,1.27258002758026,-0.204407453948074,2.87786556348678,1.26939504145298,2038.455,3060.404,2810.495,1010.089,-0.05595142,-0.003224023,0.1099741,-0.320387601852417,-0.409156650304794,0.312552958726883,-0.411081631631503,-0.176876941799768,0.254479112513653,7
0.960006713867188,-0.0991984754800797,2.67301034927368,1.27894330024719,-0.212765478812529,2.87426933888379,1.27456905699201,2030.195,3053.79,2806.743,1032.825,-0.05565793,-0.003553722,0.1106922,-0.337001711130142,-0.406400829553604,0.318161576986313,-0.424549556012544,-0.182671813410681,0.262816399271726,7
0.980010986328125,-0.106265872716904,2.66493821144104,1.2854106426239,-0.221393324468958,2.87055701793193,1.27991010445463,2037.261,3064.804,2817.748,1006.219,-0.0557128,-0.003875965,0.1113513,-0.353370040655136,-0.403612673282623,0.323364436626434,-0.438056556301695,-0.188483498293199,0.271177875878363,7
1,-0.113657504320145,2.65692090988159,1.29198789596558,-0.230284798736574,2.86673126495361,1.28541435058594,2029.811,3058.452,2814.996,1027.303,-0.05584063,-0.004157194,0.1118399,-0.369582235813141,-0.400867074728012,0.328865706920624,-0.451584000205995,-0.194303979492187,0.279552008056641,7
1.02000427246094,-0.121367916464806,2.64895749092102,1.29866480827332,-0.239454009753966,2.86278600961093,1.2910905289958,2032.96,3065.43,2832.547,1002.524,-0.05625129,-0.004425108,0.1123126,-0.3855200111866,-0.398167878389359,0.333846479654312,-0.465144357597929,-0.200138622445408,0.287946515251652,7
1.04000854492188,-0.12939465045929,2.64104557037354,1.30545520782471,-0.248894644448595,2.85872396824263,1.29693473159157,2030.688,3058.491,2820.739,1029.426,-0.05661135,-0.004645085,0.112598,-0.401337206363678,-0.395590305328369,0.339517682790756,-0.47871923339115,-0.205979512261105,0.296350010028666,7
1.06001281738281,-0.137731060385704,2.63318347930908,1.31234157085419,-0.258606913342529,2.85454505026695,1.30294708869644,2039.248,3071.713,2843.956,986.8957,-0.0573581,-0.004869324,0.112953,-0.416819989681244,-0.393106639385223,0.344320446252823,-0.492300656572427,-0.21182321923497,0.304757557950783,7
1.08000183105469,-0.146375417709351,2.62536716461182,1.31934368610382,-0.268583149539609,2.85025255453512,1.30912285413647,2029.494,3056.358,2826.369,1036.837,-0.05790405,-0.005026983,0.1130756,-0.432219684123993,-0.390812069177628,0.350108563899994,-0.50587040849135,-0.217661904390701,0.313157880805523,7
1.10000610351563,-0.15531998872757,2.61759448051453,1.32643675804138,-0.278838480013141,2.84583997233313,1.31547139222872,2043.881,3075.041,2859.943,972.448,-0.05890965,-0.005199023,0.1133413,-0.447227776050568,-0.388636708259583,0.354653835296631,-0.519441457145546,-0.223501147495394,0.321559006401169,7
1.12001037597656,-0.16456463932991,2.60986018180847,1.33365309238434,-0.289365134970699,2.84131064678559,1.32198789310157,2033.086,3054.491,2827.083,1045.837,-0.05954615,-0.005289038,0.1132989,-0.462232142686844,-0.386710822582245,0.360818266868591,-0.532995796775449,-0.22933320117373,0.329949788314817,8
1.13999938964844,-0.174099445343018,2.60216212272644,1.34095323085785,-0.300154365346813,2.83666834237095,1.3286669406667,2055.506,3084.223,2875.899,945.8971,-0.06088892,-0.005423794,0.1135352,-0.47674036026001,-0.384908974170685,0.365009546279907,-0.546515580872639,-0.235150386571708,0.338319178707607,8
1.16000366210938,-0.183926284313202,2.59449362754822,1.34838259220123,-0.311222084148811,2.83190621216671,1.33551838583369,2029.523,3047.795,2832.475,1063.261,-0.06158241,-0.005438175,0.1133538,-0.491342723369598,-0.383419871330261,0.371466219425201,-0.560014026276883,-0.240958390526247,0.34667535943296,8
1.18000793457031,-0.194033578038216,2.58685278892517,1.35588991641998,-0.322559451663168,2.82702805965467,1.34253675639879,2067.988,3091.698,2895.356,918.2043,-0.06319149,-0.00553032,0.1135809,-0.505364179611206,-0.382046043872833,0.375364631414413,-0.573473482003304,-0.246749618311663,0.355007403690405,8
1.20001220703125,-0.204425528645515,2.57923173904419,1.36353659629822,-0.334165615614823,2.82203425154496,1.34972152476313,2032.736,3044.192,2833.183,1077.038,-0.06391799,-0.005475992,0.1132831,-0.519597351551056,-0.381049126386642,0.382334023714066,-0.586886736182789,-0.252520966862155,0.363310846989412,8
1.22000122070313,-0.215087577700615,2.5716290473938,1.37124919891357,-0.346030421585499,2.81692915700008,1.35706640485806,2079.071,3100.204,2923.874,882.2576,-0.06584825,-0.005535114,0.1135818,-0.533104479312897,-0.380133986473083,0.385629206895828,-0.600236516861372,-0.258265004538453,0.371574997167698,8
1.24000549316406,-0.226028174161911,2.56403565406799,1.37911629676819,-0.358170848086624,2.8117054706409,1.36458190719098,2029.039,3032.498,2833.896,1107.685,-0.06641764,-0.005396097,0.1131502,-0.547027349472046,-0.379675298929214,0.393357783555984,-0.613536214864368,-0.263987493038594,0.379808143784027,8
1.260009765625,-0.237228706479073,2.55645108222961,1.38703608512878,-0.37057666480527,2.80636759428526,1.37226169871082,2099.501,3114.245,2955.51,829.0262,-0.06865363,-0.005438175,0.1135795,-0.560027241706848,-0.379223763942719,0.395990163087845,-0.626768731761373,-0.26968107538565,0.387999702095469,8
1.28001403808594,-0.248702853918076,2.54886436462402,1.39513301849365,-0.383246459856376,2.80091613542787,1.38010490539349,2027.544,3020.52,2822.613,1149.775,-0.06897374,-0.005218198,0.112998,-0.573709726333618,-0.379331976175308,0.404848486185074,-0.639927289491735,-0.275342835169479,0.396145476159594,8
1.30000305175781,-0.260425865650177,2.54127788543701,1.40325796604156,-0.396168722856641,2.79535604666509,1.38810440176341,2120.686,3132.586,2999.052,758.2125,-0.0716385,-0.005262406,0.1136569,-0.586149454116821,-0.379318654537201,0.406247079372406,-0.652995275331231,-0.280965624398954,0.404235181908735,8
1.32000732421875,-0.27241975069046,2.53367757797241,1.41159236431122,-0.409361504843077,2.78967956113998,1.39627136227237,2015.254,2996.83,2803.729,1223.99,-0.07144409,-0.004934305,0.1128426,-0.59969562292099,-0.380016297101974,0.416721820831299,-0.6659860834168,-0.286555206197011,0.41227711095171,8
1.34001159667969,-0.284650534391403,2.52606987953186,1.419921875,-0.422813232584026,2.78389165849082,1.40459862253867,2155.054,3161.904,3052.255,653.038,-0.0746484,-0.005008341,0.1138268,-0.611535847187042,-0.380386233329773,0.416472762823105,-0.678883253871146,-0.292104498338286,0.420261073840379,8
1.36000061035156,-0.297152042388916,2.51843595504761,1.42850816249847,-0.436511415158101,2.77799771321212,1.41307845008695,1999.418,2967.451,2763.203,1330.911,-0.07374825,-0.004559864,0.1126843,-0.625075578689575,-0.381695538759232,0.429315656423569,-0.691670720740693,-0.297606588091785,0.42817712498415,9
1.3800048828125,-0.30987560749054,2.5107889175415,1.43703305721283,-0.450474904562636,2.77198961381608,1.4217225152016,2193.26,3202.028,3132.165,504.091,-0.07778561,-0.004699414,0.1141747,-0.636179685592651,-0.382354587316513,0.426247030496597,-0.704361775018035,-0.303067194200314,0.436033492140578,9
1.40000915527344,-0.322874486446381,2.50310230255127,1.44588923454285,-0.464691155755482,2.76587275808388,1.43052305190393,1966.629,2918.21,2693.684,1507.076,-0.0756897,-0.004075169,0.1124879,-0.649943590164185,-0.384327292442322,0.442806899547577,-0.716940488958393,-0.308479463400265,0.443820315276901,9
1.42001342773438,-0.336077094078064,2.49539947509766,1.45459997653961,-0.479157861067077,2.75964813894125,1.43947863163655,2257.416,3270.244,3239.513,270.239,-0.08104905,-0.004347344,0.1147478,-0.660130083560944,-0.385144054889679,0.43554013967514,-0.729400843645231,-0.313840805920001,0.451533868397062,9
1.44000244140625,-0.349564850330353,2.48764228820801,1.46374762058258,-0.493861275572861,2.75332167044526,1.4485807456364,1905.056,2843.197,2586.412,1779.162,-0.07721729,-0.00347436,0.1122649,-0.674390912055969,-0.387858182191849,0.457383900880814,-0.741727567798258,-0.319144650954242,0.459164697851088,9
1.46000671386719,-0.363235354423523,2.47986745834351,1.47264742851257,-0.508821304757097,2.74688478782212,1.45784171634646,2288.542,3405.505,3345.57,0,-0.08402699,-0.003725762,0.1157488,-0.683522343635559,-0.388745427131653,0.444988191127777,-0.753933682518823,-0.324396601119133,0.466720864320996,9
1.48001098632813,-0.377205163240433,2.47202348709106,1.48210752010345,-0.524024159888143,2.74034342397783,1.467253007885,1848.248,2725.423,2439.057,2130.295,-0.07796617,-0.002403769,0.1122456,-0.698489248752594,-0.392202883958817,0.473007589578629,-0.766004036374583,-0.329590137176618,0.474192988348404,9
1.5,-0.391347110271454,2.46415448188782,1.4913125038147,-0.539455198877605,2.73370387899399,1.4768055561018,2086.688,3753.097,3205.216,0,-0.08444244,-0.001465804,0.1174871,-0.70709615945816,-0.393451362848282,0.460251957178116,-0.777924000354858,-0.334718964672088,0.481572013878822,9
1.52000427246094,-0.405779778957367,2.45621681213379,1.50102281570435,-0.555135099954955,2.72695725560613,1.48651216180595,1960.856,2531.445,2409.112,2246.953,-0.07808495,0.0008602526,0.1135447,-0.72163462638855,-0.396882981061935,0.485515743494034,-0.789706299681991,-0.339788558913217,0.48886581843107,9
1.54000854492188,-0.420378983020782,2.44825768470764,1.51046121120453,-0.571049184024557,2.72010986981902,1.49636373793799,2196.712,3648.587,3216.819,0,-0.08453885,0.002517381,0.117259,-0.729958772659302,-0.397958517074585,0.471922695636749,-0.801336412291853,-0.344792671461508,0.496065412155667,9
1.56001281738281,-0.435257017612457,2.44023609161377,1.52037537097931,-0.587194353912065,2.71316305426025,1.50635836719945,2059.841,2519.948,2491.366,2093.038,-0.07938244,0.00518076,0.1120858,-0.743901610374451,-0.401083618402481,0.495707273483276,-0.812809078412023,-0.349729039183831,0.50316753900293,9
1.58000183105469,-0.450295358896255,2.43219113349915,1.53005933761597,-0.60355483331529,2.70612359703193,1.51648628330776,2174.311,3688.573,3217.394,0,-0.08648989,0.007252243,0.1148879,-0.751920163631439,-0.402246564626694,0.484201043844223,-0.824110582941666,-0.354591760855452,0.510163708672098,9
1.60000610351563,-0.4655881524086,2.42408418655396,1.54013621807098,-0.620152298932711,2.69898217125626,1.52676090517188,2115.205,2527.105,2665.766,1858.032,-0.0835929,0.009936389,0.1098625,-0.7646404504776,-0.405341625213623,0.503844499588013,-0.835253140422976,-0.35938609205264,0.51706148254665,9
1.62001037597656,-0.481035858392715,2.41594648361206,1.55001604557037,-0.636970945360177,2.69174557755711,1.53717244849371,2245.531,3523.412,3328.845,0,-0.09110674,0.01175168,0.1116287,-0.772385239601135,-0.406879931688309,0.49399346113205,-0.846223126656604,-0.364106170663034,0.523852426598179,9
1.63999938964844,-0.496722251176834,2.40773630142212,1.56026673316956,-0.653994195024907,2.68442094880091,1.54771065096602,2113.726,2603.818,2824.354,1631.935,-0.08937036,0.01395044,0.1072241,-0.784320533275604,-0.410510241985321,0.512533366680145,-0.857007552155828,-0.368746407673381,0.530528499715628,9
1.66000366210938,-0.512559652328491,2.39948010444641,1.57036077976227,-0.671244443874359,2.67699864863716,1.55838937674714,2242.671,3465.582,3402.007,0,-0.0964794,0.01524842,0.1093525,-0.791866779327393,-0.412806540727615,0.504701316356659,-0.867618167158098,-0.373311858882592,0.53709697585572,9
1.68000793457031,-0.528627514839172,2.39113473892212,1.58082604408264,-0.688705090349012,2.66948582025311,1.56919834868089,2096.554,2649.867,2889.773,1542.727,-0.09439308,0.01689129,0.1061345,-0.80339789390564,-0.417267858982086,0.52326375246048,-0.878042061913515,-0.377796969585941,0.543549863268291,9
1.70001220703125,-0.544843554496765,2.38273024559021,1.59114837646484,-0.706372354049449,2.66188409024902,1.58013522651994,2282.168,3403.064,3432.662,0,-0.1005173,0.01754161,0.1089512,-0.81080174446106,-0.420229226350784,0.516116857528687,-0.888274735793774,-0.382199803288802,0.549884375850026,9
1.72000122070313,-0.561290562152863,2.37422251701355,1.60186910629272,-0.724228658537036,2.6542010212754,1.5911891296115,2070.79,2682.546,2855.953,1578.225,-0.09703653,0.01867637,0.1065262,-0.822351455688477,-0.425389230251312,0.536037743091583,-0.898304216251578,-0.386515208538549,0.556093102023817,9
1.74000549316406,-0.577881932258606,2.36564922332764,1.61243999004364,-0.742297311768984,2.64642658456943,1.60237448669139,2292.719,3424.767,3405.193,0,-0.1021919,0.01886659,0.1102011,-0.8295658826828,-0.428667098283768,0.528541803359985,-0.908141534469281,-0.390747931744771,0.562182870617028,9
1.760009765625,-0.594707369804382,2.35696697235107,1.62343728542328,-0.760560719141003,2.63856835059778,1.61368040586141,2057.601,2683.83,2762.566,1693.12,-0.09725971,0.01974434,0.108069,-0.8412766456604,-0.434118241071701,0.549866259098053,-0.91777478390713,-0.394892849856044,0.568146310914365,9
1.78001403808594,-0.611672163009644,2.34822082519531,1.63426172733307,-0.779014757547905,2.63062809341744,1.62510433472304,2294.338,3479.879,3352.905,0,-0.1019852,0.01976469,0.1123077,-0.848240256309509,-0.437302619218826,0.54122132062912,-0.927199897745281,-0.398948213033403,0.573980905360616,9
1.80000305175781,-0.628873229026794,2.33936882019043,1.64552271366119,-0.797640935141499,2.62261376955408,1.63663482594136,2049.957,2661.135,2685.207,1811.142,-0.09622427,0.02064609,0.1100018,-0.860049664974213,-0.442597568035126,0.563050389289856,-0.936405971974637,-0.402909329586356,0.579679903854719,9
1.82000732421875,-0.646208643913269,2.33046054840088,1.65658628940582,-0.816463410111527,2.61451498441355,1.64828683458664,2281.799,3528.376,3323.855,0,-0.1009082,0.02074914,0.114371,-0.86677211523056,-0.445412963628769,0.55317634344101,-0.94540321420156,-0.406780591562751,0.585249625391268,9
1.84001159667969,-0.663780570030212,2.32145476341248,1.66808867454529,-0.835463677219795,2.60633970028288,1.66004890503489,2059.016,2634.365,2650.06,1874.701,-0.09489695,0.02177131,0.1116554,-0.878599762916565,-0.45028692483902,0.575120687484741,-0.954180774018563,-0.410557330335375,0.590683353051152,9
1.86000061035156,-0.681483447551727,2.31240129470825,1.67938411235809,-0.854622615239374,2.59809614449182,1.6719092003358,2264.473,3571.209,3306.443,0,-0.09973592,0.02207832,0.1159141,-0.885140478610992,-0.4526746571064,0.564774513244629,-0.962728579444532,-0.414235212212131,0.595974851798267,9
1.8800048828125,-0.699418663978577,2.30326128005981,1.69109869003296,-0.873964974649439,2.58977366760063,1.68388304221498,2073.338,2608.901,2671.837,1870.655,-0.09398349,0.02325949,0.1129036,-0.896761178970337,-0.457006722688675,0.585730850696564,-0.971056158224177,-0.417818336715394,0.601130019760457,9
1.90000915527344,-0.717482328414917,2.29408168792725,1.7026082277298,-0.893471623792247,2.58138050142717,1.69595858726494,2274.906,3552.819,3322.504,0,-0.09887198,0.02366865,0.1167189,-0.903183043003082,-0.4589783847332,0.575477004051208,-0.979153483542501,-0.421302389586788,0.606142649861596,9
1.92001342773438,-0.735773146152496,2.28482508659363,1.71452462673187,-0.913137923350175,2.5729186421402,1.70813296352707,2092.073,2615.066,2709.352,1812.281,-0.09350039,0.02485025,0.1135226,-0.914540588855743,-0.462835639715195,0.595821022987366,-0.987017247723777,-0.424685947625853,0.611010694492843,9
1.94000244140625,-0.754188895225525,2.27553534507751,1.72624111175537,-0.932943991899774,2.5643966441608,1.72039386345315,2271.471,3539.166,3343.388,0,-0.09838729,0.02523413,0.1170988,-0.920790016651154,-0.464485824108124,0.585826098918915,-0.994638524886308,-0.427965170275055,0.615728628108227,9
1.96000671386719,-0.77282577753067,2.26617574691772,1.73835361003876,-0.952915303453826,2.55580354673295,1.73275705667061,2093.999,2621.727,2744.395,1768.066,-0.09313873,0.02633202,0.1139305,-0.931838512420654,-0.467980265617371,0.605628073215485,-1.00202586176059,-0.431143734953757,0.620301741541062,9
1.98001098632813,-0.79158353805542,2.25678825378418,1.75027215480804,-0.973031969359004,2.54714790738853,1.74521023115561,2280.262,3516.99,3356.365,0,-0.09780725,0.02658047,0.1173779,-0.937893629074097,-0.469364583492279,0.595928192138672,-1.00917036754089,-0.434217816196637,0.624724530959079,9
2,-0.810556709766388,2.24733734130859,1.76258409023285,-0.993273599084619,2.53843849960327,1.7577407641983,2094.577,2637.085,2750.784,1741.974,-0.09246868,0.02751973,0.1142986,-0.948655962944031,-0.472561210393906,0.615597784519196,-1.01606400046349,-0.437183953857422,0.628992018127441,9
2.02000427246094,-0.829644799232483,2.23786401748657,1.77469491958618,-1.01366615605493,2.52966415204104,1.77036472839513,2276.867,3506.838,3364.549,0,-0.09692575,0.02759391,0.1177992,-0.95440411567688,-0.473657846450806,0.605539321899414,-1.02271452148052,-0.440045487257004,0.633109007445237,9
2.04000854492188,-0.848943948745728,2.22833251953125,1.78720724582672,-1.03418924440916,2.52083364047092,1.78306949773667,2084.427,2641.644,2727.884,1765.277,-0.09115575,0.02840556,0.1147158,-0.964958190917969,-0.476570427417755,0.625614583492279,-1.02911391720548,-0.442798968459032,0.637070538244476,9
2.06001281738281,-0.868350982666016,2.21878576278687,1.79951000213623,-1.05483781489696,2.5119491374443,1.79585194649644,2264.584,3531.959,3343.187,0,-0.09542798,0.02838798,0.1183984,-0.970356345176697,-0.477350920438766,0.615140557289124,-1.03525963910674,-0.445443300901551,0.64087503286269,9
2.08000183105469,-0.887963175773621,2.20918822288513,1.81220984458923,-1.07559088172821,2.50301967256038,1.80869908347065,2076.26,2630.947,2700.265,1803.366,-0.08933574,0.02915825,0.1152694,-0.980611443519592,-0.479879200458527,0.634991586208344,-1.04114485287423,-0.447975543971863,0.644518260536375,9
2.10000610351563,-0.907675445079803,2.19958353042603,1.8246830701828,-1.09647498538954,2.49403382618922,1.82162733848484,2262.888,3531.129,3336.049,0,-0.09348974,0.02908547,0.1189057,-0.985613644123077,-0.480238169431686,0.623662412166595,-1.04677621342161,-0.450398561093403,0.648004340974112,9
2.12001037597656,-0.927587568759918,2.18993711471558,1.83755791187286,-1.11746913671118,2.48500062938421,1.83462371824305,2071.849,2625.023,2668.739,1837.267,-0.08710081,0.02983619,0.1155322,-0.995599448680878,-0.482320129871368,0.643744945526123,-1.05214690704168,-0.452709420518306,0.651329056166548,9
2.13999938964844,-0.947591125965118,2.18029189109802,1.85019564628601,-1.138551967509,2.47592927627801,1.8476749948214,2242.812,3565.748,3310.202,0,-0.09128304,0.02979288,0.1191946,-1.00018191337585,-0.482256501913071,0.631885826587677,-1.05725102347782,-0.454905579228273,0.654488747383304,9
2.16000366210938,-0.967785537242889,2.17061543464661,1.8632196187973,-1.15975039167652,2.46680818657414,1.86079782920208,2066.68,2606.582,2659.038,1858.597,-0.08488666,0.03058121,0.115659,-1.00971662998199,-0.483825623989105,0.651201188564301,-1.0620943502576,-0.456989527434725,0.657486997379635,8
2.18000793457031,-0.988063156604767,2.16094923019409,1.87599575519562,-1.18104303873349,2.45764655539322,1.87397899203979,2249.67,3550.16,3307.58,0,-0.08909819,0.0305232,0.1190403,-1.01388370990753,-0.483311533927917,0.638806700706482,-1.06667099276523,-0.458958728849171,0.660320157107579,7
2.20001220703125,-1.00852227210999,2.15126132965088,1.88915252685547,-1.20242455577657,2.44844668594002,1.88721516963236,2065.833,2608.973,2652.957,1851.24,-0.08280567,0.03127291,0.1152797,-1.02296662330627,-0.484399884939194,0.657839953899384,-1.07097916161324,-0.460812413548163,0.662987118851036,7
2.22000122070313,-1.02905559539795,2.1415913105011,1.90205240249634,-1.22387315175433,2.43921795429519,1.90049287228091,2230.779,3559.264,3303.764,0,-0.08711999,0.03119408,0.118572,-1.02666258811951,-0.483501106500626,0.64499294757843,-1.07501419914593,-0.462548577472581,0.665484999299265,7
2.24000549316406,-1.049760222435,2.13190793991089,1.91532266139984,-1.24541615591711,2.42994860144581,1.91382901809327,2055.438,2600.756,2653.868,1854.367,-0.08084825,0.03191605,0.1147154,-1.03522956371307,-0.484171658754349,0.663514196872711,-1.07878069424208,-0.464169195088763,0.667816639186824,5
2.260009765625,-1.07052958011627,2.12224912643433,1.9283299446106,-1.26703177594152,2.42064800401982,1.92721011658316,2228.43,3550.462,3300.171,0,-0.08512262,0.03178192,0.1178748,-1.03846609592438,-0.482930451631546,0.650363564491272,-1.08227399942825,-0.465672266718726,0.669979161506271,4
2.27999877929688,-1.09145998954773,2.11258482933044,1.94170212745667,-1.28869796983554,2.41132564607061,1.9406225227075,2051.048,2602.146,2644.307,1851.202,-0.07884608,0.03243094,0.1139324,-1.04651570320129,-0.483230203390121,0.668612003326416,-1.08549040888332,-0.467056197851165,0.67197027217779,4
2.30000305175781,-1.11244451999664,2.10295152664185,1.95479834079742,-1.31044231452835,2.40196966201596,1.95408330789913,2214.908,3547.442,3299.595,0,-0.08310714,0.0322235,0.1170542,-1.04922425746918,-0.48166611790657,0.654811799526215,-1.08843358680109,-0.468322565086307,0.673792239511894,0
2.32000732421875,-1.13358044624329,2.09331846237183,1.96826159954071,-1.33224276726637,2.39258953623693,1.96757882664355,2040.009,2597.209,2621.8,1873.464,-0.07662021,0.03281737,0.1129828,-1.05679440498352,-0.481638431549072,0.673161089420319,-1.09109983431736,-0.469469776906228,0.675442773735451,0
2.34001159667969,-1.15475964546204,2.0837230682373,1.98143923282623,-1.35409377777295,2.38318765686251,1.9811056430551,2198.483,3566.898,3277.958,0,-0.08086848,0.03258277,0.1161526,-1.0589679479599,-0.479781001806259,0.658879339694977,-1.09348812118877,-0.470497390025984,0.676921237078733,0
2.36000061035156,-1.1760790348053,2.07413506507874,1.99497354030609,-1.37597305876702,2.37377361348711,1.99464996024512,2030.257,2583.861,2603.383,1896.344,-0.0742942,0.03316067,0.1119853,-1.06596326828003,-0.479403525590897,0.676713526248932,-1.09559602313537,-0.471404361345641,0.678226128796969,0
2.3800048828125,-1.19743061065674,2.06459045410156,2.00820708274841,-1.39790843013262,2.36433543599182,2.00822900004707,2195.574,3555.635,3273.334,0,-0.07853076,0.03288288,0.1150117,-1.06757974624634,-0.477221548557281,0.661671936511993,-1.09742594550583,-0.472191725819537,0.679358937915576,0
2.40000915527344,-1.21891117095947,2.05506062507629,2.02179765701294,-1.41987760424917,2.35488271411715,2.02182896536211,2022.28,2580.233,2580.995,1912.781,-0.07183611,0.03341971,0.1106342,-1.0740373134613,-0.476502001285553,0.679526329040527,-1.09897546783438,-0.472858441988871,0.680318166050934,0
2.42001342773438,-1.24041295051575,2.04557991027832,2.03507876396179,-1.44187496577138,2.34541786398928,2.035446380024,2176.81,3577.825,3250.079,0,-0.07615203,0.03313446,0.1136528,-1.07508742809296,-0.474038124084473,0.66405838727951,-1.1002439936861,-0.473404253224357,0.681103443981416,0
2.44000244140625,-1.26203072071075,2.03612017631531,2.04870247840881,-1.46387808506052,2.33595053645515,2.04906735901791,2011.939,2567.418,2570.341,1926.241,-0.06952661,0.03365941,0.1091827,-1.08088719844818,-0.4729845225811,0.681188941001892,-1.10123038958312,-0.473828671822132,0.681714070030222,0
2.46000671386719,-1.28365802764893,2.02671527862549,2.06200289726257,-1.48591492338117,2.32646870056377,2.06270921169857,2175.845,3557.649,3251.57,0,-0.073891,0.03332277,0.1120066,-1.08135831356049,-0.470236390829086,0.665023028850555,-1.10193578218388,-0.474132182551855,0.682150741652607,0
2.48001098632813,-1.3053891658783,2.01733756065369,2.0756459236145,-1.5079630509786,2.31698200721197,2.07635805297935,2001.618,2567.24,2556.056,1932.393,-0.06721872,0.03378672,0.1073628,-1.08656573295593,-0.468895792961121,0.682148456573486,-1.10235904000526,-0.474314298567936,0.682412758406602,0
2.5,-1.32711851596832,2.0080189704895,2.08895969390869,-1.52999999932945,2.30750012397766,2.08999997377396,2156.372,3576.467,3231.594,0,-0.07165288,0.03342151,0.1102032,-1.08646166324615,-0.465930372476578,0.6656893491745,-1.10250000050292,-0.474374949932098,0.682500019669533,0
2.52000427246094,-1.34893798828125,1.99873232841492,2.10260009765625,-1.55205376834272,2.29801100328223,2.10365230735988,1986.873,2555.796,2551.97,1941.065,-0.06502268,0.03385159,0.1055479,-1.09097230434418,-0.464324831962585,0.682026207447052,-1.10235882472314,-0.474314205938057,0.682412625136718,0
2.54000854492188,-1.37074422836304,1.98950958251953,2.11590266227722,-1.57410188948011,2.28852431271001,2.11730114464159,2166.316,3548.281,3229.703,0,-0.06944405,0.03338723,0.1081797,-1.0903103351593,-0.461139500141144,0.665123283863068,-1.10193535162022,-0.474131997292339,0.682150475113189,0
2.56001281738281,-1.39262795448303,1.98032355308533,2.12953042984009,-1.59613871703568,2.27904248145054,2.13094299065815,1975.03,2563.831,2537.419,1939.608,-0.06280959,0.03370731,0.1034292,-1.09419322013855,-0.459308296442032,0.681391835212708,-1.10122974390336,-0.473828394004169,0.681713670323692,0
2.58000183105469,-1.41448664665222,1.97120463848114,2.14281010627747,-1.61814182127198,2.26957516039323,2.14456396033363,2147.229,3556.491,3218.995,0,-0.06729009,0.03315689,0.1061008,-1.09293532371521,-0.455947637557983,0.663988828659058,-1.10024313330221,-0.473403883025206,0.681102911362804,0
2.60000610351563,-1.43641042709351,1.9621262550354,2.15641021728516,-1.64013916343638,2.26011031859448,2.15818136301212,1953.987,2556.535,2521.281,1963.107,-0.06052407,0.03341453,0.1013351,-1.09618282318115,-0.453925132751465,0.680006921291351,-1.09897439291323,-0.472857979480329,0.680317500623536,0
2.62001037597656,-1.4582976102829,1.9531182050705,2.16965293884277,-1.66210831390746,2.25065760689379,2.17178131368948,2143.202,3551.908,3206.114,0,-0.06496143,0.03278763,0.1039854,-1.09435796737671,-0.450390726327896,0.662132501602173,-1.09742465646102,-0.47219117117957,0.679358139935436,0
2.63999938964844,-1.48023736476898,1.94415473937988,2.18321490287781,-1.68402693989188,2.24122663446822,2.18534998730279,1941.672,2554.436,2495.465,1982.735,-0.05807609,0.03297742,0.09914753,-1.09699618816376,-0.448170959949493,0.678095996379852,-1.09559602313537,-0.471404361345641,0.67822612879697,0
2.66000366210938,-1.50212895870209,1.93526577949524,2.19640398025513,-1.70592290617745,2.23180541187802,2.19890463348308,2126.987,3555.531,3196.38,0,-0.06253688,0.03229951,0.1018226,-1.09457314014435,-0.444452702999115,0.659449338912964,-1.09348640563071,-0.470496651869278,0.67692017506657,0
2.68000793457031,-1.52406167984009,1.92642498016357,2.20991563796997,-1.72777388024004,2.22240354818443,2.21243142733407,1926.708,2544.59,2464.09,2018.811,-0.05542837,0.03246197,0.09684305,-1.09663474559784,-0.442034482955933,0.675585329532623,-1.09109790637238,-0.469468947365361,0.675441580245664,0
2.70001220703125,-1.54593443870544,1.91766214370728,2.22304391860962,-1.74957429229274,2.21302343991116,2.22592692089233,2109.94,3575.772,3170.778,0,-0.05993817,0.03179229,0.09956256,-1.09363532066345,-0.438137084245682,0.656414151191711,-1.08843144721369,-0.468321644481621,0.673790915005369,0
2.72000122070313,-1.56783509254456,1.90895259380341,2.23648500442505,-1.77130202882336,2.20367460188472,2.23937742484041,1914.617,2528.872,2444.611,2044.381,-0.05279664,0.03196638,0.09447435,-1.09504187107086,-0.435491502285004,0.672059535980225,-1.08549040888332,-0.467056197851165,0.671970272177789,0
2.74000549316406,-1.58966457843781,1.90032458305359,2.24952936172485,-1.79298473688851,2.19434513834902,2.25280005402337,2106.94,3563.133,3164.791,0,-0.05735224,0.03128429,0.09703214,-1.09147202968597,-0.431396692991257,0.652223467826843,-1.08227143928024,-0.465671165158559,0.669977576652695,0
2.760009765625,-1.61150968074799,1.89175391197205,2.26288604736328,-1.81460030360772,2.18504456385877,2.26618111951479,1905.025,2525.265,2427.087,2054.781,-0.05018407,0.0314281,0.09176258,-1.09224736690521,-0.428535103797913,0.667840301990509,-1.07877792518082,-0.464168003639063,0.667814925005998,0
2.77999877929688,-1.63327193260193,1.88326823711395,2.27584028244019,-1.83612684690458,2.17578229366013,2.27950707526701,2090.868,3577.311,3144.66,0,-0.054851,0.03074113,0.0942904,-1.08811330795288,-0.424285233020782,0.64771580696106,-1.07501419914593,-0.462548577472581,0.665484999299265,0
2.80000305175781,-1.6550350189209,1.87484383583069,2.28909230232239,-1.85759178470316,2.16654653058634,2.29279489428112,1889.052,2515.547,2423.891,2060.97,-0.04778617,0.03086617,0.08899583,-1.08817458152771,-0.421234399080276,0.662604212760925,-1.07097597819164,-0.460811043810786,0.662985148161422,0
2.82000732421875,-1.6767053604126,1.86650669574738,2.30193519592285,-1.87897323600723,2.1573466894188,2.30603103117811,2098.811,3550.335,3142.386,0,-0.05249144,0.03010198,0.09131788,-1.08350145816803,-0.416845858097076,0.642143130302429,-1.06666760390385,-0.458957270716794,0.660318059240952,0
2.84001159667969,-1.69836330413818,1.85823369026184,2.31507349014282,-1.90026581322863,2.14818508828617,2.31921215078427,1875.103,2523.96,2414.184,2055.077,-0.04549265,0.03012684,0.08597185,-1.08290076255798,-0.413652718067169,0.656917750835419,-1.06209075728,-0.456987981476842,0.657484773155346,0
2.86000061035156,-1.71991658210754,1.85005044937134,2.32779479026794,-1.9214480311499,2.13907097167731,2.33232495272651,2083.294,3550.653,3135.173,0,-0.05026876,0.02927496,0.08832166,-1.07767057418823,-0.409172683954239,0.636068165302277,-1.05725102347782,-0.454905579228273,0.654488747383304,0
2.8800048828125,-1.74144530296326,1.84193253517151,2.34080862998962,-1.94254691640495,2.12999271078668,2.34538616777867,1851.68,2520.607,2400.607,2073.627,-0.04316025,0.02922546,0.08301307,-1.0764319896698,-0.405881017446518,0.650694906711578,-1.0521429102862,-0.45270770082608,0.651326581984514,0
2.90000915527344,-1.76285898685455,1.83390641212463,2.35339832305908,-1.96354098577478,2.12095954924324,2.35838249680481,2079.501,3543.816,3123.375,0,-0.04788577,0.02828708,0.08538308,-1.0706821680069,-0.401313364505768,0.629479825496674,-1.04677201701582,-0.450396755497224,0.648001743199023,0
2.92001342773438,-1.78423595428467,1.82594811916351,2.36628150939941,-1.98442500350686,2.11197373984504,2.37131069862469,1836.214,2520.097,2374.35,2094.423,-0.04062705,0.02815958,0.08006625,-1.06884908676147,-0.397910714149475,0.644160270690918,-1.04114045847258,-0.4479736531836,0.644515540192422,0
2.94000244140625,-1.80548763275146,1.81808340549469,2.37872767448425,-2.00517798053537,2.10304431360073,2.38415778000673,2068.822,3544.568,3110.188,0,-0.04536535,0.02715434,0.0824845,-1.06257545948029,-0.393236815929413,0.622309386730194,-1.03525504859546,-0.445441325732794,0.640872191117535,0
2.96000671386719,-1.8266909122467,1.81028914451599,2.39146852493286,-2.02582645724542,2.09415985092405,2.3969401707136,1814.763,2512.024,2347.667,2129.5,-0.03788134,0.02698757,0.07710188,-1.06017017364502,-0.389700025320053,0.637037396430969,-1.02910913225408,-0.442796909628122,0.637067576131623,0
2.98001098632813,-1.8477588891983,1.80259156227112,2.40376353263855,-2.04634944795115,2.08532938136936,2.40964487960608,2060.296,3551.712,3088.861,0,-0.04260578,0.02595634,0.07953258,-1.05340325832367,-0.384897917509079,0.614747226238251,-1.02270954399162,-0.440043345582586,0.633105926142498,0
3,-1.86876702308655,1.79496788978577,2.41635060310364,-2.06672639957428,2.07656174835205,2.42225918334961,1803.583,2505.5,2319.805,2153.385,-0.03505839,0.02576516,0.0740651,-1.05041015148163,-0.38119238615036,0.629358291625977,-1.01606400046349,-0.437183953857422,0.628992018127441,0
3.02000427246094,-1.88962984085083,1.78744268417358,2.42847681045532,-2.0869834279768,2.06784571494631,2.43479924890685,2049.445,3548.278,3080.156,0,-0.03987178,0.02471666,0.07644664,-1.043137550354,-0.376248151063919,0.606314718723297,-1.00916501115878,-0.434215511495054,0.624721215103391,0
3.04000854492188,-1.91042149066925,1.77999520301819,2.44089841842651,-2.10709998486405,2.05919012250926,2.44725235590455,1788.265,2497.826,2294.706,2180.859,-0.03221786,0.02451157,0.07082964,-1.03957760334015,-0.372380346059799,0.621075034141541,-1.00202031904361,-0.431141350077486,0.620298310335216,0
3.06001281738281,-1.93105792999268,1.77264881134033,2.45285177230835,-2.12707118369488,2.05059707358306,2.45961547934097,2032.567,3564.827,3057.763,0,-0.03713086,0.02348619,0.073232,-1.03182280063629,-0.367313146591187,0.597673058509827,-0.994632798067981,-0.427962706185117,0.615725082934876,0
3.08000183105469,-1.95161080360413,1.76538300514221,2.46509075164795,-2.14687713595163,2.04207512564123,2.47187630727625,1774.378,2485.911,2281.999,2196.932,-0.02953446,0.02329319,0.06756847,-1.02764427661896,-0.36328861117363,0.611944496631622,-0.987011339258122,-0.424683405378145,0.611007036871143,0
3.10000610351563,-1.97199940681458,1.758220911026,2.47685098648071,-2.16654331551667,2.03361331798384,2.48405060925705,2032.647,3544.242,3056.265,0,-0.03450551,0.02224769,0.06981661,-1.01942491531372,-0.358107000589371,0.58801794052124,-0.979147395688901,-0.421299770153459,0.606138881190213,0
3.12001037597656,-1.9922924041748,1.7511420249939,2.48889827728271,-2.18604984110275,2.02522020497339,2.49612607781951,1761.127,2486.853,2267.908,2202.648,-0.02689207,0.02200971,0.06405174,-1.01466298103333,-0.353952646255493,0.60237067937851,-0.971049893464309,-0.41781564116424,0.601126141575667,0
3.13999938964844,-2.01241230964661,1.7441680431366,2.50046348571777,-2.20537738341953,2.01690410346351,2.50809074721212,2018.909,3553.477,3038.331,0,-0.03194408,0.02094195,0.06631677,-1.00598752498627,-0.348689824342728,0.578263580799103,-0.962728579444533,-0.414235212212131,0.595974851798267,0
3.16000366210938,-2.03242444992065,1.73727977275848,2.51230597496033,-2.22455088103183,2.00865428308644,2.51996005559448,1741.608,2481.269,2259.991,2212.865,-0.02437059,0.02067488,0.06059613,-1.000612616539,-0.344430327415466,0.592127919197083,-0.954174163352092,-0.410554485950274,0.590679260733698,0
3.18000793457031,-2.05225467681885,1.73049759864807,2.52365946769714,-2.24355101420387,2.00047905658478,2.53172204312984,2026.863,3527.314,3034.543,0,-0.02943752,0.01952907,0.06272913,-0.991510391235352,-0.339094817638397,0.567675471305847,-0.945396434568188,-0.406777674475913,0.585245428475253,0
3.20001220703125,-2.07196617126465,1.7238028049469,2.53529238700867,-2.26237335188561,1.99238033051557,2.54337396678712,1724.631,2489.383,2242.744,2217.948,-0.02184431,0.01917158,0.05698979,-0.985572397708893,-0.334748148918152,0.581644833087921,-0.93639902618694,-0.402906341007952,0.579675604081262,0
3.22000122070313,-2.09148669242859,1.71721577644348,2.54642820358276,-2.28099938900442,1.98436606709459,2.55490437104486,2012.645,3529.955,3023.256,0,-0.02697516,0.01795681,0.05919164,-0.976040184497833,-0.329358518123627,0.556787729263306,-0.927192788821982,-0.398945154262308,0.573976504598449,0
3.24000549316406,-2.11087799072266,1.71071672439575,2.55784320831299,-2.29945328359428,1.9764258717947,2.56632821087688,1701.041,2485.172,2222.408,2244.484,-0.01924986,0.01754675,0.05348978,-0.969565808773041,-0.324938863515854,0.570748329162598,-0.91776751470058,-0.394889722119544,0.568141810929231,0
3.260009765625,-2.13007092475891,1.70432710647583,2.56875276565552,-2.31771654397337,1.96856770107001,2.57763403905129,2009.437,3524.169,3009.641,0,-0.02437005,0.01627739,0.05571605,-0.959642946720123,-0.319484800100327,0.545478701591492,-0.908134108040216,-0.390744736359816,0.562178273303667,0
3.27999877929688,-2.14912414550781,1.69802784919739,2.57994389533997,-2.33577134012187,1.96079922667992,2.58881081793642,1685.351,2483.125,2195.185,2268.402,-0.01652651,0.01581807,0.04999183,-0.952664911746979,-0.314967095851898,0.559552550315857,-0.898304216251578,-0.386515208538549,0.556093102023818,0
3.30000305175781,-2.16797137260437,1.69183897972107,2.59061694145203,-2.35364119854729,1.95311032582551,2.59987311156116,1998.381,3523.746,2998.237,0,-0.02168878,0.01451907,0.05225104,-0.942360520362854,-0.309432446956635,0.533657371997833,-0.888267004546666,-0.382196476749158,0.549879589839776,0
3.32000732421875,-2.18666958808899,1.6857430934906,2.60157608985901,-2.37130830610839,1.94550866300381,2.61080989274252,1669.218,2475.96,2166.307,2300.141,-0.01369025,0.01403788,0.04644723,-0.934902489185333,-0.304801434278488,0.547953605651855,-0.878034183119985,-0.377793579561194,0.543544985919778,0
3.34001159667969,-2.20515441894531,1.67975950241089,2.61200881004333,-2.38876879352593,1.93799590305759,2.62161876621234,1987.393,3533.6,2976.859,0,-0.01892762,0.01274887,0.04873549,-0.924239754676819,-0.299175977706909,0.521637618541718,-0.867610144209785,-0.373308406832067,0.537092009268528,0
3.36000061035156,-2.22347974777222,1.67387139797211,2.62272262573242,-2.406005803634,1.93057929915441,2.6322892965819,1654.03,2466.543,2146.776,2322.941,-0.01092588,0.01227749,0.04288005,-0.916283786296844,-0.294418811798096,0.535691618919373,-0.857007552155826,-0.36874640767338,0.530528499715627,0
3.3800048828125,-2.24158549308777,1.66809701919556,2.63289976119995,-2.42304196557559,1.92324911460621,2.64283549236868,1985.136,3520.962,2970.097,0,-0.01624262,0.01098921,0.04506346,-0.905280411243439,-0.288707703351974,0.508862674236298,-0.846214826007803,-0.364102599125748,0.523847288101157,0
3.40000915527344,-2.25952196121216,1.66242051124573,2.64335966110229,-2.43986044461333,1.91601259293018,2.6532469320683,1640.585,2465.622,2129.991,2334.124,-0.008247809,0.01049825,0.03912088,-0.896835207939148,-0.283840268850327,0.522990882396698,-0.835244706287931,-0.359382463079953,0.517056261415284,0
3.42001342773438,-2.27723217010498,1.65685892105103,2.6532781124115,-2.45645774020782,1.90887124031063,2.66352144868012,1974.841,3525.383,2954.503,0,-0.01368279,0.009210806,0.04129532,-0.885497748851776,-0.278067290782928,0.495925962924957,-0.824102019042908,-0.354588076049064,0.510158407210813,0
3.44000244140625,-2.2947633266449,1.65139651298523,2.66347336769104,-2.47281804716281,1.90183185728196,2.67364925803476,1623.328,2462.242,2119.109,2344.549,-0.00577107,0.008709823,0.03537314,-0.876555562019348,-0.273121207952499,0.509762346744537,-0.812800388649434,-0.349725300221754,0.503162159625937,0
3.46000671386719,-2.31206154823303,1.64605021476746,2.67311906814575,-2.4889630419904,1.89488511704659,2.68364377892579,1974.633,3505.659,2953.422,0,-0.01127636,0.007390555,0.03746831,-0.864907562732697,-0.267313778400421,0.482280045747757,-0.801327600455845,-0.344788879974649,0.496059957209413,0
3.48001098632813,-2.32917165756226,1.64080393314362,2.68304538726807,-2.50487694859767,1.88803780761656,2.69349524520019,1606.665,2465.575,2103.494,2354.115,-0.003333745,0.006839805,0.03153333,-0.855503559112549,-0.26231724023819,0.496316909790039,-0.789697369743255,-0.339784716610052,0.488860290373601,0
3.5,-2.34604263305664,1.63567423820496,2.69241786003113,-2.5205447997813,1.88129636896134,2.70319439144611,1964.768,3509.48,2938.329,0,-0.008907208,0.005493816,0.03368991,-0.843561112880707,-0.256489455699921,0.46862918138504,-0.777924000354857,-0.334718964672089,0.481572013878822,0
3.52000427246094,-2.36271715164185,1.63064503669739,2.70206785202026,-2.53598752699493,1.87465179486116,2.71275417523047,1586.502,2462.289,2088.665,2371.876,-0.0009390306,0.004918095,0.02782296,-0.833712339401245,-0.251451522111893,0.48249477148056,-0.765994882555673,-0.32958619854407,0.474187321698442,0
3.54000854492188,-2.37914705276489,1.62573289871216,2.71115684509277,-2.55119019794619,1.86811051026429,2.72216535275294,1969.783,3490.88,2931.325,0,-0.006539125,0.003525402,0.02992675,-0.821512997150421,-0.245603770017624,0.454449117183685,-0.753924423002452,-0.324392617007921,0.466715132239272,0
3.56001281738281,-2.39537239074707,1.62092256546021,2.72052717208862,-2.56615004087912,1.86167370777988,2.73142620816457,1570.632,2466.738,2067.732,2385.307,0.001469615,0.002895599,0.02405489,-0.811251401901245,-0.24052020907402,0.468513041734695,-0.741718206886018,-0.31914062321522,0.45915890300049,0
3.58000183105469,-2.41134834289551,1.61622953414917,2.72932887077332,-2.58085326729328,1.85534732021446,2.74052820572674,1960.358,3491.578,2919.336,0,-0.004215784,0.001474044,0.02620988,-0.79880565404892,-0.234654456377029,0.44008070230484,-0.729391385793765,-0.313836736470737,0.451528013536464,0
3.60000610351563,-2.42711162567139,1.61163878440857,2.73841285705566,-2.59531978247425,1.84912278287974,2.74948366775945,1550.906,2463.414,2047.826,2409.237,0.003856459,0.0008217344,0.02036111,-0.788154542446136,-0.229531109333038,0.454201281070709,-0.716930938559024,-0.308475354130224,0.443814403124743,0
3.62001037597656,-2.4426212310791,1.60716581344604,2.74692130088806,-2.60953584173048,1.8430060097325,2.75828408564387,1958.378,3485.439,2907.454,0,-0.001885518,-0.0006141249,0.02252056,-0.775494813919067,-0.223646357655525,0.425422698259354,-0.704352136620513,-0.303063047067126,0.436027525513372,0
3.63999938964844,-2.45791077613831,1.60279631614685,2.75571417808533,-2.6234885835008,1.83700253474321,2.76692149746096,1536.909,2462.77,2027.083,2426.27,0.006195675,-0.001286839,0.01666917,-0.764475464820862,-0.218477755784988,0.439638704061508,-0.691670720740692,-0.297606588091786,0.428177124984152,0
3.66000366210938,-2.47294330596924,1.5985449552536,2.76392722129822,-2.63719712493647,1.83110413233575,2.77540773763803,1941.259,3488.042,2889.341,13.24448,0.0004426342,-0.002687662,0.01886284,-0.75162410736084,-0.212579384446144,0.410653978586197,-0.678873453515702,-0.29210028151913,0.420255006953505,0
3.68000793457031,-2.48774862289429,1.59439754486084,2.77242112159729,-2.65064865588166,1.82531631436231,2.78373487607838,1528.425,2458.27,2011.509,2436.251,0.008483416,-0.003344398,0.01302716,-0.740252614021301,-0.207363307476044,0.424695521593094,-0.665976209205203,-0.286550957599616,0.412270998344358,0
3.70001220703125,-2.5022931098938,1.5903685092926,2.78034067153931,-2.66384123964357,1.81963991412768,2.79190171387692,1922.145,3489.382,2857.393,45.11262,0.002828314,-0.00465414,0.0151792,-0.727240264415741,-0.201450645923615,0.395981997251511,-0.65298533214413,-0.280961346123326,0.404229026602262,0
3.72000122070313,-2.51660346984863,1.58644485473633,2.78852415084839,-2.6767633032417,1.81407991116207,2.79990108680742,1527.818,2458.233,2009.947,2418.762,0.01061505,-0.005259743,0.009411197,-0.715516149997711,-0.196179091930389,0.409175783395767,-0.639917282339434,-0.275338529371411,0.396139281255611,0
3.74000549316406,-2.53065085411072,1.58263969421387,2.79614782333374,-2.6894328975087,1.80862853869646,2.80774416919516,1900.255,3473.345,2822.164,102.5188,0.00520036,-0.006442186,0.0113626,-0.702364385128021,-0.19026654958725,0.381188899278641,-0.626758665639204,-0.269676744214497,0.387993470686332,0
3.760009765625,-2.54445648193359,1.57894051074982,2.80401062965393,-2.70183851231475,1.80329074921818,2.81542383572149,1537.174,2470.589,2022.069,2364.891,0.01253154,-0.006998787,0.005708741,-0.690278589725494,-0.18494875729084,0.393134742975235,-0.613526094901139,-0.263983138701136,0.379801879044709,0
3.77999877929688,-2.55799627304077,1.57535934448242,2.81133794784546,-2.7139695770734,1.79807109095524,2.82293354268985,1878.667,3448.151,2781.347,176.1262,0.007397284,-0.008058726,0.007371927,-0.676987409591675,-0.179063573479652,0.366367012262344,-0.60023651686137,-0.258265004538452,0.371574997167698,0
3.80000305175781,-2.57128715515137,1.57188439369202,2.81886911392212,-2.72584333814708,1.79296214327972,2.83028396642013,1544.124,2494.826,2049.378,2285.528,0.01408086,-0.008574313,0.001954715,-0.664534687995911,-0.173743844032288,0.376563847064972,-0.586876524285838,-0.252516572968186,0.363304525338741,0
3.82000732421875,-2.58430910110474,1.56852579116821,2.82589888572693,-2.73744929742843,1.78796842323393,2.8374686080838,1853.108,3409.729,2737.396,271.9295,0.009366114,-0.009519735,0.003287816,-0.651108384132385,-0.167936757206917,0.35148885846138,-0.573463232144022,-0.246745208083563,0.355001058539243,0
3.84001159667969,-2.59707546234131,1.56527256965637,2.83309316635132,-2.74878645956754,1.78309035908911,2.84448685151184,1556.784,2530.884,2083.112,2181.986,0.01529162,-0.01001668,-0.001774731,-0.63830828666687,-0.162662744522095,0.359708577394485,-0.560003743914976,-0.240953966313175,0.346668994161123,0
3.86000061035156,-2.60957050323486,1.56213307380676,2.83982419967651,-2.75984563331209,1.77833190558438,2.85133300688122,1823.346,3362.673,2691.522,383.6847,0.01109219,-0.0108641,-0.0007600661,-0.624759376049042,-0.156980529427528,0.336549669504166,-0.546515580872635,-0.235150386571708,0.338319178707605,0
3.8800048828125,-2.62180376052856,1.55909705162048,2.84667754173279,-2.77064299647982,1.77368610185671,2.85801708903178,1567.749,2571.993,2120.431,2071.752,0.01628738,-0.01134879,-0.005386509,-0.611657798290253,-0.151793673634529,0.342668563127518,-0.532985466132484,-0.229328756186666,0.329943393154704,0
3.90000915527344,-2.63376402854919,1.55617213249207,2.85311007499695,-2.78116944461445,1.76915686529929,2.86453346187138,1797.443,3310.395,2641.59,502.0674,0.01270261,-0.01211472,-0.004690359,-0.59800785779953,-0.146259918808937,0.3216313123703,-0.519431110871129,-0.223496695782554,0.321552601564443,0
3.91999816894531,-2.64545726776123,1.55334866046906,2.85962295532227,-2.79141684911929,1.7647476934202,2.87087709341145,1582.323,2618.09,2154.176,1956.972,0.01716517,-0.01259728,-0.008850217,-0.584659814834595,-0.141170904040337,0.325645416975021,-0.505870408491346,-0.2176619043907,0.313157880805522,0
3.94000244140625,-2.65687608718872,1.55063247680664,2.8657557964325,-2.8014005971492,1.76045196555656,2.87705750903383,1770.194,3256.172,2592.311,623.6594,0.01420088,-0.01328971,-0.008461395,-0.57093346118927,-0.135795578360558,0.306643307209015,-0.492290296490434,-0.211818761581115,0.30475114456651,0
