t,x_s1,x_s2,x_s3,x_s_d1,x_s_d2,x_s_d3,propellers_rpms1,propellers_rpms2,propellers_rpms3,propellers_rpms4,rollRad,pitchRad,yawRad,v_s1,v_s2,v_s3,v_s_d1,v_s_d2,v_s_d3,insideCount
0,-0.0599999986588955,2.94000005722046,1.17999994754791,-0.0599999986588955,2.94000005722046,1.17999994754791,0,0,0,0,0,0,0,0,0,0,-1.06581410364015E-15,4.44089209850063E-16,4.44089209850063E-16,0
0.0200042724609375,-0.0599999986588955,2.94000005722046,1.1771354675293,-0.0600018701838461,2.93999925195556,1.18000110611101,0,0,0,0,0.0163538,-0.002474609,-2.024222E-05,3.71994488546079E-08,3.50004931704007E-08,-0.143225952982903,-0.000280105751305916,-0.000120521679537258,0.00017339880334547,5
0.040008544921875,-0.0599999986588955,2.94000005722046,1.17048275470734,-0.060014880898484,2.93999365380853,1.18000916036316,0,0,0,0,0.03270752,-0.004950816,-5.430172E-05,3.62924410524101E-08,3.44428769949445E-08,-0.332637369632721,-0.00111143977225461,-0.000478221483967637,0.00068803416424398,6
0.0600128173828125,-0.0600004345178604,2.94013261795044,1.16416549682617,-0.0600499235789167,2.93997857592211,1.18003085345166,3185.406,2835.785,1501.1,2767.662,0.03127991,-0.00494336,-0.01646952,-2.17784399865195E-05,0.0066222520545125,-0.315860867500305,-0.00248060856799822,-0.00106733656662813,0.00153561487136384,6
0.0800018310546875,-0.0599162206053734,2.94038772583008,1.15857708454132,-0.0601175574246769,2.93994947496775,1.18007272202403,3065.867,3067.289,2154.926,2024.011,0.01897359,-0.004311125,-0.04351499,0.00421075755730271,0.0127500332891941,-0.279417961835861,-0.00437268608126799,-0.00188144466206175,0.00270690098422899,6
0.100006103515625,-0.0596375651657581,2.94068765640259,1.15374827384949,-0.0602282404704493,2.93990185114529,1.18014124010193,2639.975,3831.739,2620.523,1134.889,-0.005854161,-0.002888465,-0.07014393,0.013932827860117,0.0149973286315799,-0.241438910365105,-0.00677739276378709,-0.00291612276782231,0.00419552897277328,6
0.120010375976563,-0.0590849071741104,2.94089889526367,1.14957010746002,-0.0603920338334453,2.93983137543704,1.18024263599618,2092.432,4101.934,3169.28,755.8676,-0.04011893,-0.0004511395,-0.08993442,0.0276328176259995,0.010560616850853,-0.208907812833786,-0.00968041450003567,-0.00416521191989172,0.00599263771761404,5
0.1400146484375,-0.0582314841449261,2.94085621833801,1.14596676826477,-0.0606187761383957,2.93973381455767,1.18038300028418,1510.421,4074.854,3735.698,701.9178,-0.07649344,0.002388238,-0.09949782,0.0426710844039917,-0.00213099643588066,-0.1801697909832,-0.0130687916036232,-0.00562313592726786,0.00809020455552005,4
0.160003662109375,-0.0570994541049004,2.94039487838745,1.14297819137573,-0.0609177895434042,2.93960515744296,1.18056810382587,1135.167,3847.011,4069.809,879.9608,-0.106282,0.004335389,-0.09870048,0.0566016100347042,-0.0230689980089664,-0.149431332945824,-0.0169265510445065,-0.00728302204135792,0.0104783414199936,4
0.180007934570313,-0.0557377487421036,2.93938803672791,1.14071118831635,-0.0612988491946875,2.93944119812059,1.1808039979024,1100.43,3565.302,4010.24,1149.179,-0.1236303,0.004492573,-0.0899994,0.0680853426456451,-0.0503404960036278,-0.113347604870796,-0.0212468478482708,-0.00914192506089775,0.0131528109458008,3
0.20001220703125,-0.0541965141892433,2.9377772808075,1.13924860954285,-0.0617708265342762,2.93923811945689,1.181096174359,1373.745,3339.551,3594.687,1386.189,-0.1278749,0.003022905,-0.07724925,0.0770617872476578,-0.0805380195379257,-0.0731271952390671,-0.0260142813927851,-0.0111932185284278,0.0161040794142088,3
0.220001220703125,-0.0525142811238766,2.93557620048523,1.1385840177536,-0.0623420644491781,2.93899233174064,1.18144979784016,1790.946,3213.082,3016.825,1526.891,-0.1229779,0.0008612729,-0.06425995,0.0841116979718208,-0.110052846372128,-0.0332267470657825,-0.03121219533433,-0.0134297356845702,0.019321835755004,3
0.240005493164063,-0.050719641149044,2.93284702301025,1.13860690593719,-0.0630219993990999,2.93869977472688,1.18187070996396,2158.704,3168.435,2517.614,1558.799,-0.1149655,-0.0009875001,-0.05362009,0.0897320359945297,-0.136453807353973,0.00114540755748749,-0.0368361158647881,-0.0158495515746756,0.0228033104678445,3
0.260009765625,-0.0488373450934887,2.92966485023499,1.13913786411285,-0.0638185570309634,2.93835703823113,1.18236381708338,2352.386,3158.956,2273.64,1495.78,-0.109049,-0.001904693,-0.04623674,0.094114750623703,-0.159109726548195,0.0265484005212784,-0.0428699302682246,-0.0184457333472145,0.0265385290140116,3
0.280014038085938,-0.0468918345868587,2.92608761787415,1.13999617099762,-0.0647398147611713,2.93796064676678,1.18293411950397,2352.763,3152.554,2324.092,1363.323,-0.107817,-0.001744903,-0.04152188,0.097275547683239,-0.17886321246624,0.0429179966449738,-0.0493014380023661,-0.0212130314496903,0.0305199386766456,3
0.300003051757813,-0.0449088290333748,2.92214369773865,1.14106214046478,-0.0657927507678135,2.93750759781875,1.18358593705038,2229.25,3143.925,2572.715,1194.61,-0.1110932,-0.000737163,-0.03798626,0.0991501435637474,-0.197192639112473,0.0533004030585289,-0.0561132031658829,-0.0241439437008635,0.0347367458022363,3
0.32000732421875,-0.0429170280694962,2.91783547401428,1.14229381084442,-0.0669865614821475,2.93699393441958,1.18432496275165,2073.253,3132.583,2873.833,1032.737,-0.1169346,0.000686906,-0.03397767,0.0995900705456734,-0.215407222509384,0.0615863278508186,-0.0633036493784043,-0.0272377918282996,0.0391879745362408,3
0.340011596679688,-0.0409490875899792,2.91315102577209,1.14370739459991,-0.0683278498358171,2.93641681551226,1.18515528413699,1955.843,3107.046,3108.956,921.7288,-0.1228404,0.00206999,-0.02837545,0.09839728474617,-0.234228149056435,0.0706794112920761,-0.0708558471483356,-0.0304872915447207,0.0438631447168985,3
0.360000610351563,-0.0390403494238853,2.90807700157166,1.145343542099,-0.0698225328270578,2.93577369517774,1.1860805641102,1904.906,3066.252,3222.155,880.0884,-0.1267111,0.003092855,-0.0208696,0.095436803996563,-0.253695756196976,0.0818078592419624,-0.0787518717320621,-0.0338847303337087,0.0487511600740379,3
0.3800048828125,-0.0372259095311165,2.90261006355286,1.14724338054657,-0.0714797725314022,2.93506063123087,1.18710647443246,1923.033,3020.899,3207.663,896.6167,-0.1274195,0.003642878,-0.01188143,0.0907219648361206,-0.273343980312347,0.0949945077300072,-0.0869921272359981,-0.0374302820709642,0.0538522707687797,3
0.400009155273438,-0.0355375483632088,2.89676094055176,1.14943170547485,-0.0733051402689975,2.93427522648826,1.18823646401636,1991.88,2988.899,3098.257,939.4393,-0.1250333,0.003790842,-0.002209891,0.0844183340668678,-0.292455196380615,0.109418623149395,-0.0955591682828665,-0.0411164404980124,0.0591556772815509,3
0.420013427734375,-0.0340022817254066,2.89055442810059,1.15190613269806,-0.0753050585276311,2.93341471753282,1.18947450868777,2072.593,2975.194,2953.278,985.7797,-0.1205054,0.003707574,0.007339281,0.0767631232738495,-0.310326933860779,0.123721823096275,-0.104441553474511,-0.0449382827008623,0.0646542968418633,3
0.44000244140625,-0.0326428860425949,2.88402414321899,1.15464210510254,-0.077483988232608,2.93247718495301,1.19082336997196,2136.363,2972.498,2825.113,1023.694,-0.1150821,0.003564086,0.0161494,0.06796994805336,-0.326510280370712,0.136798545718193,-0.113620829717891,-0.048887868829098,0.0703367061060819,4
0.460006713867188,-0.0314787551760674,2.87720704078674,1.15760147571564,-0.0798512213598696,2.93145863067119,1.19228880004469,2167.359,2977.698,2749.932,1039.013,-0.1098735,0.003475894,0.02394751,0.0582066476345062,-0.340851038694382,0.147971451282501,-0.123099793815011,-0.0529664022684887,0.0762046364278779,4
0.480010986328125,-0.0305272080004215,2.8701376914978,1.16074812412262,-0.0824109101018722,2.93035726811493,1.19387336931088,2168.927,2983.575,2731.822,1033.515,-0.1055357,0.00348243,0.03074396,0.0475772172212601,-0.353464215993881,0.157333239912987,-0.132860437136906,-0.0571661344090936,0.082246939608052,4
0.5,-0.0298041123896837,2.86284589767456,1.16405248641968,-0.085166398670376,2.92917165836334,1.1955791479969,2147.135,2990.705,2763.099,1007.326,-0.1022755,0.003568713,0.03680045,0.03615503013134,-0.364584624767303,0.165215343236923,-0.142884000065179,-0.0614789935111996,0.0884520025491718,4
0.520004272460938,-0.0293248873203993,2.85535597801208,1.16749930381775,-0.088127196023106,2.92789770997757,1.19741202260058,2115.542,2991.464,2817.638,979.5313,-0.09983658,0.003687037,0.04241389,0.0239608623087406,-0.37449711561203,0.172340825200081,-0.153174893518032,-0.065906877469682,0.0948225558197254,4
0.540008544921875,-0.0291047133505344,2.84768748283386,1.17108631134033,-0.0912963635428427,2.92653410573011,1.19937388826368,2090.02,2992,2870.185,950.9201,-0.09781631,0.003777338,0.04785747,0.0110086910426617,-0.383428335189819,0.179350420832634,-0.163714777034477,-0.0704418948965508,0.101347245800684,4
0.560012817382813,-0.0291582718491554,2.83985733985901,1.17481684684753,-0.0946787750684717,2.92507874854427,1.20146776212465,2071.17,2989.912,2908.606,933.2144,-0.09578964,0.003794833,0.05329831,-0.00267750676721334,-0.391506224870682,0.186529040336609,-0.174492968360474,-0.0750794495163205,0.10801945966793,5
0.580001831054688,-0.0294997505843639,2.8318817615509,1.17869937419891,-0.0982762614093182,2.92353085067394,1.20369477754168,2063.563,2985.059,2921.714,932.5121,-0.09339333,0.003716684,0.05873792,-0.0170739218592644,-0.398784518241882,0.194126635789871,-0.185490414529404,-0.0798113433697334,0.11482740272751,5
0.600006103515625,-0.0301419831812382,2.8237771987915,1.18273961544037,-0.102098762959148,2.92188613504538,1.20606108809202,2065.717,2984.595,2914.027,937.5336,-0.09050806,0.003538909,0.06411723,-0.0321117900311947,-0.405232816934586,0.202010348439217,-0.196713446836865,-0.0846403006364086,0.121774994352997,5
0.620010375976563,-0.0310964398086071,2.81556105613708,1.18694305419922,-0.106147859919355,2.92014392174208,1.20856767199563,2075.276,2985.754,2885.562,954.0013,-0.08716419,0.003273296,0.06928408,-0.0477229058742523,-0.410811692476273,0.210169672966003,-0.20814339888717,-0.0895582896877615,0.128850679156259,5
0.6400146484375,-0.0323721654713154,2.80725193023682,1.19130563735962,-0.110427588881679,2.91830247393137,1.21121702809507,2083.612,2993.523,2856.102,965.1603,-0.083611,0.002939852,0.07415476,-0.0637865588068962,-0.415458291769028,0.218128651380539,-0.21977002223474,-0.0945609009039674,0.136048112861281,5
0.660003662109375,-0.0339768379926682,2.79886841773987,1.19582390785217,-0.114938248900541,2.91636166293851,1.21400934151928,2087.139,2997.613,2825.676,986.6551,-0.08000509,0.002567049,0.07859629,-0.0802336409687996,-0.419175356626511,0.225911095738411,-0.231574097577923,-0.0996398647564507,0.143355397804799,5
0.680007934570313,-0.0359158776700497,2.79042887687683,1.20048749446869,-0.119690355154666,2.91431696437584,1.21695112166479,2087.297,3008.125,2809.148,991.2783,-0.07661968,0.002168941,0.08261931,-0.0969519466161728,-0.421971410512924,0.233182325959206,-0.243563621239988,-0.104798621839723,0.150777484091833,6
0.70001220703125,-0.0381939895451069,2.78195023536682,1.20529246330261,-0.124683985757554,2.91216834463331,1.22004241688759,2083.573,3013.495,2795.02,1004.168,-0.07352562,0.001761188,0.08618517,-0.113905519247055,-0.423928797245026,0.240250453352928,-0.255719729227087,-0.11002905550423,0.158302694011575,6
0.720001220703125,-0.0408137999475002,2.77344799041748,1.21022737026215,-0.129918284978346,2.90991617190799,1.22328269744952,2076.481,3024.366,2799.383,996.2626,-0.0708992,0.001343061,0.08941564,-0.13098993897438,-0.425110161304474,0.246745258569717,-0.268023157655716,-0.11532287703907,0.16591910230247,6
0.740005493164063,-0.04377805814147,2.76493525505066,1.21529018878937,-0.13540428105644,2.90755570105657,1.22667879035609,2063.446,3023.446,2803.514,1008.14,-0.06857,0.0009301399,0.09229664,-0.148213744163513,-0.425634950399399,0.25314325094223,-0.280482990349159,-0.120683994959631,0.173632332283853,6
0.760009765625,-0.0470883063971996,2.75642371177673,1.22047674655914,-0.141140917956636,2.9050873864615,1.23023004187122,2059.324,3032.111,2812.354,996.5498,-0.06659607,0.0005075788,0.0949472,-0.165512099862099,-0.425579607486725,0.259326249361038,-0.293080296154222,-0.126104263719567,0.181430664670081,6
0.780014038085938,-0.0507458411157131,2.74792289733887,1.22578644752502,-0.147130850634402,2.90251008576961,1.23393809553882,2049.966,3032.279,2818.164,1002.277,-0.06482986,8.309907E-05,0.0973761,-0.182876616716385,-0.425035983324051,0.265485137701035,-0.305805585769442,-0.131579600337561,0.189308225131511,6
0.800003051757813,-0.0547511838376522,2.73944163322449,1.23121762275696,-0.153371683173492,2.89982482987671,1.2378014681726,2045.747,3035.723,2823.295,1000.036,-0.06323623,-0.0003472762,0.09962717,-0.200267612934113,-0.424064576625824,0.271560847759247,-0.318639638509124,-0.13710173468952,0.197253115148089,6
0.82000732421875,-0.0591045655310154,2.73098731040955,1.23677062988281,-0.159875221826383,2.89702653888221,1.24182746840525,2041.268,3036.243,2823.691,1005.849,-0.06172355,-0.0007771104,0.1016872,-0.217668890953064,-0.422721326351166,0.277650326490402,-0.331592781842754,-0.14267511039705,0.205271727915392,6
0.840011596679688,-0.0638056099414825,2.72256636619568,1.24244654178619,-0.166638895824778,2.89411631891588,1.24601450480873,2043.184,3040.829,2817.35,1007.791,-0.0603158,-0.00121014,0.103553,-0.235052049160004,-0.421049773693085,0.283797115087509,-0.344646098867604,-0.148291588045382,0.213352352969496,6
0.860000610351563,-0.0688527971506119,2.71418476104736,1.24824166297913,-0.173659158941841,2.89109569582005,1.2503603820997,2041.84,3045.044,2814.509,1009.336,-0.05907104,-0.001642105,0.1052388,-0.252359718084335,-0.41908398270607,0.289755284786224,-0.357780475378537,-0.153942943326036,0.221483157706883,6
0.8800048828125,-0.0742444843053818,2.70584726333618,1.25415515899658,-0.180948461186242,2.88795931270381,1.25487280742661,2038.438,3045.413,2809.499,1019.543,-0.0579408,-0.002059156,0.1067028,-0.269583940505981,-0.416870027780533,0.295672565698624,-0.371007022483504,-0.159633957038354,0.229671020432672,6
0.900009155273438,-0.0799781978130341,2.69755840301514,1.26018524169922,-0.188503099076414,2.88470876307182,1.25954948815793,2041.381,3051.674,2804.283,1017.672,-0.05702573,-0.002466087,0.107968,-0.286685913801193,-0.414446115493774,0.301506400108337,-0.384306908919572,-0.165356526615982,0.237904283698049,7
0.920013427734375,-0.0860507190227509,2.68932127952576,1.26632785797119,-0.196324452211266,2.88134345332121,1.26439127833112,2038.488,3054.798,2804.645,1019.231,-0.05635941,-0.002855441,0.1090526,-0.303627222776413,-0.411858469247818,0.307128101587296,-0.397671404529394,-0.171106895716105,0.246177543119742,7
0.94000244140625,-0.0924588590860367,2.68113803863525,1.27258157730103,-0.204407453948074,2.87786556348678,1.26939504145298,2035.653,3055.995,2805.072,1023.321,-0.05590934,-0.003219229,0.1099517,-0.320405662059784,-0.409160971641541,0.312685370445251,-0.411081631631503,-0.176876941799768,0.254479112513653,7
0.960006713867188,-0.0991984903812408,2.6730101108551,1.27894175052643,-0.212765478812529,2.87426933888379,1.27456905699201,2033.432,3058.72,2812.899,1017.807,-0.05570481,-0.003559581,0.1107183,-0.336981505155563,-0.406394153833389,0.318011671304703,-0.424549556012544,-0.182671813410681,0.262816399271726,7
0.980010986328125,-0.106266364455223,2.66493773460388,1.28541254997253,-0.221393324468958,2.87055701793193,1.27991010445463,2033.545,3059.23,2810.582,1023.462,-0.05565687,-0.003870106,0.1113218,-0.353393942117691,-0.403618454933167,0.323539018630981,-0.438056556301695,-0.188483498293199,0.271177875878363,7
1,-0.113657459616661,2.65692067146301,1.29198586940765,-0.230284798736574,2.86673126495361,1.28541435058594,2034.127,3064.805,2823.288,1007.429,-0.05590348,-0.004165716,0.1118742,-0.369554758071899,-0.400858253240585,0.32866382598877,-0.451584000205995,-0.194303979492187,0.279552008056641,7
1.02000427246094,-0.121368497610092,2.64895725250244,1.29866755008698,-0.239454009753966,2.86278600961093,1.2910905289958,2027.943,3058.172,2822.791,1025.61,-0.05617619,-0.004416586,0.1122727,-0.385552555322647,-0.398175865411758,0.334083795547485,-0.465144357597929,-0.200138622445408,0.287946515251652,7
1.04000854492188,-0.129394471645355,2.64104580879211,1.30545234680176,-0.248894644448595,2.85872396824263,1.29693473159157,2036.584,3066.886,2832.139,1002.491,-0.05669763,-0.004656271,0.1126444,-0.401299029588699,-0.395578265190125,0.33924001455307,-0.47871923339115,-0.205979512261105,0.296350010028666,7
1.06001281738281,-0.137731790542603,2.63318347930908,1.31234526634216,-0.258606913342529,2.85454505026695,1.30294708869644,2032.306,3061.954,2830.439,1018.561,-0.05725583,-0.004857606,0.1128976,-0.416865050792694,-0.393118321895599,0.344648987054825,-0.492300656572427,-0.21182321923497,0.304757557950783,7
1.08000183105469,-0.146375089883804,2.62536764144897,1.31933963298798,-0.268583149539609,2.85025255453512,1.30912285413647,2037.707,3067.756,2842.425,999.4483,-0.05802602,-0.005041896,0.1131397,-0.432165503501892,-0.390795320272446,0.349717736244202,-0.50587040849135,-0.217661904390701,0.313157880805523,7
1.10000610351563,-0.155320912599564,2.61759448051453,1.32644200325012,-0.278838480013141,2.84583997233313,1.31547139222872,2034.092,3061.622,2840.892,1016.742,-0.05876638,-0.005181979,0.1132634,-0.447291284799576,-0.388654321432114,0.355116784572601,-0.519441457145546,-0.223501147495394,0.321559006401169,7
1.12001037597656,-0.164564028382301,2.60986065864563,1.33364725112915,-0.289365134970699,2.84131064678559,1.32198789310157,2044.79,3070.324,2849.912,993.0446,-0.05971979,-0.005310876,0.1133898,-0.462154597043991,-0.386686891317368,0.360262840986252,-0.532995796775449,-0.22933320117373,0.329949788314817,8
1.1400146484375,-0.174100622534752,2.60216188430786,1.3409606218338,-0.300162704591434,2.83666475422696,1.32867210305637,2041.493,3065.403,2848.69,1008.832,-0.06068439,-0.005399293,0.1134249,-0.476831287145615,-0.384935885667801,0.365670621395111,-0.54652589017629,-0.235154822377061,0.338325560657667,8
1.16000366210938,-0.183925375342369,2.59449410438538,1.34837532043457,-0.311222084148811,2.83190621216671,1.33551838583369,2047.996,3070.994,2862.438,988.2863,-0.0618418,-0.005470666,0.1134781,-0.491238474845886,-0.383388936519623,0.370736479759216,-0.560014026276883,-0.240958390526247,0.34667535943296,8
1.18000793457031,-0.194034934043884,2.58685231208801,1.35589849948883,-0.322559451663168,2.82702805965467,1.34253675639879,2044.814,3064.462,2862.754,1004.987,-0.06294008,-0.005496765,0.1134423,-0.505476415157318,-0.382085889577866,0.376159012317657,-0.573473482003304,-0.246749618311663,0.355007403690405,8
1.20001220703125,-0.204424113035202,2.57923221588135,1.363525390625,-0.334165615614823,2.82203425154496,1.34972152476313,2056.754,3072.973,2874.081,979.1765,-0.06422426,-0.005513276,0.1134437,-0.519459426403046,-0.381007701158524,0.381344676017761,-0.586886736182789,-0.252520966862155,0.363310846989412,8
1.22000122070313,-0.215089574456215,2.57162833213806,1.37126207351685,-0.346030421585499,2.81692915700008,1.35706640485806,2053.953,3067.562,2874.412,994.6415,-0.06547382,-0.005490906,0.1133858,-0.533272504806519,-0.38019210100174,0.386834263801575,-0.600236516861372,-0.258265004538453,0.371574997167698,8
1.24000549316406,-0.22602604329586,2.56403613090515,1.37910056114197,-0.358170848086624,2.8117054706409,1.36458190719098,2059.942,3072.024,2892.943,971.9324,-0.06686239,-0.005454154,0.1133874,-0.54682457447052,-0.379609107971191,0.391926318407059,-0.613536214864368,-0.263987493038594,0.379808143784027,8
1.260009765625,-0.237231433391571,2.55644989013672,1.3870552778244,-0.37057666480527,2.80636759428526,1.37226169871082,2062.093,3066.408,2883.568,993.6938,-0.06810609,-0.005375324,0.113292,-0.560271084308624,-0.37930965423584,0.397738814353943,-0.626768731761373,-0.26968107538565,0.387999702095469,8
1.28001403808594,-0.248699575662613,2.54886531829834,1.39511013031006,-0.383246459856376,2.80091613542787,1.38010490539349,2073.331,3077.928,2909.469,950.6014,-0.06963047,-0.005304484,0.1133398,-0.573407828807831,-0.379225969314575,0.402741432189941,-0.639927289491735,-0.275342835169479,0.396145476159594,8
1.30000305175781,-0.260429710149765,2.54127645492554,1.4032860994339,-0.396168722856641,2.79535604666509,1.38810440176341,2065.534,3062.876,2894.032,999.0748,-0.07084382,-0.005171859,0.1132295,-0.586504280567169,-0.379446744918823,0.408798009157181,-0.652995275331231,-0.280965624398954,0.404235181908735,8
1.32000732421875,-0.272414535284042,2.53367948532104,1.4115583896637,-0.409361504843077,2.78967956113998,1.39627136227237,2083.145,3080.546,2931.876,930.8917,-0.07242307,-0.005064267,0.1133387,-0.599243521690369,-0.379848927259445,0.413614541292191,-0.6659860834168,-0.286555206197011,0.41227711095171,8
1.34001159667969,-0.284655660390854,2.52606797218323,1.41996276378632,-0.422813232584026,2.78389165849082,1.40459862253867,2073.381,3059.594,2897.978,1007.458,-0.0734894,-0.004879444,0.1131918,-0.612054765224457,-0.380580991506577,0.420219987630844,-0.678883253871146,-0.292104498338286,0.420261073840379,8
1.36000061035156,-0.297143548727036,2.51843929290771,1.42845726013184,-0.436511415158101,2.77799771321212,1.41307845008695,2100.556,3090.164,2952.646,897.9822,-0.07520767,-0.004758004,0.1134105,-0.624396204948425,-0.381435066461563,0.424725532531738,-0.691670720740693,-0.297606588091785,0.42817712498415,9
1.3800048828125,-0.309882402420044,2.51078629493713,1.43709290027618,-0.450474904562636,2.77198961381608,1.4217225152016,2072.089,3051.068,2904.419,1027.819,-0.07608065,-0.004517787,0.1132281,-0.636940777301788,-0.38265261054039,0.431779265403748,-0.704361775018035,-0.303067194200314,0.436033492140578,9
1.40000915527344,-0.322860658168793,2.50310778617859,1.44581294059753,-0.464691155755482,2.76587275808388,1.43052305190393,2118.346,3098.541,2974.829,864.8569,-0.07786977,-0.004381965,0.1135505,-0.64891517162323,-0.383920550346375,0.436001151800156,-0.716940488958393,-0.308479463400265,0.443820315276901,9
1.42001342773438,-0.336085498332977,2.49539589881897,1.45468747615814,-0.479157861067077,2.75964813894125,1.43947863163655,2077.559,3046.209,2902.488,1046.483,-0.07853556,-0.004098072,0.1133207,-0.661242842674255,-0.385595202445984,0.443729847669601,-0.729400843645231,-0.313840805920001,0.451533868397062,9
1.44000244140625,-0.349541783332825,2.48765158653259,1.46363246440887,-0.493861275572861,2.75332167044526,1.4485807456364,2133.857,3108.935,3005.621,822.3494,-0.08049618,-0.003963849,0.113808,-0.672816216945648,-0.387216866016388,0.447248518466949,-0.741727567798258,-0.319144650954242,0.459164697851088,9
1.46000671386719,-0.363241732120514,2.47986507415771,1.47275078296661,-0.508821304757097,2.74688478782212,1.45784171634646,2073.237,3032.228,2898.122,1087.166,-0.08076728,-0.003616573,0.1134733,-0.684998095035553,-0.389323592185974,0.455915868282318,-0.753933682518823,-0.324396601119133,0.466720864320996,9
1.48001098632813,-0.377165019512177,2.47204041481018,1.48192226886749,-0.524024159888143,2.74034342397783,1.467253007885,2159.16,3126.305,3039.981,758.6917,-0.08293723,-0.003503655,0.1141706,-0.696163833141327,-0.391228526830673,0.45857235789299,-0.766004036374583,-0.329590137176618,0.474192988348404,9
1.5,-0.391330629587173,2.46416544914246,1.49129462242126,-0.539455198877605,2.73370387899399,1.4768055561018,2069.08,3017.189,2878.229,1144.453,-0.08272897,-0.003096724,0.113678,-0.708278656005859,-0.393744111061096,0.46861544251442,-0.777924000354858,-0.334718964672088,0.481572013878822,9
1.52000427246094,-0.40570941567421,2.45624876022339,1.50068616867065,-0.555135099954955,2.72695725560613,1.48651216180595,2183.183,3148.521,3092.356,670.9469,-0.08529359,-0.003029612,0.1146956,-0.718940675258636,-0.395831525325775,0.469579666852951,-0.789706299681991,-0.339788558913217,0.48886581843107,9
1.54000854492188,-0.420332372188568,2.44827365875244,1.51032412052155,-0.571049184024557,2.72010986981902,1.49636373793799,2053.199,2988.4,2838.483,1248.551,-0.08426082,-0.002525742,0.1138861,-0.731145918369293,-0.398758471012115,0.481897681951523,-0.801336412291853,-0.344792671461508,0.496065412155667,9
1.56001281738281,-0.435155987739563,2.44025540351868,1.51993024349213,-0.587194353912065,2.71316305426025,1.50635836719945,2227.473,3190.637,3159.351,525.329,-0.08756261,-0.002556102,0.1153828,-0.741182386875153,-0.400907188653946,0.48030811548233,-0.812809078412023,-0.349729039183831,0.50316753900293,9
1.58000183105469,-0.450228720903397,2.43217015266418,1.52984595298767,-0.60355483331529,2.70612359703193,1.51648628330776,2016.619,2942.879,2775.868,1414.107,-0.08539639,-0.00191428,0.1140944,-0.753634512424469,-0.404260665178299,0.495782822370529,-0.824110582941666,-0.354591760855452,0.510163708672098,9
1.60000610351563,-0.465485811233521,2.42404389381409,1.53965079784393,-0.620152298932711,2.69898217125626,1.52676090517188,2281.501,3247.348,3260.591,317.12,-0.08977569,-0.002083125,0.1162783,-0.762858867645264,-0.40631902217865,0.490240156650543,-0.835253140422976,-0.35938609205264,0.51706148254665,9
1.62001037597656,-0.481003105640411,2.41584062576294,1.54986608028412,-0.636970945360177,2.69174557755711,1.53717244849371,1962.135,2876.353,2668.002,1667.01,-0.0858667,-0.001233044,0.1142197,-0.775861084461212,-0.410166323184967,0.510764837265015,-0.846223126656604,-0.364106170663034,0.523852426598179,9
1.63999938964844,-0.496682524681091,2.40760183334351,1.55985128879547,-0.653994195024907,2.68442094880091,1.54771065096602,2361.788,3344.308,3397.797,0,-0.09201647,-0.001613343,0.1174723,-0.783974051475525,-0.411943107843399,0.4992615878582,-0.857007552155828,-0.368746407673381,0.530528499715628,9
1.66000366210938,-0.512640416622162,2.39927387237549,1.5703911781311,-0.671244443874359,2.67699864863716,1.55838937674714,1864.767,2771.305,2505.383,2059.764,-0.08557802,-0.0004255731,0.114271,-0.797896146774292,-0.416393309831619,0.526992559432983,-0.867618167158098,-0.373311858882592,0.53709697585572,9
1.68000793457031,-0.528749823570251,2.39090657234192,1.5806941986084,-0.688705090349012,2.66948582025311,1.56919834868089,2112.646,3755.43,3234.6,0,-0.09128517,0.0004057455,0.1197126,-0.805471241474152,-0.41836816072464,0.515153884887695,-0.878042061913515,-0.377796969585941,0.543549863268291,9
1.70001220703125,-0.54513031244278,2.38245534896851,1.59149837493896,-0.706372354049449,2.66188409024902,1.58013522651994,1980.938,2559.246,2442.496,2217.311,-0.08432847,0.002649528,0.1161668,-0.81902539730072,-0.422555804252625,0.540207922458649,-0.888274735793774,-0.382199803288802,0.549884375850026,9
1.72000122070313,-0.561655819416046,2.37397384643555,1.60202944278717,-0.724228658537036,2.6542010212754,1.5911891296115,2225.951,3637.956,3248.492,0,-0.0900026,0.004222008,0.1200916,-0.826273441314697,-0.424061954021454,0.526554048061371,-0.898304216251578,-0.386515208538549,0.556093102023817,9
1.74000549316406,-0.57844352722168,2.36542129516602,1.61304223537445,-0.742297311768984,2.64642658456943,1.60237448669139,2071.573,2532.08,2501.777,2106.633,-0.08386081,0.006873079,0.1150503,-0.83938604593277,-0.427633702754974,0.550637125968933,-0.908141534469281,-0.390747931744771,0.562182870617028,9
1.760009765625,-0.595370650291443,2.3568422794342,1.62382459640503,-0.760560719141003,2.63856835059778,1.61368040586141,2185.481,3720.617,3217.532,0,-0.09011178,0.008986569,0.1181004,-0.846359670162201,-0.42895320057869,0.539121150970459,-0.91777478390713,-0.394892849856044,0.568146310914365,9
1.78001403808594,-0.612533986568451,2.34820032119751,1.6349949836731,-0.779014757547905,2.63062809341744,1.62510433472304,2145.235,2525.415,2661.14,1873.681,-0.08641851,0.01173864,0.1130717,-0.858167290687561,-0.432098507881165,0.558517456054688,-0.927199897745281,-0.398948213033403,0.573980905360616,9
1.80000305175781,-0.629830062389374,2.3395311832428,1.64595448970795,-0.797640935141499,2.62261376955408,1.63663482594136,2263.968,3532.42,3337.02,0,-0.09330545,0.0136281,0.1147933,-0.864802658557892,-0.433457285165787,0.547977983951569,-0.936405971974637,-0.402909329586356,0.579679903854719,9
1.82000732421875,-0.647345304489136,2.33079504966736,1.65727698802948,-0.816463410111527,2.61451498441355,1.64828683458664,2136.123,2598.11,2829.795,1642.582,-0.09090593,0.01591741,0.110138,-0.875762403011322,-0.436807513237,0.566123306751251,-0.94540321420156,-0.406780591562751,0.585249625391268,9
1.84001159667969,-0.664989233016968,2.32202053070068,1.66843807697296,-0.835463677219795,2.60633970028288,1.66004890503489,2250.045,3493.205,3395.625,0,-0.09748501,0.01733717,0.1121214,-0.88219290971756,-0.438723742961884,0.558052837848663,-0.954180774018563,-0.410557330335375,0.590683353051152,9
1.86000061035156,-0.682839572429657,2.31316781044006,1.67994344234467,-0.854622615239374,2.59809614449182,1.6719092003358,2124.414,2644.956,2914.001,1517.762,-0.09517765,0.01905808,0.1087245,-0.892522513866425,-0.442637413740158,0.575267195701599,-0.962728579444532,-0.414235212212131,0.595974851798267,9
1.8800048828125,-0.700814247131348,2.30426716804504,1.69129288196564,-0.873964974649439,2.58977366760063,1.68388304221498,2300.242,3380.934,3457.591,0,-0.1008662,0.01973566,0.1111601,-0.89873206615448,-0.445027738809586,0.567470967769623,-0.971056158224177,-0.417818336715394,0.601130019760457,9
1.90000915527344,-0.718995749950409,2.29527640342712,1.7030268907547,-0.893471623792247,2.58138050142717,1.69595858726494,2088.387,2691.294,2879.328,1544.446,-0.09708127,0.02085482,0.1084908,-0.909078896045685,-0.449540674686432,0.586701214313507,-0.979153483542501,-0.421302389586788,0.606142649861596,9
1.92001342773438,-0.737296462059021,2.28623223304749,1.71460461616516,-0.913137923350175,2.5729186421402,1.70813296352707,2285.55,3440.955,3407.907,0,-0.1017929,0.0210504,0.1120395,-0.915032505989075,-0.452203512191772,0.578888297080994,-0.987017247723777,-0.424685947625853,0.611010694492843,9
1.94000244140625,-0.755803942680359,2.27709436416626,1.72658145427704,-0.932943991899774,2.5643966441608,1.72039386345315,2067.928,2681.847,2784.582,1667.787,-0.0965806,0.02189795,0.1098526,-0.925374507904053,-0.456889480352402,0.598843812942505,-0.994638524886308,-0.427965170275055,0.615728628108227,9
1.96000671386719,-0.774423718452454,2.26790809631348,1.73836755752563,-0.952915303453826,2.55580354673295,1.73275705667061,2305.991,3450.98,3373.485,0,-0.1007639,0.02182252,0.1138293,-0.930990874767303,-0.459314525127411,0.589302957057953,-1.00202586176059,-0.431143734953757,0.620301741541062,9
1.98001098632813,-0.793253540992737,2.25863265991211,1.75058138370514,-0.973031969359004,2.54714790738853,1.74521023115561,2052.749,2669.634,2682.067,1802.508,-0.09441172,0.02260182,0.1113324,-0.941488206386566,-0.463771015405655,0.61068868637085,-1.00917036754089,-0.434217816196637,0.624724530959079,9
2,-0.812188804149628,2.24931764602661,1.76258158683777,-0.993273599084619,2.53843849960327,1.7577407641983,2266.617,3552.899,3308.346,0,-0.09857797,0.02262974,0.1157068,-0.946765780448914,-0.46575453877449,0.600008130073547,-1.01606400046349,-0.437183953857422,0.628992018127441,9
2.02000427246094,-0.831330955028534,2.23992514610291,1.77499556541443,-1.01366615605493,2.52966415204104,1.77036472839513,2054.342,2624.462,2638.274,1890.099,-0.09201434,0.02359308,0.1128777,-0.957102537155151,-0.469622820615768,0.620699048042297,-1.02271452148052,-0.440045487257004,0.633109007445237,9
2.04000854492188,-0.850573122501373,2.23050498962402,1.78717589378357,-1.03418924440916,2.52083364047092,1.78306949773667,2273.4,3554.322,3300.742,0,-0.09635796,0.02377455,0.1168854,-0.962112605571747,-0.471005409955978,0.609016716480255,-1.02911391720548,-0.442798968459032,0.637070538244476,9
2.06001281738281,-0.870017826557159,2.22102069854736,1.79976296424866,-1.05483781489696,2.5119491374443,1.79585194649644,2067.201,2611.674,2640.578,1889.169,-0.09004521,0.02485118,0.1135607,-0.972237944602966,-0.474217563867569,0.629352509975433,-1.03525963910674,-0.445443300901551,0.64087503286269,9
2.08000183105469,-0.889557659626007,2.21151876449585,1.81211352348328,-1.07559088172821,2.50301967256038,1.80869908347065,2247.218,3578.748,3301.966,0,-0.09461199,0.02518736,0.1173223,-0.976988613605499,-0.475096642971039,0.617529332637787,-1.04114485287423,-0.447975543971863,0.644518260536375,9
2.10000610351563,-0.909291982650757,2.20196437835693,1.82484996318817,-1.09647498538954,2.49403382618922,1.82162733848484,2076.619,2596.663,2676.947,1854.102,-0.0886806,0.02633215,0.1138198,-0.986712992191315,-0.477721631526947,0.636822581291199,-1.04677621342161,-0.450398561093403,0.648004340974112,9
2.12001037597656,-0.929116547107697,2.19240069389343,1.83735382556915,-1.11746913671118,2.48500062938421,1.83462371824305,2256.946,3547.052,3321.168,0,-0.09323461,0.02666056,0.1171907,-0.991230607032776,-0.478182882070541,0.625196218490601,-1.05214690704168,-0.452709420518306,0.651329056166548,9
2.13999938964844,-0.949127495288849,2.18279361724854,1.85023379325867,-1.138551967509,2.47592927627801,1.8476749948214,2084.476,2608.582,2705.476,1798.778,-0.08755195,0.02770849,0.1136239,-1.00054836273193,-0.480352342128754,0.643996238708496,-1.05725102347782,-0.454905579228273,0.654488747383304,8
2.16000366210938,-0.969222366809845,2.17318415641785,1.86288070678711,-1.15975039167652,2.46680818657414,1.86079782920208,2249.982,3529.707,3337.665,0,-0.09200636,0.02791291,0.1168753,-1.0047425031662,-0.480478972196579,0.632346272468567,-1.0620943502576,-0.456989527434725,0.657486997379635,8
2.18000793457031,-0.989496231079102,2.16353797912598,1.87590348720551,-1.18104303873349,2.45764655539322,1.87397899203979,2078.531,2616.489,2707.46,1784.745,-0.08618575,0.02881956,0.1133361,-1.01369154453278,-0.482307285070419,0.651137948036194,-1.06667099276523,-0.458958728849171,0.660320157107579,8
2.20001220703125,-1.00984632968903,2.15389513969421,1.88869023323059,-1.20242455577657,2.44844668594002,1.88721516963236,2244.85,3531.262,3329.276,0,-0.09047184,0.02887614,0.1166464,-1.01751387119293,-0.482136785984039,0.639338195323944,-1.07097916161324,-0.460812413548163,0.662987118851036,7
2.22000122070313,-1.03036749362946,2.14422273635864,1.9018474817276,-1.22387315175433,2.43921795429519,1.90049287228091,2066.527,2616.325,2693.207,1797.982,-0.08441315,0.02965931,0.1131512,-1.02605617046356,-0.483617931604385,0.657860636711121,-1.07501419914593,-0.462548577472581,0.665484999299265,7
2.24000549316406,-1.05095648765564,2.13456058502197,1.91475546360016,-1.24541615591711,2.42994860144581,1.91382901809327,2244.053,3521.669,3325.469,0,-0.08852188,0.0295666,0.1164569,-1.02944731712341,-0.483090728521347,0.645397663116455,-1.07878069424208,-0.464169195088763,0.667816639186824,5
2.260009765625,-1.07170963287354,2.12487697601318,1.92804026603699,-1.26703177594152,2.42064800401982,1.92721011658316,2054.864,2617.203,2659.174,1829.885,-0.08208928,0.0302453,0.1128428,-1.03764963150024,-0.484198361635208,0.664237558841705,-1.08227399942825,-0.465672266718726,0.669979161506271,5
2.28001403808594,-1.09252095222473,2.11521100997925,1.94106388092041,-1.28871453312265,2.41131851935089,1.94063277617124,2226.173,3551.104,3297.605,0,-0.08615433,0.03008972,0.1162636,-1.04057097434998,-0.483298987150192,0.651178300380707,-1.08549275912543,-0.467057209094684,0.67197172708961,2
2.30000305175781,-1.11348736286163,2.10553169250488,1.95445597171783,-1.31044231452835,2.40196966201596,1.95408330789913,2042.922,2602.821,2630.932,1868.637,-0.07954916,0.03074713,0.1125361,-1.04831945896149,-0.483965665102005,0.669602155685425,-1.08843358680109,-0.468322565086307,0.673792239511894,0
2.32000732421875,-1.13450217247009,2.09587907791138,1.96756815910339,-1.33224276726637,2.39258953623693,1.96757882664355,2220.777,3546.605,3290.932,0,-0.08361474,0.03055219,0.1158417,-1.05074238777161,-0.482634872198105,0.655611515045166,-1.09109983431736,-0.469469776906228,0.675442773735451,0
2.34001159667969,-1.15566372871399,2.08622217178345,1.98105096817017,-1.35409377777295,2.38318765686251,1.9811056430551,2034.855,2595.685,2603.476,1896.523,-0.07683592,0.03118935,0.1118493,-1.05807018280029,-0.482847034931183,0.674143135547638,-1.09348812118877,-0.470497390025984,0.676921237078733,0
2.36000061035156,-1.17686367034912,2.07659959793091,1.99424409866333,-1.37597305876702,2.37377361348711,1.99464996024512,2197.979,3576.58,3266.077,0,-0.08098619,0.03101885,0.1151508,-1.05998861789703,-0.481124192476273,0.659654259681702,-1.09559602313537,-0.471404361345641,0.678226128796969,0
2.3800048828125,-1.19819808006287,2.06698226928711,2.00779104232788,-1.39790843013262,2.36433543599182,2.00822900004707,2025.785,2577.547,2596.416,1912.319,-0.07426118,0.03167631,0.111021,-1.06673240661621,-0.480865746736526,0.677344143390656,-1.09742594550583,-0.472191725819537,0.679358937915576,0
2.40000915527344,-1.21956121921539,2.05740737915039,2.02103805541992,-1.41987760424917,2.35488271411715,2.02182896536211,2205.174,3554.68,3263.361,0,-0.07845087,0.03146478,0.114032,-1.06815671920776,-0.478749066591263,0.662349224090576,-1.09897546783438,-0.472858441988871,0.680318166050934,0
2.42001342773438,-1.24104785919189,2.0478458404541,2.03463363647461,-1.44187496577138,2.34541786398928,2.035446380024,2020.329,2581.801,2588.375,1903.739,-0.07183345,0.03205322,0.1097098,-1.07433354854584,-0.478073000907898,0.679773926734924,-1.1002439936861,-0.473404253224357,0.681103443981416,0
2.44000244140625,-1.26255202293396,2.03833317756653,2.04791975021362,-1.46387808506052,2.33595053645515,2.04906735901791,2185.783,3560.888,3257.126,0,-0.07613019,0.03178759,0.1126529,-1.07521033287048,-0.475635349750519,0.664307236671448,-1.10123038958312,-0.473828671822132,0.681714070030222,0
2.46000671386719,-1.28416776657104,2.02884078025818,2.06154561042786,-1.48591492338117,2.32646870056377,2.06270921169857,2004.243,2574.747,2583.023,1912.355,-0.06950318,0.03232238,0.1082629,-1.08077955245972,-0.474614411592484,0.681294023990631,-1.10193578218388,-0.474132182551855,0.682150741652607,0
2.48001098632813,-1.30579006671906,2.01940298080444,2.07485461235046,-1.5079630509786,2.31698200721197,2.07635805297935,2181.877,3552.302,3249.495,0,-0.07377435,0.03197805,0.11111,-1.08112335205078,-0.471895575523376,0.665450751781464,-1.10235904000526,-0.474314298567936,0.682412758406602,0
2.5,-1.32751214504242,2.00999164581299,2.08849954605103,-1.52999999932945,2.30750012397766,2.08999997377396,1994.424,2575.302,2565.825,1918.484,-0.06710473,0.03242732,0.1066456,-1.08609890937805,-0.470569550991058,0.682246685028076,-1.10250000050292,-0.474374949932098,0.682500019669533,0
2.52000427246094,-1.34922909736633,2.00063991546631,2.10181307792664,-1.55205376834272,2.29801100328223,2.10365230735988,2166.459,3550.954,3244.425,0,-0.07138497,0.03200237,0.1094851,-1.08585619926453,-0.467585325241089,0.665672302246094,-1.10235882472314,-0.474314205938057,0.682412625136718,0
2.54000854492188,-1.37103486061096,1.99132013320923,2.11546540260315,-1.57410188948011,2.28852431271001,2.11730114464159,1979.366,2568.44,2537.1,1948.94,-0.06448738,0.03239483,0.1048901,-1.09028041362762,-0.465985119342804,0.682621657848358,-1.10193535162022,-0.474131997292339,0.682150475113189,0
2.56001281738281,-1.39282393455505,1.98206508159637,2.12877559661865,-1.59613871703568,2.27904248145054,2.13094299065815,2148.648,3571.166,3219.409,0,-0.06878519,0.03194569,0.1077874,-1.08945846557617,-0.462756246328354,0.665505826473236,-1.10122974390336,-0.473828394004169,0.681713670323692,0
2.58000183105469,-1.41468906402588,1.97284781932831,2.14241504669189,-1.61814182127198,2.26957516039323,2.14456396033363,1966.58,2553.393,2514.813,1976.988,-0.06180504,0.03232644,0.1030877,-1.09324872493744,-0.46085786819458,0.68197363615036,-1.10024313330221,-0.473403883025206,0.681102911362804,0
2.60000610351563,-1.43652582168579,1.96370077133179,2.15569686889648,-1.64013916343638,2.26011031859448,2.15818136301212,2144.653,3560.207,3212.165,0,-0.06612469,0.03184174,0.10584,-1.09183955192566,-0.457358926534653,0.664086401462555,-1.09897439291323,-0.472857979480329,0.680317500623536,0
2.62001037597656,-1.45842623710632,1.95459723472595,2.16930818557739,-1.66210831390746,2.25065760689379,2.17178131368948,1956.578,2548.686,2491.213,1994.658,-0.05905506,0.03218384,0.1009297,-1.09502613544464,-0.455168634653091,0.680570900440216,-1.09742465646102,-0.47219117117957,0.679358139935436,0
2.63999938964844,-1.48028683662415,1.94556856155396,2.18255352973938,-1.68402693989188,2.24122663446822,2.18534998730279,2125.841,3580.146,3188.298,0,-0.06348443,0.03169267,0.1036639,-1.0930290222168,-0.451441019773483,0.662270307540894,-1.09559602313537,-0.471404361345641,0.67822612879697,0
2.66000366210938,-1.50219702720642,1.93658900260925,2.19611287117004,-1.70592290617745,2.23180541187802,2.19890463348308,1941.513,2535.362,2483.971,2007.099,-0.05649843,0.03202225,0.09868065,-1.09550130367279,-0.448973715305328,0.677969396114349,-1.09348640563071,-0.470496651869278,0.67692017506657,0
2.68000793457031,-1.52405571937561,1.92768859863281,2.20929718017578,-1.72777388024004,2.22240354818443,2.21243142733407,2132.644,3555.52,3184.289,0,-0.06098372,0.03146134,0.1011782,-1.09293615818024,-0.445028901100159,0.659217059612274,-1.09109790637238,-0.469468947365361,0.675441580245664,0
2.70001220703125,-1.54595041275024,1.91884171962738,2.22279191017151,-1.74957429229274,2.21302343991116,2.22592692089233,1929.646,2541.552,2473,2002.165,-0.0540888,0.03169798,0.09608312,-1.09473586082458,-0.442335993051529,0.674733698368073,-1.08843144721369,-0.468321644481621,0.673790915005369,0
2.72000122070313,-1.56778192520142,1.91007697582245,2.2359025478363,-1.77130202882336,2.20367460188472,2.23937742484041,2114.448,3558.858,3176.272,0,-0.05868169,0.03106081,0.09857539,-1.09157526493073,-0.438234746456146,0.65552693605423,-1.08549040888332,-0.467056197851165,0.671970272177789,0
2.74000549316406,-1.58963596820831,1.90136957168579,2.24931764602661,-1.79298473688851,2.19434513834902,2.25280005402337,1907.848,2535.804,2462.234,2018.023,-0.05172817,0.03123056,0.09347625,-1.09270417690277,-0.435375958681107,0.670754432678223,-1.08227143928024,-0.465671165158559,0.669977576652695,0
2.760009765625,-1.61141550540924,1.89274668693542,2.26234102249146,-1.81460030360772,2.18504456385877,2.26618111951479,2110.532,3550.657,3165.667,0,-0.0562923,0.03050895,0.09594003,-1.0889835357666,-0.431139647960663,0.651172578334808,-1.07877792518082,-0.464168003639063,0.667814925005998,0
2.78001403808594,-1.63320505619049,1.88418436050415,2.2756679058075,-1.83614325029677,2.17577523573873,2.27951722974818,1893.904,2535.618,2439.757,2032.548,-0.04924611,0.03059467,0.09080987,-1.0894775390625,-0.428125947713852,0.666340410709381,-1.07501122224683,-0.462547296596067,0.665483156456918,0
2.80000305175781,-1.65490877628326,1.87570905685425,2.28859043121338,-1.85759178470316,2.16654653058634,2.29279489428112,2098.962,3550.018,3154.41,0,-0.0538374,0.02979522,0.09329544,-1.08518135547638,-0.423754692077637,0.646121084690094,-1.07097597819164,-0.460811043810786,0.662985148161422,0
2.82000732421875,-1.67660999298096,1.86729741096497,2.30181574821472,-1.87897323600723,2.1573466894188,2.30603103117811,1872.498,2528.063,2415.935,2063.562,-0.04658881,0.029829,0.0880952,-1.08506214618683,-0.42058402299881,0.661264359951019,-1.06666760390385,-0.458957270716794,0.660318059240952,0
2.84001159667969,-1.69821429252625,1.85897612571716,2.31462788581848,-1.90026581322863,2.14818508828617,2.31921215078427,2089.924,3556.388,3133.939,0,-0.05116092,0.02898648,0.09058663,-1.08022010326385,-0.416069328784943,0.640608012676239,-1.06209075728,-0.456987981476842,0.657484773155346,0
2.86000061035156,-1.71980381011963,1.85072159767151,2.32773995399475,-1.9214480311499,2.13907097167731,2.33232495272651,1861.215,2522.119,2388.321,2086.126,-0.04384575,0.02897943,0.0853037,-1.07947278022766,-0.412718087434769,0.655600726604462,-1.05725102347782,-0.454905579228273,0.654488747383304,0
2.8800048828125,-1.74128496646881,1.84256076812744,2.34042286872864,-1.94254691640495,2.12999271078668,2.34538616777867,2078.084,3553.2,3125.45,0,-0.0484967,0.02810218,0.08775343,-1.074063539505,-0.408046662807465,0.634147346019745,-1.0521429102862,-0.45270770082608,0.651326581984514,0
2.90000915527344,-1.76273953914642,1.83447003364563,2.35340905189514,-1.96354098577478,2.12095954924324,2.35838249680481,1845.563,2513.929,2360.807,2116.417,-0.04104251,0.02807036,0.08230999,-1.07271957397461,-0.404523193836212,0.649307548999786,-1.04677201701582,-0.450396755497224,0.648001743199023,0
2.92001342773438,-1.7840747833252,1.82647585868835,2.36595797538757,-1.98442500350686,2.11197373984504,2.37131069862469,2059.335,3573.094,3101.014,0,-0.0457872,0.02720903,0.08479463,-1.06676876544952,-0.39971598982811,0.627443253993988,-1.04114045847258,-0.4479736531836,0.644515540192422,0
2.94000244140625,-1.80537009239197,1.81855535507202,2.37879943847656,-2.00517798053537,2.10304431360073,2.38415778000673,1832.138,2499.799,2346.291,2135.57,-0.03837296,0.02718615,0.07928641,-1.06476151943207,-0.396018445491791,0.642068862915039,-1.03525504859546,-0.445441325732794,0.640872191117535,0
2.96000671386719,-1.82653570175171,1.81073403358459,2.3911919593811,-2.02582645724542,2.09415985092405,2.3969401707136,2059.097,3553.319,3098.633,0,-0.04317517,0.02630105,0.08160379,-1.05828475952148,-0.391075730323792,0.619621098041534,-1.02910913225408,-0.442796909628122,0.637067576131623,0
2.98001098632813,-1.84764862060547,1.80298948287964,2.40387773513794,-2.04634944795115,2.08532938136936,2.40964487960608,1819.869,2499.51,2331.37,2142.021,-0.03574441,0.02623082,0.07596417,-1.05565249919891,-0.387228786945343,0.634292304515839,-1.02270954399162,-0.440043345582586,0.633105926142498,0
3,-1.86862182617188,1.79534578323364,2.41611051559448,-2.06672639957428,2.07656174835205,2.42225918334961,2043.859,3565.009,3079.428,0,-0.04063984,0.02532341,0.07828719,-1.048659324646,-0.382190525531769,0.611641108989716,-1.01606400046349,-0.437183953857422,0.628992018127441,0
3.02000427246094,-1.88952898979187,1.78778123855591,2.42862486839294,-2.0869834279768,2.06784571494631,2.43479924890685,1801.141,2492.341,2325.369,2150.645,-0.03327407,0.0252214,0.07267519,-1.04535305500031,-0.378222525119781,0.625716328620911,-1.00916501115878,-0.434215511495054,0.624721215103391,0
3.04000854492188,-1.91028642654419,1.78031921386719,2.44067931175232,-2.10709998486405,2.05919012250926,2.44725235590455,2052.411,3537.266,3076.496,0,-0.0381892,0.02422717,0.07483829,-1.03787183761597,-0.37309941649437,0.602718234062195,-1.00202031904361,-0.431141350077486,0.620298310335216,0
3.06001281738281,-1.93096530437469,1.77293848991394,2.45301604270935,-2.12707118369488,2.05059707358306,2.45961547934097,1784.693,2501.073,2310.216,2152.149,-0.03082716,0.02402353,0.06919791,-1.03394877910614,-0.369038581848145,0.616840839385986,-0.994632798067981,-0.427962706185117,0.615725082934876,0
3.08000183105469,-1.95148479938507,1.7656614780426,2.46488499641418,-2.14687713595163,2.04207512564123,2.47187630727625,2037.064,3540.127,3065.926,0,-0.03580833,0.02294794,0.07142592,-1.02597153186798,-0.363859266042709,0.593444466590881,-0.987011339258122,-0.424683405378145,0.611007036871143,0
3.10000610351563,-1.97191405296326,1.75846672058105,2.47703504562378,-2.16654331551667,2.03361331798384,2.48405060925705,1760.414,2496.823,2291.667,2177.239,-0.02831366,0.02268033,0.06582803,-1.02145755290985,-0.359728455543518,0.607504785060883,-0.979147395688901,-0.421299770153459,0.606138881190213,0
3.12001037597656,-1.99217450618744,1.7513769865036,2.48870921134949,-2.18604984110275,2.02522020497339,2.49612607781951,2034.017,3533.607,3052.684,0,-0.03326714,0.02153379,0.06808021,-1.01302516460419,-0.354484617710114,0.583703696727753,-0.971049893464309,-0.41781564116424,0.601126141575667,0
3.13999938964844,-2.01233339309692,1.74437189102173,2.50066661834717,-2.20537738341953,2.01690410346351,2.50809074721212,1744.532,2495.406,2263.957,2200.871,-0.02563559,0.02120256,0.0624635,-1.00795936584473,-0.350259721279144,0.597870290279388,-0.962728579444533,-0.414235212212131,0.595974851798267,0
3.16000366210938,-2.03231501579285,1.73747313022614,2.51213479042053,-2.22455088103183,2.00865428308644,2.51996005559448,2021.681,3534.214,3041.157,0,-0.03061677,0.02001174,0.06476287,-0.999075472354889,-0.344931781291962,0.573407351970673,-0.954174163352092,-0.410554485950274,0.590679260733698,0
3.18000793457031,-2.05218458175659,1.73066139221191,2.52389121055603,-2.24355101420387,2.00047905658478,2.53172204312984,1727.64,2487.418,2232.707,2236.263,-0.02278707,0.01965068,0.05905887,-0.993488311767578,-0.340593010187149,0.587823152542114,-0.945396434568188,-0.406777674475913,0.585245428475253,0
3.20001220703125,-2.07186841964722,1.7239578962326,2.53514933586121,-2.26237335188561,1.99238033051557,2.54337396678712,2009.13,3547.462,3017.482,0,-0.02782843,0.01846496,0.06140357,-0.984179317951202,-0.335166037082672,0.562908172607422,-0.93639902618694,-0.402906341007952,0.579675604081262,0
3.22000122070313,-2.09142923355103,1.71734428405762,2.5466902256012,-2.28099938900442,1.98436606709459,2.55490437104486,1712.537,2475.939,2211.54,2262.199,-0.01996998,0.01811275,0.05563439,-0.97804206609726,-0.330688983201981,0.577038884162903,-0.927192788821982,-0.398945154262308,0.573976504598449,0
3.24000549316406,-2.11079549789429,1.71084105968475,2.55772137641907,-2.29945328359428,1.9764258717947,2.56632821087688,2006.701,3535.104,3010.173,0,-0.02508005,0.01692334,0.0578621,-0.968324720859528,-0.325157642364502,0.551558673381805,-0.91776751470058,-0.394889722119544,0.568141810929231,0
3.260009765625,-2.13002848625183,1.704430103302,2.56903648376465,-2.31771654397337,1.96856770107001,2.57763403905129,1699.864,2474.06,2193.323,2274.58,-0.01721361,0.0165481,0.05197666,-0.96164858341217,-0.320551156997681,0.56576019525528,-0.908134108040216,-0.390744736359816,0.562178273303667,0
3.27999877929688,-2.1490592956543,1.69813132286072,2.57983708381653,-2.33577134012187,1.96079922667992,2.58881081793642,1994.375,3542.845,2992.726,0,-0.02244459,0.01535975,0.05419252,-0.951529383659363,-0.314940065145493,0.540025115013123,-0.898304216251578,-0.386515208538549,0.556093102023818,0
3.30000305175781,-2.16794514656067,1.6919264793396,2.59091305732727,-2.35364119854729,1.95311032582551,2.59987311156116,1680.992,2468.373,2185.309,2285.213,-0.01465591,0.01497625,0.04831837,-0.944289088249207,-0.310234159231186,0.553794085979462,-0.888267004546666,-0.382196476749158,0.549879589839776,0
3.32000732421875,-2.18662095069885,1.68583512306213,2.60146808624268,-2.37130830610839,1.94550866300381,2.61080989274252,1999.4,3520.493,2988.755,0,-0.01994548,0.01374193,0.0504044,-0.933796167373657,-0.304566979408264,0.52775514125824,-0.878034183119985,-0.377793579561194,0.543544985919778,0
3.34001159667969,-2.20514154434204,1.67983937263489,2.61229944229126,-2.38876879352593,1.93799590305759,2.62161876621234,1665.033,2475.272,2171.956,2287.182,-0.01219888,0.0132911,0.04452096,-0.926024198532104,-0.299792140722275,0.541569471359253,-0.867610144209785,-0.373308406832067,0.537092009268528,0
3.36000061035156,-2.22344446182251,1.67395746707916,2.62260317802429,-2.406005803634,1.93057929915441,2.6322892965819,1988.003,3518.076,2980.684,0,-0.017571,0.01200307,0.04664607,-0.915160953998566,-0.294096827507019,0.515186905860901,-0.857007552155826,-0.36874640767338,0.530528499715627,0
3.3800048828125,-2.24158215522766,1.66817200183868,2.63318347930908,-2.42304196557559,1.92324911460621,2.64283549236868,1642.322,2473.388,2155.651,2307.354,-0.009739713,0.01150335,0.04081452,-0.906888902187347,-0.289279669523239,0.52901428937912,-0.846214826007803,-0.364102599125748,0.523847288101157,0
3.40000915527344,-2.25949597358704,1.6625007390976,2.64322972297668,-2.43986044461333,1.91601259293018,2.6532469320683,1985.532,3510.447,2969.105,0,-0.01511024,0.01016399,0.04296641,-0.895694196224213,-0.283555179834366,0.502307653427124,-0.835244706287931,-0.359382463079953,0.517056261415284,0
3.42001342773438,-2.27723526954651,1.65692710876465,2.65355491638184,-2.45645774020782,1.90887124031063,2.66352144868012,1626.497,2473.142,2131.319,2327.464,-0.007183078,0.009612755,0.03714753,-0.886957705020905,-0.278678506612778,0.516263484954834,-0.824102019042908,-0.354588076049064,0.510158407210813,0
3.44000244140625,-2.29474401473999,1.65146899223328,2.6633358001709,-2.47281804716281,1.90183185728196,2.67364925803476,1978.885,3506.938,2957.372,0,-0.01260261,0.008236007,0.03933015,-0.875450313091278,-0.272911816835403,0.489046812057495,-0.812800388649434,-0.349725300221754,0.503162159625937,0
3.46000671386719,-2.31206965446472,1.64610958099365,2.67339825630188,-2.4889630419904,1.89488511704659,2.68364377892579,1606.836,2468.573,2107.728,2355.479,-0.004545483,0.007657642,0.0334834,-0.86627334356308,-0.267962902784348,0.50312477350235,-0.801327600455845,-0.344788879974649,0.496059957209413,0
3.48001098632813,-2.32915925979614,1.64086675643921,2.6829092502594,-2.50487694859767,1.88803780761656,2.69349524520019,1973.298,3508.109,2940.499,0,-0.01000603,0.006271184,0.03567519,-0.854478240013123,-0.262141406536102,0.47555136680603,-0.789697369743255,-0.339784716610052,0.488860290373601,0
3.5,-2.34605622291565,1.63572490215302,2.69270157814026,-2.5205447997813,1.88129636896134,2.70319439144611,1594.07,2465.175,2084.72,2374.722,-0.001941977,0.00567826,0.02979647,-0.844865500926971,-0.257104158401489,0.489617645740509,-0.777924000354857,-0.334718964672089,0.481572013878822,0
3.52000427246094,-2.36271238327026,1.63069999217987,2.70193147659302,-2.53598752699493,1.87465179486116,2.71275417523047,1966.922,3500.956,2932.957,0,-0.007510647,0.004288052,0.03195444,-0.832795381546021,-0.25123319029808,0.461494743824005,-0.765994882555673,-0.32958619854407,0.474187321698442,0
3.54000854492188,-2.3791675567627,1.62577748298645,2.71144604682922,-2.55119019794619,1.86811051026429,2.72216535275294,1578.491,2462.088,2064.906,2394.392,0.0005799871,0.003682961,0.02601554,-0.822761595249176,-0.246125042438507,0.475723445415497,-0.753924423002452,-0.324392617007921,0.466715132239272,0
3.56001281738281,-2.39537620544434,1.62097311019897,2.72039270401001,-2.56615004087912,1.86167370777988,2.73142620816457,1956.989,3506.039,2917.401,0,-0.005100486,0.002308589,0.02819463,-0.8104327917099,-0.240219697356224,0.447329014539719,-0.741718206886018,-0.31914062321522,0.45915890300049,0
3.58000183105469,-2.41137552261353,1.61627209186554,2.7296199798584,-2.58085326729328,1.85534732021446,2.74052820572674,1562.899,2457.314,2051.799,2408.33,0.002930708,0.001709543,0.02227282,-0.799981236457825,-0.235059440135956,0.461362332105637,-0.729391385793765,-0.313836736470737,0.451528013536464,0
3.60000610351563,-2.4271240234375,1.61168909072876,2.73827147483826,-2.59531978247425,1.84912278287974,2.74948366775945,1957.048,3489.068,2914.682,0,-0.002829342,0.0003287045,0.02438296,-0.787420809268951,-0.229142189025879,0.432578474283218,-0.716930938559024,-0.308475354130224,0.443814403124743,0
3.62001037597656,-2.44265556335449,1.60720992088318,2.7472071647644,-2.60953584173048,1.8430060097325,2.75828408564387,1548.233,2459.652,2037.372,2417.163,0.005202196,-0.000298274,0.01844816,-0.776573538780212,-0.223952904343605,0.44678720831871,-0.704352136620513,-0.303063047067126,0.436027525513372,0
3.63999938964844,-2.45793151855469,1.60284924507141,2.75556373596191,-2.6234885835008,1.83700253474321,2.76692149746096,1949.553,3490.229,2901.611,0,-0.0006450176,-0.001686846,0.02059442,-0.763794362545013,-0.218037709593773,0.417828470468521,-0.691670720740692,-0.297606588091786,0.428177124984152,0
3.66000366210938,-2.47298312187195,1.59859251976013,2.76420187950134,-2.63719712493647,1.83110413233575,2.77540773763803,1530.061,2458.143,2024.949,2430.527,0.007363517,-0.002326538,0.01472614,-0.752569437026978,-0.212836086750031,0.431904762983322,-0.678873453515702,-0.29210028151913,0.420255006953505,0
3.68000793457031,-2.48777532577515,1.5944539308548,2.7722647190094,-2.65064865588166,1.82531631436231,2.78373487607838,1933.51,3487.965,2875.444,26.20528,0.001628529,-0.003669303,0.01687651,-0.739613175392151,-0.206931337714195,0.403147727251053,-0.665976209205203,-0.286550957599616,0.412270998344358,0
3.70001220703125,-2.50233578681946,1.59042024612427,2.78059840202332,-2.66384123964357,1.81963991412768,2.79190171387692,1527.607,2459.593,2015.94,2421.129,0.009488222,-0.004296744,0.01109635,-0.728030979633331,-0.201697066426277,0.416689842939377,-0.65298533214413,-0.280961346123326,0.404229026602262,0
3.72000122070313,-2.5166347026825,1.58650386333466,2.78836798667908,-2.6767633032417,1.81407991116207,2.79990108680742,1910.565,3478.928,2839.143,77.65491,0.003976767,-0.00554044,0.01314012,-0.714928984642029,-0.195798173546791,0.388483047485352,-0.639917282339434,-0.275338529371411,0.396139281255611,0
3.74000549316406,-2.53069448471069,1.58269381523132,2.79638624191284,-2.6894328975087,1.80862853869646,2.80774416919516,1531.393,2466.403,2021.006,2385.351,0.01151436,-0.006124738,0.007472405,-0.702994287014008,-0.190518692135811,0.400912553071976,-0.626758665639204,-0.269676744214497,0.387993470686332,0
3.760009765625,-2.54448986053467,1.57900094985962,2.80386161804199,-2.70183851231475,1.80329074921818,2.81542383572149,1890.628,3456.823,2796.888,147.2466,0.006314874,-0.007248592,0.009254301,-0.689760088920593,-0.184630498290062,0.373774886131287,-0.613526094901139,-0.263983138701136,0.379801879044709,0
3.77999877929688,-2.55803894996643,1.57541477680206,2.81155467033386,-2.7139695770734,1.79807109095524,2.82293354268985,1543.045,2487.287,2038.643,2314.482,0.0132635,-0.007794007,0.003762026,-0.677463412284851,-0.179316148161888,0.384648501873016,-0.60023651686137,-0.258265004538452,0.371574997167698,0
3.80000305175781,-2.57132077217102,1.5719450712204,2.81873250007629,-2.72584333814708,1.79296214327972,2.83028396642013,1862.7,3423.745,2755.436,236.5413,0.008415948,-0.008794823,0.005226896,-0.664094865322113,-0.173477947711945,0.358894050121307,-0.586876524285838,-0.252516572968186,0.363304525338741,0
3.82000732421875,-2.58434963226318,1.56858158111572,2.82609176635742,-2.73744929742843,1.78796842323393,2.8374686080838,1554.37,2517.146,2067.993,2223.208,0.01466513,-0.009308813,1.171022E-05,-0.651443898677826,-0.168180793523788,0.367958962917328,-0.573463232144022,-0.246745208083563,0.355001058539243,0
3.84001159667969,-2.59710836410522,1.56533288955688,2.83297109603882,-2.74878645956754,1.78309035908911,2.84448685151184,1836.352,3383.034,2710.983,336.482,0.01024045,-0.01020417,0.001158002,-0.637944936752319,-0.162440985441208,0.343969881534576,-0.560003743914976,-0.240953966313175,0.346668994161123,0
3.86000061035156,-2.60960793495178,1.56218862533569,2.83999085426331,-2.75984563331209,1.77833190558438,2.85133300688122,1563.671,2554.898,2104.398,2118.9,0.01573669,-0.01069845,-0.003660781,-0.624971449375153,-0.157214745879173,0.350989073514938,-0.546515580872635,-0.235150386571708,0.338319178707605,0
3.8800048828125,-2.62183523178101,1.5591561794281,2.84657049179077,-2.77064299647982,1.77368610185671,2.85801708903178,1807.237,3333.235,2665.452,450.7016,0.01187809,-0.0115006,-0.002821353,-0.611361563205719,-0.151617258787155,0.3289874792099,-0.532985466132484,-0.229328756186666,0.329943393154704,0
3.90000915527344,-2.63379740715027,1.55622637271881,2.85325002670288,-2.78116944461445,1.76915686529929,2.86453346187138,1577.243,2597.748,2139.441,2007.141,0.01666608,-0.01198795,-0.007189469,-0.598118126392365,-0.146487921476364,0.333977878093719,-0.519431110871129,-0.223496695782554,0.321552601564443,0
3.92001342773438,-2.64548587799072,1.55340552330017,2.85953116416931,-2.79142456801014,1.76474437219711,2.87088187177258,1782.647,3281.354,2615.433,567.769,0.01341053,-0.01271713,-0.006651511,-0.584421336650848,-0.141044527292252,0.314052999019623,-0.505860052376089,-0.217657448443621,0.313151469876846,0
