t,x_s1,x_s2,x_s3,x_s_d1,x_s_d2,x_s_d3,propellers_rpms1,propellers_rpms2,propellers_rpms3,propellers_rpms4,rollRad,pitchRad,yawRad,v_s1,v_s2,v_s3,v_s_d1,v_s_d2,v_s_d3,insideCount
0,-0.0599999986588955,2.94000005722046,1.17999994754791,-0.0599999986588955,2.94000005722046,1.17999994754791,0,0,0,0,0,0,0,0,0,0,-1.06581410364015E-15,4.44089209850063E-16,4.44089209850063E-16,0
0.019989013671875,-0.0599999986588955,2.94000005722046,1.1771354675293,-0.0600018659130177,2.93999925379318,1.18000110346716,0,0,0,0,0.0163538,-0.002474609,-2.024222E-05,3.71994488546079E-08,3.50004931704007E-08,-0.143225952982903,-0.000279680311988734,-0.000120338624884473,0.000173135436141649,5
0.0399932861328125,-0.0599999986588955,2.94000005722046,1.17048275470734,-0.060014863945674,2.93999366110285,1.18000914986856,0,0,0,0,0.03270752,-0.004950816,-5.430172E-05,3.62924410524101E-08,3.44428769949445E-08,-0.332637369632721,-0.00111059898697896,-0.000477859717552347,0.000687513678106196,6
0.05999755859375,-0.0600004345178604,2.94013261795044,1.16416561603546,-0.0600498857373401,2.93997859220429,1.18003083002592,3185.54,2835.848,1500.947,2767.605,0.03127853,-0.00494336,-0.01646952,-2.17787910514744E-05,0.00662235822528601,-0.315857589244843,-0.00247936261166862,-0.00106680046642749,0.00153484356504269,6
0.079986572265625,-0.0599162243306637,2.94038772583008,1.15857720375061,-0.0601174907153006,2.93994950367094,1.18007268072775,3065.763,3067.285,2154.983,2024.031,0.01897039,-0.004311125,-0.04351445,0.00421055313199759,0.0127496924251318,-0.27942031621933,-0.00437104534358026,-0.00188073869847162,0.00270588528944111,6
0.0999908447265625,-0.059637576341629,2.94068765640259,1.15374839305878,-0.0602281370710988,2.93990189563514,1.18014117609281,2639.851,3831.719,2620.662,1134.892,-0.005857889,-0.002887932,-0.07014287,0.013932392001152,0.0149963032454252,-0.24144321680069,-0.00677536694902951,-0.00291525111632684,0.0041942748969354,6
0.1199951171875,-0.0590849369764328,2.94089889526367,1.14957022666931,-0.0603918861403606,2.93983143898525,1.18024254456713,2092.381,4101.879,3169.374,755.8835,-0.04012159,-0.0004506069,-0.08993282,0.0276319514960051,0.0105586806312203,-0.208910942077637,-0.00967801353495435,-0.00416417885169243,0.00599115140585487,5
0.139999389648438,-0.0582315437495708,2.94085621833801,1.14596676826477,-0.0606185767455666,2.93973390035084,1.18038287685052,1510.425,4074.802,3735.72,701.9396,-0.07649398,0.002388648,-0.09949517,0.0426697432994843,-0.00213344674557447,-0.180171266198158,-0.0130660253322238,-0.00562194567796536,0.00808849210174802,4
0.159988403320313,-0.0570995435118675,2.94039487838745,1.14297819137573,-0.0609175312885481,2.93960526856281,1.18056794395381,1135.234,3846.962,4069.753,879.986,-0.1062798,0.004335484,-0.09869835,0.0565999485552311,-0.0230715088546276,-0.149431273341179,-0.0169234294955564,-0.00728167892605071,0.0104764090324936,4
0.17999267578125,-0.0557378716766834,2.93938803672791,1.14071130752563,-0.0612985250199726,2.93944133760391,1.18080379722281,1100.515,3565.29,4010.151,1149.175,-0.1236266,0.004492527,-0.08999833,0.0680835768580437,-0.0503425039350986,-0.113347128033638,-0.0212433804254414,-0.00914043312572283,0.0131506644458931,3
0.199996948242188,-0.0541966669261456,2.9377772808075,1.13924872875214,-0.0617704296168641,2.93923829023936,1.18109592864822,1373.805,3339.555,3594.616,1386.17,-0.1278711,0.00302282,-0.07724925,0.0770601779222488,-0.0805390030145645,-0.0731275901198387,-0.0260104776919234,-0.0111915819022102,0.0161017247421801,3
0.219985961914063,-0.0525144562125206,2.93557620048523,1.13858413696289,-0.0623415882203848,2.93899253664859,1.18144950303185,1790.972,3213.086,3016.795,1526.866,-0.1229741,0.0008613604,-0.06426101,0.0841104835271835,-0.110052801668644,-0.0332285612821579,-0.031208065114187,-0.0134279585662277,0.0193192789519858,3
0.239990234375,-0.0507198311388493,2.93284726142883,1.13860702514648,-0.0630214373585105,2.93870001655724,1.18187036203406,2158.695,3168.449,2517.634,1558.751,-0.1149633,-0.0009869675,-0.05362222,0.0897312685847282,-0.136452913284302,0.00114207714796066,-0.0368316683029241,-0.015847637913056,0.022800557215184,3
0.259994506835938,-0.0488375425338745,2.92966508865356,1.13913786411285,-0.0638179029240226,2.93835731967507,1.18236341216003,2352.372,3158.936,2273.666,1495.772,-0.1090479,-0.00190416,-0.04623993,0.0941143855452538,-0.159108430147171,0.0265446081757545,-0.0428651747123285,-0.0184436871643672,0.0265355850983733,3
0.279998779296875,-0.0468920283019543,2.92608785629272,1.13999617099762,-0.0647390625194898,2.93796097043536,1.18293365383054,2352.699,3152.598,2324.16,1363.259,-0.1078165,-0.001744371,-0.04152454,0.0972756966948509,-0.178861573338509,0.0429129302501678,-0.0492963837173861,-0.0212108567320638,0.030516809833474,3
0.29998779296875,-0.0449090152978897,2.92214393615723,1.14106214046478,-0.0657918945890516,2.93750796620855,1.18358540703494,2229.212,3143.908,2572.759,1194.608,-0.1110927,-0.0007366303,-0.03798839,0.0991506800055504,-0.197190999984741,0.0532956421375275,-0.0561078595514081,-0.0241416444928383,0.0347334378503248,3
0.319992065429688,-0.0429171919822693,2.91783571243286,1.14229381084442,-0.0669855955880233,2.93699435001684,1.18432436481717,2073.222,3132.587,2873.852,1032.728,-0.1169335,0.0006869361,-0.0339798,0.099591001868248,-0.215405598282814,0.0615818426012993,-0.0632980253096114,-0.0272353719486164,0.0391844929697465,3
0.339996337890625,-0.0409492254257202,2.91315126419067,1.14370727539063,-0.068326768706371,2.93641728069206,1.18515461486636,1955.832,3107.036,3108.938,921.7488,-0.1228388,0.002069813,-0.02837705,0.0983986109495163,-0.234226554632187,0.0706755146384239,-0.0708499516420146,-0.0304847548730522,0.0438594951176439,3
0.3599853515625,-0.0390404537320137,2.90807747840881,1.14534330368042,-0.0698213312158394,2.93577421219747,1.18607982025561,1904.904,3066.249,3222.12,880.1091,-0.1267084,0.003092478,-0.02087066,0.0954385101795197,-0.253693968057632,0.081804096698761,-0.0787457139191101,-0.0338820807988248,0.0487473480944833,3
0.379989624023438,-0.0372259765863419,2.90261054039001,1.14724314212799,-0.0714784451857985,2.93506120235061,1.1871056527423,1923.058,3020.868,3207.581,896.6848,-0.1274163,0.003642412,-0.01188303,0.0907240211963654,-0.273341953754425,0.0949915200471878,-0.0869857157641562,-0.0374275233937465,0.0538483017622888,3
0.399993896484375,-0.0355375520884991,2.89676141738892,1.14943146705627,-0.0733036822025899,2.9342758538535,1.18823556140379,1991.875,2988.943,3098.228,939.4029,-0.1250301,0.003790387,-0.002211489,0.0844210013747215,-0.292452484369278,0.109414018690586,-0.0955525119207663,-0.0411135764513579,0.0591515566763244,3
0.419998168945313,-0.0340022332966328,2.89055490493774,1.15190577507019,-0.0753034649285836,2.93341540321397,1.18947352217404,2072.586,2975.167,2953.244,985.8282,-0.1205022,0.003706972,0.00733758,0.0767662227153778,-0.310323774814606,0.123717121779919,-0.104434660908044,-0.0449353170220673,0.0646500300148815,3
0.439987182617188,-0.0326427593827248,2.88402485847473,1.15464162826538,-0.0774822545706558,2.93247793089932,1.19082229675263,2136.34,2972.516,2825.116,1023.676,-0.1150794,0.003563551,0.01614767,0.0679735839366913,-0.326506614685059,0.136792793869972,-0.113613709720558,-0.0488848052931553,0.0703322984885602,4
0.459991455078125,-0.0314785540103912,2.87720799446106,1.15760099887848,-0.0798493430620752,2.93145943885026,1.19228763728888,2167.36,2977.669,2749.892,1039.067,-0.1098703,0.003475334,0.0239453,0.0582106411457062,-0.340847015380859,0.147966533899307,-0.123092454730403,-0.0529632444654124,0.0762000931848968,4
0.479995727539063,-0.0305269118398428,2.8701388835907,1.16074752807617,-0.0824088828700873,2.93035814037613,1.19387211435783,2168.922,2983.608,2731.808,1033.479,-0.1055331,0.003481931,0.03074167,0.0475818477571011,-0.353459656238556,0.157327368855476,-0.132852887402757,-0.0571628859694044,0.0822422659629699,4
0.5,-0.0298037119209766,2.86284732818604,1.16405177116394,-0.085166398670376,2.92917165836334,1.1955791479969,2147.12,2990.687,2763.07,1007.371,-0.1022734,0.003567931,0.03679781,0.0361601077020168,-0.364579886198044,0.165209636092186,-0.142884000065179,-0.0614789935111996,0.0884520025491718,4
0.519989013671875,-0.0293243955820799,2.85535740852356,1.16749894618988,-0.0881248588203387,2.92789871561062,1.19741057576073,2116.429,2991.719,2816.651,979.4141,-0.09984191,0.003685533,0.04240827,0.0239656660705805,-0.374494671821594,0.172358095645905,-0.153166947611899,-0.0659034585682559,0.0948176369253132,4
0.539993286132813,-0.0291040167212486,2.84768891334534,1.17108476161957,-0.091293865515634,2.92653518056143,1.19937234186584,2088.218,2992.151,2872.371,950.2313,-0.09783122,0.00377703,0.0478626,0.0110188089311123,-0.383420884609222,0.179291054606438,-0.163706645289342,-0.0704383960337938,0.101342211863077,4
0.55999755859375,-0.0291575342416763,2.83985877037048,1.17481577396393,-0.094676112580471,2.92507989413848,1.20146611391775,2071.471,2988.26,2907.46,935.9658,-0.09577473,0.003795477,0.05328929,-0.00267600454390049,-0.391506344079971,0.186552658677101,-0.17448465888317,-0.0750758741803766,0.108014315705644,5
0.579986572265625,-0.0294988714158535,2.83188319206238,1.17869782447815,-0.0982734311149,2.92353206847056,1.2036930254546,2064.514,2987.263,2922.403,928.4974,-0.09339706,0.003715561,0.05874304,-0.0170662850141525,-0.398779720067978,0.194104224443436,-0.185481935470438,-0.0798076950675377,0.114822153786096,5
0.599990844726563,-0.0301410332322121,2.82377862930298,1.18273842334747,-0.102095761416081,2.92188742652551,1.20605922999388,2065.135,2982.974,2913.007,940.8388,-0.09049528,0.00353832,0.06411321,-0.0321086049079895,-0.405231297016144,0.202029287815094,-0.19670480600515,-0.0846365827279185,0.121769645266545,5
0.6199951171875,-0.0310953371226788,2.81556248664856,1.18694138526917,-0.106144683970236,2.92014528826426,1.20856570593183,2075.733,2986.96,2886.065,951.6985,-0.08716313,0.003271753,0.06928719,-0.0477148778736591,-0.410806208848953,0.210150554776192,-0.208134604141382,-0.0895545055543457,0.128845234789665,5
0.639999389648438,-0.0323709733784199,2.80725336074829,1.19130420684814,-0.110424235525481,2.91830391678686,1.21121495220784,2083.219,2992.518,2855.386,967.3372,-0.08359929,0.00293922,0.07415007,-0.0637817680835724,-0.41545432806015,0.218139290809631,-0.219761081350814,-0.0945570538913933,0.136042578028218,5
0.659988403320313,-0.0339754708111286,2.79887008666992,1.19582200050354,-0.114934715429503,2.91636318329238,1.21400715413238,2087.484,2998.516,2826.211,984.7717,-0.08000562,0.00256576,0.07859688,-0.0802246406674385,-0.41916835308075,0.225890904664993,-0.231565018351745,-0.0996359582190702,0.143349777331291,5
0.67999267578125,-0.0359143801033497,2.79043078422546,1.20048582553864,-0.119686638739014,2.91431856344567,1.21694882102647,2086.938,3007.348,2808.615,993.0071,-0.07661222,0.00216834,0.08261361,-0.096945695579052,-0.421965688467026,0.233188405632973,-0.243554411173546,-0.104794659005432,0.150771782621969,6
0.699996948242188,-0.0381922833621502,2.78195238113403,1.20529043674469,-0.124680083855354,2.91217002351282,1.22004000142426,2083.853,3014.226,2795.585,1002.507,-0.07352881,0.001759945,0.08618449,-0.113895356655121,-0.42392098903656,0.240229532122612,-0.255710395848158,-0.11002503961202,0.158296916205407,6
0.719985961914063,-0.040811937302351,2.77345037460327,1.21022546291351,-0.129914195341611,2.90991793156443,1.22328016576956,2076.126,3023.691,2798.934,997.795,-0.07089495,0.001342502,0.08941007,-0.130982503294945,-0.425103902816772,0.246749132871628,-0.2680137084949,-0.11531881132915,0.165913252821798,6
0.739990234375,-0.043775986880064,2.76493787765503,1.21528792381287,-0.135400001298574,2.90755754251682,1.2266761409821,2063.709,3024.059,2804.081,1006.62,-0.0685748,0.00092899,0.09229621,-0.14820271730423,-0.42562735080719,0.253122210502625,-0.280473432677602,-0.12067988256057,0.173626415629864,6
0.759994506835938,-0.04708606377244,2.7564263343811,1.22047460079193,-0.14113644597991,2.90508931062815,1.2302272735046,2059.006,3031.49,2811.861,998.0363,-0.06659234,0.00050728,0.09494227,-0.16550400853157,-0.425573706626892,0.259331107139587,-0.293070637251543,-0.126100107763583,0.181424685349205,6
0.779998779296875,-0.0507433526217937,2.74792575836182,1.22578382492065,-0.147126184485884,2.90251209348295,1.23393520697061,2050.263,3032.879,2818.745,1000.719,-0.06483465,8.190355E-05,0.0973768,-0.182864844799042,-0.425028920173645,0.265463590621948,-0.305795832832518,-0.131575403921268,0.189302187598958,6
0.79998779296875,-0.0547485463321209,2.73944449424744,1.23121523857117,-0.153366821193532,2.89982692185086,1.2377984583754,2045.425,3035.084,2822.66,1001.695,-0.06323037,-0.0003472762,0.09962273,-0.200259506702423,-0.424059122800827,0.271568804979324,-0.318629798715703,-0.137097500901303,0.197247023847227,6
0.819992065429688,-0.0591016747057438,2.7309901714325,1.23676776885986,-0.159870162197751,2.89702871589906,1.2418243362541,2041.629,3036.896,2824.331,1004.103,-0.06172781,-0.0007781757,0.1016887,-0.217656552791595,-0.422714471817017,0.277626991271973,-0.33158286215529,-0.142670842232658,0.205265587156312,6
0.839996337890625,-0.0638025552034378,2.72256922721863,1.24244391918182,-0.166633637018892,2.89411858163313,1.24601124935738,2042.793,3040.135,2816.603,1009.698,-0.06030835,-0.00121014,0.1035485,-0.235044062137604,-0.421044528484344,0.283807575702667,-0.344636106234817,-0.148287288494656,0.213346167053785,6
0.8599853515625,-0.068849503993988,2.71418762207031,1.24823844432831,-0.173653699721778,2.89109804476993,1.25035700258242,2042.274,3045.78,2815.267,1007.305,-0.0590753,-0.001643703,0.1052409,-0.252346724271774,-0.419077008962631,0.289728969335556,-0.357770416714212,-0.153938615363784,0.221476930914505,6
0.879989624023438,-0.0742410272359848,2.70585036277771,1.25415217876434,-0.18094280014554,2.88796174849148,1.25486930297274,2037.961,3044.628,2808.6,1021.794,-0.05793174,-0.002059156,0.1066977,-0.269576221704483,-0.416864722967148,0.295686691999435,-0.370996904517929,-0.159629603560431,0.229664756929996,6
0.899993896484375,-0.0799744427204132,2.69756150245667,1.26018166542053,-0.18849723509595,2.8847112861788,1.25954585807468,2041.919,3052.524,2805.193,1015.254,-0.05703106,-0.002467685,0.1079704,-0.286672055721283,-0.414438843727112,0.301476329565048,-0.384296738353309,-0.165352150505452,0.237897987633041,7
0.919998168945313,-0.0860468447208405,2.68932437896729,1.26632463932037,-0.196318384305134,2.8813460641717,1.26438752200817,2037.903,3053.902,2803.578,1021.891,-0.05634983,-0.002855441,0.1090464,-0.303619652986526,-0.411853075027466,0.307146281003952,-0.397661187980262,-0.171102499820431,0.246171218589148,7
0.939987182617188,-0.09245465695858,2.68114137649536,1.27257764339447,-0.204401181418416,2.87786826238106,1.26939115845832,2036.268,3056.983,2806.298,1020.352,-0.05591786,-0.00322136,0.1099551,-0.320390373468399,-0.409153282642365,0.312647819519043,-0.411071375662203,-0.176872528942697,0.254472763580097,7
0.959991455078125,-0.0991941392421722,2.67301368713379,1.27893841266632,-0.212759000778906,2.87427212620069,1.27456504678061,2032.71,3057.611,2811.479,1021.208,-0.05569309,-0.003559049,0.1107106,-0.336974769830704,-0.406389027833939,0.318038642406464,-0.424539267042903,-0.182667386354485,0.262810029909387,7
0.979995727539063,-0.106261685490608,2.66494154930115,1.28540825843811,-0.22138664033507,2.87055989392801,1.27990596665734,2034.38,3060.5,2812.208,1019.541,-0.05566912,-0.003872236,0.1113268,-0.35337695479393,-0.403610527515411,0.32349169254303,-0.438046240701377,-0.188479059778567,0.271171490030365,7
0.999984741210938,-0.113652661442757,2.65692448616028,1.29198229312897,-0.230277908190427,2.86673422976312,1.28541008500963,2033.129,3063.347,2821.397,1011.977,-0.05588857,-0.004164119,0.1118646,-0.369549334049225,-0.400853753089905,0.328702211380005,-0.451573664275062,-0.194299532229859,0.279545609623025,7
1.01998901367188,-0.121363326907158,2.64896106719971,1.2986626625061,-0.239446912293295,2.86278906344998,1.29108613532954,2029.08,3059.829,2825.04,1020.319,-0.05619323,-0.004419249,0.1122801,-0.38553324341774,-0.398167580366135,0.334021478891373,-0.46513400752272,-0.200134169097193,0.287940108062054,7
1.03999328613281,-0.129389241337776,2.64104962348938,1.30544853210449,-0.248887339851819,2.85872711120656,1.2969302096982,2035.225,3064.96,2829.548,1008.649,-0.05667793,-0.00465414,0.1126321,-0.401295781135559,-0.39557471871376,0.339295595884323,-0.478708875293167,-0.205975055460915,0.29634359787259,7
1.05999755859375,-0.137726113200188,2.63318753242493,1.31233990192413,-0.258599401509697,2.85454828239877,1.30294243851408,2033.897,3064.184,2833.523,1011.323,-0.05727874,-0.004860802,0.1129087,-0.416842669248581,-0.393109560012817,0.34456667304039,-0.492290296490434,-0.211818761581115,0.30475114456651,7
1.07998657226563,-0.146369397640228,2.62537169456482,1.3193359375,-0.268575430648764,2.85025587575821,1.30911807577533,2035.843,3065.161,2838.746,1007.973,-0.05799779,-0.005038701,0.1131236,-0.432165771722794,-0.390793234109879,0.349799960851669,-0.50586005237609,-0.217657448443621,0.313151469876847,7
1.09999084472656,-0.155314698815346,2.61759877204895,1.32643604278564,-0.278830554044452,2.84584338265603,1.31546648567654,2036.317,3064.679,2845.25,1006.63,-0.05879887,-0.00518624,0.1132799,-0.447264581918716,-0.388644576072693,0.355003625154495,-0.519431110871131,-0.223496695782555,0.321552601564445,7
1.1199951171875,-0.164557904005051,2.60986495018005,1.33364367485046,-0.289357002179081,2.84131414609862,1.32198285851614,2042.111,3066.694,2844.684,1005.132,-0.05968037,-0.005306082,0.1133677,-0.462160140275955,-0.386686831712723,0.360382914543152,-0.532985466132485,-0.229328756186667,0.329943393154705,8
1.13999938964844,-0.174093887209892,2.60216641426086,1.34095394611359,-0.300154365346813,2.83666834237095,1.3286669406667,2044.71,3069.709,2854.911,994.4196,-0.06073073,-0.005405152,0.1134489,-0.476798295974731,-0.384924292564392,0.36551234126091,-0.546515580872639,-0.235150386571708,0.338319178707607,8
1.15998840332031,-0.183918908238411,2.59449863433838,1.34837222099304,-0.31121353909136,2.83190988886621,1.33551309603608,2044.128,3065.871,2854.96,1005.541,-0.0617848,-0.005464274,0.1134472,-0.491251766681671,-0.383391618728638,0.370911210775375,-0.560003743914979,-0.240953966313175,0.346668994161124,8
1.17999267578125,-0.194027617573738,2.58685731887817,1.3558908700943,-0.322550701230474,2.8270318247214,1.34253133946411,2049.468,3070.564,2871.709,984.3237,-0.06300773,-0.005505287,0.1134772,-0.505434095859528,-0.382071256637573,0.375934481620789,-0.573463232144024,-0.246745208083563,0.355001058539242,8
1.19999694824219,-0.204417273402214,2.57923698425293,1.36352288722992,-0.334156660511822,2.8220381046756,1.34971598112778,2051.156,3065.686,2863.247,1004.027,-0.06414223,-0.005503688,0.1133993,-0.519484221935272,-0.381014585494995,0.381600826978683,-0.58687652428584,-0.252516572968185,0.36330452533874,8
1.21998596191406,-0.215081587433815,2.5716335773468,1.37125313282013,-0.34602126278068,2.81693309777792,1.35706073512159,2060.708,3076.316,2887.469,964.6996,-0.06557235,-0.005503688,0.1134368,-0.533216118812561,-0.380172550678253,0.386510163545609,-0.600226348268632,-0.258260629277074,0.371568702324394,8
1.239990234375,-0.226018935441971,2.56404113769531,1.37909913063049,-0.358161486344149,2.81170949873715,1.36457611182642,2051.724,3061.503,2877.17,1008.094,-0.06674361,-0.005439773,0.1133234,-0.546866476535797,-0.379622548818588,0.392302423715591,-0.613526094901141,-0.263983138701136,0.379801879044709,8
1.25999450683594,-0.23722280561924,2.55645537376404,1.38704454898834,-0.3705671011502,2.80637170925886,1.37225577835275,2072.046,3079.076,2902.644,949.994,-0.06825096,-0.005393434,0.113367,-0.56019389629364,-0.379282563924789,0.397268742322922,-0.626758665639206,-0.269676744214496,0.387993470686331,8
1.27999877929688,-0.24869230389595,2.5488703250885,1.39511048793793,-0.383236695417198,2.80092033679326,1.3800988607405,2061.219,3062.64,2886.409,1003.473,-0.06945577,-0.005283179,0.113247,-0.573475062847137,-0.379249572753906,0.403294414281845,-0.639917282339435,-0.275338529371412,0.396139281255613,8
1.29998779296875,-0.260420233011246,2.54128217697144,1.40327274799347,-0.396158759015336,2.79536033382764,1.388098233671,2080.257,3081.335,2921.992,935.0079,-0.07105634,-0.005197958,0.1133402,-0.586396336555481,-0.379407823085785,0.408112615346909,-0.652985332144132,-0.280961346123326,0.404229026602261,8
1.31999206542969,-0.272407174110413,2.53368449211121,1.41156136989594,-0.409351342777246,2.78968393359302,1.39626507146953,2065.218,3058.223,2897.958,1008.598,-0.07216634,-0.005032309,0.1132031,-0.599348902702332,-0.379888117313385,0.414431035518646,-0.665976209205206,-0.286550957599616,0.412270998344359,8
1.33999633789063,-0.284645229578018,2.52607393264771,1.41994571685791,-0.422802873722428,2.78389611561957,1.40459220990988,2095.224,3086.625,2939.143,913.1193,-0.07380205,-0.004917793,0.1133554,-0.611900806427002,-0.380523473024368,0.419214516878128,-0.678873453515705,-0.29210028151913,0.420255006953505,8
1.3599853515625,-0.297136396169662,2.5184440612793,1.42846441268921,-0.436500861174643,2.77800225429635,1.41307191666844,2073.922,3057.363,2902.637,1012.636,-0.07482737,-0.004711132,0.1132109,-0.624558448791504,-0.381497800350189,0.425932168960571,-0.69166099897751,-0.297602405088682,0.428171106749628,9
1.37998962402344,-0.309870719909668,2.51079273223877,1.43707036972046,-0.450464156928423,2.77199423822282,1.42171586190405,2104.63,3090.833,2965.254,888.3438,-0.07654351,-0.004574245,0.1134699,-0.636717796325684,-0.382566094398499,0.430297255516052,-0.704352136620515,-0.303063047067127,0.436027525513373,9
1.39999389648438,-0.322854042053223,2.50311231613159,1.44582617282867,-0.464680216184654,2.76587746507559,1.43051627978847,2078.628,3050.23,2900.744,1034.671,-0.0773057,-0.004312723,0.113255,-0.649162769317627,-0.384019702672958,0.437791377305984,-0.716930938559026,-0.308475354130225,0.443814403124744,9
1.41999816894531,-0.33607229590416,2.49540305137634,1.45465683937073,-0.47914673136562,2.75965292774086,1.43947174182117,2126.108,3104.995,2992.732,839.5208,-0.07922319,-0.004181696,0.1136797,-0.660915732383728,-0.385464012622833,0.441535443067551,-0.729391385793766,-0.313836736470737,0.451528013536465,9
1.43998718261719,-0.349536150693893,2.48765563964844,1.46365511417389,-0.49384995777978,2.75332654017544,1.44857373938334,2074.368,3037.424,2895.501,1074.892,-0.07965621,-0.003860518,0.1133692,-0.67319256067276,-0.38737216591835,0.449911683797836,-0.741718206886022,-0.319140623215221,0.459158903000492,9
1.45999145507813,-0.363226413726807,2.4798731803894,1.47270810604095,-0.508809800712713,2.74688973769103,1.45783459479497,2146.066,3119.396,3032.509,778.8389,-0.08179314,-0.003742274,0.1140086,-0.684513807296753,-0.389123469591141,0.452652394771576,-0.753924423002454,-0.324392617007921,0.466715132239272,9
1.47999572753906,-0.377161145210266,2.47204375267029,1.48195910453796,-0.524012471663969,2.74034845309416,1.46724577231745,2069.74,3020.094,2875.667,1135.651,-0.08168074,-0.003349191,0.1135169,-0.696735441684723,-0.391470640897751,0.462547808885574,-0.765994882555672,-0.329586198544069,0.474187321698441,9
1.49998474121094,-0.391312211751938,2.46417498588562,1.49123394489288,-0.539443328768377,2.73370898637038,1.47679820793874,2178.556,3147.029,3079.008,683.5599,-0.08426348,-0.00328421,0.1144798,-0.707556903362274,-0.393438667058945,0.463744252920151,-0.777914956366828,-0.334715073296699,0.481566415219407,9
1.51998901367188,-0.405708432197571,2.4562509059906,1.50074470043182,-0.555123050061237,2.72696244033876,1.48650470234772,2048.344,2990.27,2846.16,1235.665,-0.08340807,-0.002795787,0.1137195,-0.719809770584106,-0.396207690238953,0.475536525249481,-0.789697369743256,-0.339784716610053,0.488860290373601,9
1.53999328613281,-0.420309662818909,2.44828510284424,1.51023650169373,-0.571036956668503,2.72011513090874,1.49635616862212,2218.47,3182.239,3139.792,556.9847,-0.08656499,-0.002805374,0.1150922,-0.730063080787659,-0.398290783166885,0.474592685699463,-0.801327600455846,-0.344788879974649,0.496059957209413,9
1.55999755859375,-0.435159832239151,2.44025540351868,1.5200217962265,-0.587181951496087,2.71316839067337,1.50635068951315,2023.609,2953.763,2789.099,1374.5,-0.08472048,-0.002199771,0.1139176,-0.742505967617035,-0.401488691568375,0.489266365766525,-0.812800388649436,-0.349725300221754,0.503162159625937,9
1.57998657226563,-0.450199812650681,2.43218445777893,1.52971744537354,-0.603542258451077,2.7061290076447,1.51647849886779,2267.014,3233.559,3229.911,372.1551,-0.08886915,-0.002333994,0.1159134,-0.752001047134399,-0.403542727231979,0.484781473875046,-0.82410201904291,-0.354588076049064,0.510158407210813,9
1.59999084472656,-0.465497434139252,2.42404007911682,1.53979301452637,-0.620139554045575,2.69898765502515,1.52675301547962,1971.691,2891.931,2700.991,1599.493,-0.08547309,-0.001538774,0.1140698,-0.76488208770752,-0.407217413187027,0.503777325153351,-0.835244706287931,-0.359382463079953,0.517056261415284,9
1.6199951171875,-0.480965077877045,2.41585874557495,1.54967522621155,-0.636958033083316,2.69175113334911,1.53716445517924,2342.753,3313.97,3355.528,90.48061,-0.09112378,-0.001866343,0.1169792,-0.773383259773254,-0.409063875675201,0.494113594293594,-0.846214826007804,-0.364102599125749,0.523847288101157,9
1.63999938964844,-0.496706455945969,2.40759229660034,1.56006956100464,-0.653994195024907,2.68442094880091,1.54771065096602,1893.798,2804.958,2552.229,1939.978,-0.08550718,-0.0007930894,0.1141213,-0.787067115306854,-0.413320690393448,0.519715189933777,-0.857007552155828,-0.368746407673381,0.530528499715628,9
1.65998840332031,-0.512603223323822,2.39928770065308,1.57022750377655,-0.67123120513297,2.67700434489773,1.55838118133557,2184.573,3631.082,3285.419,0,-0.09140501,-0.0003355583,0.1189152,-0.794840276241302,-0.415234953165054,0.507899224758148,-0.867610144209785,-0.373308406832068,0.537092009268528,9
1.67999267578125,-0.528774380683899,2.39089751243591,1.58090364933014,-0.688691692550512,2.66949158495151,1.56919005480539,1941.296,2621.447,2461.842,2174.315,-0.08459052,0.001590945,0.1154753,-0.808556854724884,-0.419509500265121,0.533809840679169,-0.878034183119987,-0.377793579561193,0.543544985919778,9
1.69999694824219,-0.545093655586243,2.38247418403625,1.59131979942322,-0.706358800111611,2.66188992212981,1.58012683598675,2191.626,3675.511,3240.975,0,-0.09026891,0.002942829,0.1198708,-0.815965592861176,-0.421171903610229,0.520809829235077,-0.888267004546665,-0.382196476749158,0.549879589839776,9
1.71998596191406,-0.561678826808929,2.37397527694702,1.60222375392914,-0.724214951560321,2.65420691900456,1.59118064433996,2046.261,2541.288,2480.871,2138.545,-0.08392579,0.005468576,0.1152973,-0.829255640506744,-0.424942433834076,0.545197308063507,-0.898296635743475,-0.386511946857687,0.556088409328192,9
1.739990234375,-0.578405618667603,2.36544871330261,1.61288094520569,-0.74228345468553,2.64643254688532,1.60236590849663,2194.987,3691.392,3232.433,0,-0.09003402,0.007416944,0.1186192,-0.836343944072723,-0.426323503255844,0.532857060432434,-0.908134108040217,-0.390744736359816,0.562178273303667,9
1.75999450683594,-0.595378577709198,2.35685610771179,1.62396168708801,-0.760546715064628,2.63857437616062,1.61367173667103,2122.781,2526.551,2604.633,1953.39,-0.08553328,0.01014455,0.1135402,-0.848644018173218,-0.429633617401123,0.554036498069763,-0.917767514700581,-0.394889722119545,0.568141810929231,9
1.77999877929688,-0.612486898899078,2.3482358455658,1.63482582569122,-0.779000609654483,2.63063418086074,1.62509557650306,2229.058,3607.013,3293.032,0,-0.09225829,0.01214651,0.1157623,-0.855418503284454,-0.431007772684097,0.543207406997681,-0.927192788821983,-0.398945154262308,0.57397650459845,9
1.79998779296875,-0.62982052564621,2.33954954147339,1.64605987071991,-0.797626646773287,2.62261991743975,1.63662598076079,2142.821,2568.045,2773.095,1721.361,-0.08948914,0.01461778,0.1109829,-0.866682469844818,-0.434318333864212,0.56170517206192,-0.936399026186941,-0.402906341007953,0.579675604081262,9
1.81999206542969,-0.647284686565399,2.33082818984985,1.65711343288422,-0.816448984455027,2.61452119137054,1.64827790441807,2252.561,3501.229,3382.764,0,-0.09619817,0.01622253,0.1128642,-0.873204469680786,-0.436068028211594,0.552676916122437,-0.945396434568188,-0.406777674475912,0.585245428475252,9
1.83999633789063,-0.664960920810699,2.32203125953674,1.66852283477783,-0.835449117627072,2.60634596486888,1.66003989195343,2132.485,2626.939,2883.144,1560.879,-0.09383702,0.01815113,0.1089924,-0.883815467357635,-0.439843416213989,0.570470809936523,-0.954174163352093,-0.410554485950274,0.590679260733698,9
1.8599853515625,-0.682763755321503,2.31318855285645,1.67977726459503,-0.854607925216182,2.59810246519841,1.67190010651166,2275.749,3433.391,3429.414,0,-0.09985842,0.01912487,0.1113373,-0.890138626098633,-0.442130476236343,0.562723696231842,-0.962722140342816,-0.41423244164655,0.595970865687568,9
1.87998962402344,-0.700773119926453,2.30425930023193,1.69139528274536,-0.873950157556149,2.58978004298193,1.6838738697284,2102.203,2667.696,2900.718,1531.123,-0.09665091,0.02047799,0.10846,-0.900467872619629,-0.446463227272034,0.580898642539978,-0.971049893464309,-0.417815641164241,0.601126141575667,9
1.89999389648438,-0.718904793262482,2.2952778339386,1.70286095142365,-0.893456683142228,2.58138692997148,1.69594933829086,2306.26,3402.061,3428.633,0,-0.1016838,0.02082159,0.1114978,-0.906587243080139,-0.449077516794205,0.573283672332764,-0.979147395688901,-0.421299770153459,0.606138881190213,9
1.91999816894531,-0.73724365234375,2.28620290756226,1.71471846103668,-0.913122862707269,2.57292512231409,1.70812364027167,2077.106,2693.833,2827.696,1604.227,-0.0970914,0.02172229,0.1091682,-0.916940927505493,-0.453742831945419,0.592873752117157,-0.987011339258123,-0.424683405378145,0.611007036871143,9
1.93998718261719,-0.755698502063751,2.27707648277283,1.72640192508698,-0.932928814964021,2.56440317437226,1.72038446820694,2303.174,3442.068,3387.609,0,-0.1014979,0.0216884,0.1129734,-0.922742784023285,-0.456321865320206,0.584172666072845,-0.994632798067981,-0.427962706185118,0.615725082934877,9
1.95999145507813,-0.77436226606369,2.26785802841187,1.73849844932556,-0.952900013794853,2.55581012544606,1.73274759164336,2051.692,2679.864,2731.479,1742.295,-0.09563305,0.02243862,0.1106983,-0.933187365531921,-0.460923314094543,0.604825377464294,-1.00202031904361,-0.431141350077486,0.620298310335216,9
1.97999572753906,-0.793135821819305,2.25859522819519,1.75039446353912,-0.973016570682103,2.54715453300902,1.74520069864106,2292.037,3501.977,3336.325,0,-0.09977,0.0223448,0.1149127,-0.938674509525299,-0.463142037391663,0.59479832649231,-1.00916501115878,-0.434215511495054,0.624721215103391,9
1.99998474121094,-0.812118232250214,2.24924898147583,1.76271104812622,-0.99325809521779,2.53844517048404,1.75773116656619,2049.964,2652.439,2656.557,1849.253,-0.09330332,0.02316523,0.1123167,-0.9491286277771,-0.467311561107635,0.615831851959229,-1.01605883242245,-0.437181730193742,0.628988818863851,9
2.01998901367188,-0.831204116344452,2.23986959457397,1.77479946613312,-1.01365055070775,2.52967086658596,1.77035506794184,2268.189,3549.366,3311.72,0,-0.0975436,0.02321942,0.1165622,-0.954289674758911,-0.46897429227829,0.604421019554138,-1.02270954399163,-0.440043345582587,0.633105926142498,9
2.03999328613281,-0.85049706697464,2.23041892051697,1.78730857372284,-1.03417354141348,2.52084039703127,1.78305977683431,2057.64,2619.445,2626.098,1907.407,-0.09092831,0.02421978,0.1134637,-0.964650750160217,-0.47253292798996,0.625456035137177,-1.02910913225408,-0.442796909628122,0.637067576131623,9
2.05999755859375,-0.869888067245483,2.2209460735321,1.79958045482635,-1.05482201812353,2.5119559343546,1.79584216754118,2245.604,3590.404,3292.833,0,-0.09535608,0.02450953,0.117521,-0.969549894332886,-0.473646432161331,0.613596200942993,-1.03525504859546,-0.445441325732794,0.640872191117535,9
2.07998657226563,-0.889479339122772,2.21141529083252,1.81225097179413,-1.07557499515204,2.50302650811029,1.80868924892322,2074.633,2592.85,2646.062,1894.377,-0.08910351,0.02566921,0.1140822,-0.979561448097229,-0.476534336805344,0.633524239063263,-1.04114045847258,-0.4479736531836,0.644515540192423,9
2.09999084472656,-0.909163534641266,2.2018723487854,1.82468092441559,-1.09645901288412,2.49404069871208,1.82161745074311,2249.228,3565.683,3312.508,0,-0.09363195,0.0260573,0.1176503,-0.98420923948288,-0.477133125066757,0.621495425701141,-1.04677201701582,-0.450396755497224,0.648001743199023,9
2.1199951171875,-0.929040312767029,2.19228339195251,1.83749902248383,-1.11745308225396,2.48500753716864,1.83461377976925,2088.218,2595.647,2678.289,1840.942,-0.08771227,0.02720892,0.1139628,-0.993837118148804,-0.479465037584305,0.640902817249298,-1.0521429102862,-0.45270770082608,0.651326581984514,9
2.13999938964844,-0.949004352092743,2.18268942832947,1.8500839471817,-1.138551967509,2.47592927627801,1.8476749948214,2242.132,3562.131,3317.556,0,-0.09226947,0.02757195,0.1172971,-0.99820464849472,-0.479694157838821,0.629244923591614,-1.05725102347782,-0.454905579228273,0.654488747383304,8
2.15998840332031,-0.969150722026825,2.17305755615234,1.86303758621216,-1.15973418543027,2.46681515966915,1.86078779676364,2089.177,2600.353,2710.047,1792.729,-0.08663583,0.02862446,0.1136606,-1.00731933116913,-0.481589883565903,0.647680699825287,-1.06209075728,-0.456987981476842,0.657484773155346,8
2.17999267578125,-0.989377498626709,2.16342782974243,1.87575554847717,-1.18102676265167,2.45765355853653,1.8739689163698,2253.409,3518.549,3340.543,0,-0.09106626,0.02880346,0.1167665,-1.01134300231934,-0.48149111866951,0.635899722576141,-1.06666760390386,-0.458957270716794,0.660318059240953,7
2.19999694824219,-1.00977897644043,2.1537663936615,1.8888453245163,-1.20240821395574,2.44845371736898,1.88720505326679,2079.269,2618.061,2711.073,1772.933,-0.08527761,0.02966056,0.1131508,-1.02007603645325,-0.483071506023407,0.654491484165192,-1.07097597819164,-0.460811043810786,0.662985148161421,7
2.21998596191406,-1.03025305271149,2.14411234855652,1.90169775485992,-1.22385674836213,2.4392250122166,1.90048271779974,2240.398,3531.229,3327.319,0,-0.08954613,0.02966304,0.1164049,-1.02370166778564,-0.482706397771835,0.642623960971832,-1.07501122224684,-0.462547296596067,0.665483156456917,5
2.239990234375,-1.05089271068573,2.13443303108215,1.9149135351181,-1.24539969505118,2.42995568409656,1.91381882803312,2061.303,2615.982,2697.474,1791.541,-0.08349329,0.03038308,0.1129133,-1.03198611736298,-0.48396110534668,0.660787343978882,-1.07877792518082,-0.464168003639063,0.667814925005999,5
2.25999450683594,-1.07159638404846,2.12476801872253,1.92787992954254,-1.26701526177039,2.4206551096063,1.92719989352455,2251.804,3511.228,3320.929,0,-0.08756367,0.03019166,0.1161289,-1.03518545627594,-0.483254641294479,0.648321986198425,-1.08227143928024,-0.465671165158559,0.669977576652695,4
2.27999877929688,-1.0924586057663,2.1150848865509,1.9412157535553,-1.28869796983554,2.41132564607061,1.9406225227075,2046.94,2623.793,2660.919,1820.951,-0.08117209,0.0307706,0.1125469,-1.04311394691467,-0.484152555465698,0.666793406009674,-1.08549040888332,-0.467056197851165,0.67197027217779,3
2.29998779296875,-1.1133748292923,2.10542345046997,1.95428574085236,-1.31042570636616,2.40197680804417,1.95407302665558,2228.673,3537.927,3300.129,0,-0.08520997,0.03048688,0.1159187,-1.04581224918365,-0.483077377080917,0.653500080108643,-1.08843144721369,-0.468321644481621,0.673790915005368,0
2.31999206542969,-1.13444149494171,2.09575223922729,1.96772360801697,-1.33222611841886,2.3925966997709,1.96756852021384,2028.521,2608.544,2625.648,1874.409,-0.07848176,0.03104181,0.1122116,-1.05333530902863,-0.483562588691711,0.671895980834961,-1.09109790637238,-0.469468947365361,0.675441580245663,0
2.33999633789063,-1.15555250644684,2.08611083030701,1.98088014125824,-1.35407709248145,2.38319483607731,1.98109531406483,2219.684,3550.481,3279.27,0,-0.08248395,0.03073965,0.115561,-1.05554437637329,-0.482072949409485,0.657825589179993,-1.09348640563071,-0.470496651869278,0.67692017506657,0
2.3599853515625,-1.17680490016937,2.07646894454956,1.99440228939056,-1.37595634130987,2.37378080654189,1.99463961134278,2023.089,2597.455,2592.623,1907.963,-0.07561939,0.03129767,0.1116169,-1.06262147426605,-0.482091993093491,0.676108241081238,-1.09559452046326,-0.471403714787811,0.678225198571351,0
2.37998962402344,-1.19809067249298,2.06686544418335,2.00762414932251,-1.39789168475144,2.36434264106153,2.00821863385843,2198.786,3564.364,3267.958,0,-0.07971001,0.03102348,0.114898,-1.06428921222687,-0.480171948671341,0.661094605922699,-1.09742465646102,-0.47219117117957,0.679358139935436,0
2.39999389648438,-1.21950829029083,2.05727076530457,2.02121067047119,-1.41986083522252,2.35488992936084,2.02181858453579,2016.838,2581.282,2566.925,1939.387,-0.07273945,0.03161786,0.1106627,-1.07088613510132,-0.479729890823364,0.679326772689819,-1.09897439291323,-0.472857979480329,0.680317500623536,0
2.41999816894531,-1.24094867706299,2.04772233963013,2.0344865322113,-1.44185817738692,2.34542508756209,2.03543598721428,2179.418,3586.638,3246.099,0,-0.07694724,0.03140998,0.1138569,-1.07202208042145,-0.477423876523972,0.663789331912994,-1.10024313330221,-0.473403883025206,0.681102911362803,0
2.43998718261719,-1.26250863075256,2.03819179534912,2.04811096191406,-1.46386128162322,2.33595776650478,2.04905695688976,2012.813,2563.637,2561.233,1947.106,-0.07011358,0.03204317,0.1094243,-1.07799172401428,-0.476528525352478,0.681225478649139,-1.10122974390336,-0.473828394004169,0.681713670323692,0
2.45999145507813,-1.28408026695251,2.02871465682983,2.06141304969788,-1.48589810917879,2.32647593524532,2.06269880290633,2176.795,3568.289,3248.006,0,-0.07440073,0.03183285,0.1123359,-1.07858216762543,-0.473858296871185,0.665102660655975,-1.10193535162022,-0.474131997292339,0.68215047511319,0
2.47999572753906,-1.30575907230377,2.01926302909851,2.07505917549133,-1.50794623031618,2.31698924467309,2.07634764018804,2008.175,2562.6,2556.43,1938.345,-0.06765547,0.03242313,0.1076903,-1.0839387178421,-0.472582042217255,0.682308077812195,-1.10235882472314,-0.474314205938057,0.682412625136718,0
2.49998474121094,-1.32743847370148,2.00987029075623,2.08837890625,-1.5299831765145,2.30750736236496,2.08998955965012,2160.947,3578.063,3233.419,0,-0.07204543,0.03218262,0.1105143,-1.08397150039673,-0.469639956951141,0.665983021259308,-1.10250000042077,-0.474374949896755,0.682500019618683,0
2.51998901367188,-1.34921050071716,2.00050926208496,2.10202479362488,-1.5520369476803,2.29801824074336,2.10364189456856,1994.472,2555.382,2561.243,1931.958,-0.06544452,0.03271784,0.105852,-1.08860743045807,-0.468047589063644,0.682297885417938,-1.10235904000526,-0.474314298567936,0.682412758406603,0
2.53999328613281,-1.37097227573395,1.99121201038361,2.11533761024475,-1.57408507527774,2.28853154739156,2.11729073584934,2170.662,3546.075,3234.876,0,-0.06983288,0.03235019,0.1084442,-1.08808839321136,-0.464865118265152,0.665639221668243,-1.10193578218388,-0.474132182551855,0.682150741652607,0
2.55999755859375,-1.39281380176544,1.98195123672485,2.12897396087646,-1.59612191359838,2.27904971150017,2.13093258853001,1980.931,2566.81,2551.337,1922.835,-0.06326339,0.03274281,0.1037313,-1.09207808971405,-0.463031589984894,0.681822776794434,-1.10123038958312,-0.473828671822132,0.681714070030222,0
2.57998657226563,-1.41463303565979,1.97275805473328,2.14226746559143,-1.61812503288753,2.26958238396605,2.14455356752391,2153.03,3548.906,3227.019,0,-0.0676901,0.03224733,0.1063733,-1.09096252918243,-0.459666162729263,0.664677321910858,-1.1002439936861,-0.473404253224357,0.681103443981416,0
2.59999084472656,-1.43651962280273,1.96360516548157,2.15588140487671,-1.64012239440973,2.26011753383818,2.15817098218581,1957.015,2562.256,2533.326,1947.311,-0.06093898,0.0325437,0.1016781,-1.09432530403137,-0.457638829946518,0.680691540241241,-1.09897546783438,-0.47285844198887,0.680318166050934,0
2.6199951171875,-1.45837235450745,1.95452332496643,2.16914224624634,-1.66209156852628,2.2506648119635,2.17177094750084,2147.595,3546.239,3212.317,0,-0.06529006,0.03194223,0.1043483,-1.09263861179352,-0.45409107208252,0.663038492202759,-1.09742594550583,-0.472191725819537,0.679358937915576,0
2.63998413085938,-1.48028039932251,1.94548618793488,2.18272376060486,-1.6840102224118,2.24123382753286,2.18533963838626,1942.535,2559.666,2501.18,1974.931,-0.05834347,0.03215532,0.09959461,-1.09540927410126,-0.451854467391968,0.679073452949524,-1.09559752564474,-0.471405007833448,0.678227058921845,0
2.65998840332031,-1.50214278697968,1.93652415275574,2.19593453407288,-1.70590622088595,2.23181259109281,2.19889430449282,2130.794,3552.206,3199.553,0,-0.0627004,0.03149075,0.1023178,-1.09311711788177,-0.448099195957184,0.660537838935852,-1.09348812118877,-0.470497390025984,0.676921237078733,0
2.67999267578125,-1.52404952049255,1.92761158943176,2.20947074890137,-1.72775723139253,2.2224107117184,2.21242112090437,1926.525,2547.965,2462.903,2020.097,-0.05547311,0.0316774,0.09739615,-1.09532952308655,-0.445634186267853,0.676813542842865,-1.09109983431736,-0.469469776906228,0.675442773735451,0
2.69999694824219,-1.5458984375,1.91877830028534,2.22262382507324,-1.74955768413056,2.21303058593937,2.22591663964878,2111.595,3577.366,3170.122,0,-0.05988863,0.03103002,0.1001728,-1.09245204925537,-0.4416663646698,0.657654523849487,-1.08843358680109,-0.468322565086308,0.673792239511893,0
2.71998596191406,-1.56777882575989,1.90999937057495,2.23609232902527,-1.77128546553625,2.20368172860443,2.23936717137667,1914.872,2529.331,2439.406,2051.438,-0.05262406,0.03124192,0.09510237,-1.09401226043701,-0.4389328956604,0.673425137996674,-1.08549275912543,-0.467057209094684,0.671971727089609,0
2.739990234375,-1.58958995342255,1.90130496025085,2.24916291236877,-1.79296822271738,2.1943522439355,2.25278983096475,2107.126,3566.955,3162.592,0,-0.05711788,0.03059931,0.09769546,-1.09055411815643,-0.434733331203461,0.653524994850159,-1.08227399942825,-0.465672266718727,0.669979161506271,0
2.75999450683594,-1.61141932010651,1.89266991615295,2.26254725456238,-1.81458384274179,2.18505164650952,2.26617092945464,1906.265,2523.611,2421.795,2062.411,-0.04986183,0.03079504,0.09240265,-1.09147274494171,-0.431745797395706,0.669219315052032,-1.07878069424208,-0.464169195088763,0.667816639186824,0
2.77999877929688,-1.63316810131073,1.88412284851074,2.27552771568298,-1.83612684690458,2.17578229366013,2.27950707526701,2089.818,3582.094,3142.165,0,-0.05450159,0.03016286,0.0949356,-1.08744060993195,-0.427367836236954,0.649023473262787,-1.07501419914593,-0.462548577472581,0.665484999299265,0
2.79998779296875,-1.65492069721222,1.87563943862915,2.28880715370178,-1.85757544288233,2.1665535620153,2.29278477791556,1893.459,2513.768,2418.406,2065.14,-0.04742131,0.03034429,0.0895897,-1.08762872219086,-0.424171417951584,0.66397500038147,-1.07097916161324,-0.460812413548163,0.662987118851036,0
2.81999206542969,-1.67658150196075,1.86724638938904,2.30167269706726,-1.87895695992541,2.1573536925621,2.30602095550813,2090.674,3554.882,3146.389,0,-0.05213404,0.02965072,0.09192361,-1.08302807807922,-0.419645607471466,0.643271863460541,-1.06667099276523,-0.458958728849171,0.660320157107579,0
2.83999633789063,-1.69823241233826,1.85892033576965,2.31483769416809,-1.90024960698239,2.14819206138118,2.31920211834584,1878.922,2517.934,2409.191,2063.428,-0.04505536,0.02974608,0.0864918,-1.08255612850189,-0.416304618120193,0.65824830532074,-1.06209435025759,-0.456989527434725,0.657486997379635,0
2.8599853515625,-1.71978044509888,1.85068655014038,2.32758545875549,-1.92143189875059,2.13907791299805,2.33231496600284,2074.655,3565.108,3129.257,0,-0.04982135,0.02898879,0.08887234,-1.07740020751953,-0.411690771579742,0.637386322021484,-1.05725481901126,-0.454907212340279,0.654491096999312,0
2.87998962402344,-1.74130535125732,1.84252166748047,2.34062147140503,-1.94253086194772,2.12999961857111,2.34537622930486,1858.23,2511.9,2402.154,2073.589,-0.04273841,0.02901998,0.08351469,-1.07623100280762,-0.408236533403397,0.651795029640198,-1.05214690704168,-0.452709420518306,0.651329056166547,0
2.89999389648438,-1.76271605491638,1.83445119857788,2.35323214530945,-1.96352501326936,2.1209664217661,2.35837260906308,2084.312,3536.656,3125.543,0,-0.04746499,0.02813993,0.08577271,-1.07054829597473,-0.403529047966003,0.630535125732422,-1.04677621342161,-0.450398561093403,0.648004340974112,0
2.91999816894531,-1.78409123420715,1.82645177841187,2.36613392829895,-1.98440911693069,2.11198057539494,2.37130086407726,1840.914,2520.632,2380.162,2082.722,-0.04028457,0.02804901,0.08038472,-1.06876218318939,-0.399971663951874,0.645092964172363,-1.04114485287423,-0.447975543971863,0.644518260536375,0
2.93998718261719,-1.80534195899963,1.81854820251465,2.37860035896301,-2.00516218376194,2.10305111051103,2.38414800105147,2066.799,3545.346,3110.765,0,-0.04504897,0.02707649,0.08274509,-1.06253695487976,-0.395182132720947,0.623326063156128,-1.03525963910674,-0.445443300901551,0.640875032862689,0
2.95999145507813,-1.82654500007629,1.81071770191193,2.39135694503784,-2.02581075424974,2.0941666074844,2.39693044981124,1816.551,2513.157,2355.181,2117.403,-0.03766882,0.02692608,0.07736588,-1.06014931201935,-0.391521334648132,0.637834906578064,-1.02911391720548,-0.442798968459032,0.637070538244476,0
2.97999572753906,-1.84761369228363,1.80298507213593,2.40366816520691,-2.04633384260397,2.08533609591429,2.40963521915279,2062.61,3543.252,3093.91,0,-0.04240604,0.02589154,0.07974391,-1.05342030525208,-0.386626780033112,0.615557968616486,-1.02271452148052,-0.440045487257004,0.633109007445237,0
2.99998474121094,-1.86862254142761,1.79532861709595,2.41627073287964,-2.0667108956286,2.07656841926675,2.42224958566868,1801.984,2509.02,2324.518,2145.278,-0.03488741,0.02569135,0.07429307,-1.05045557022095,-0.382827490568161,0.630124807357788,-1.01606916835995,-0.437186177458897,0.628995217301535,0
3.01998901367188,-1.88948690891266,1.78777241706848,2.42841291427612,-2.0869680292999,2.06785234056679,2.43478971639231,2047.859,3547.309,3081.209,0,-0.03967844,0.02463006,0.07669386,-1.04321622848511,-0.37780836224556,0.607113420963287,-1.00917036754089,-0.434217816196637,0.624724530959079,0
3.03999328613281,-1.91028082370758,1.7802951335907,2.44085001945496,-2.10708469520508,2.05919670122237,2.4472428908773,1786.514,2498.849,2294.11,2180.41,-0.03199415,0.02441599,0.07111174,-1.03969240188599,-0.373857349157333,0.621852457523346,-1.00202586176059,-0.431143734953757,0.620301741541063,0
3.05999755859375,-1.93091988563538,1.77292084693909,2.45281767845154,-2.12705600675913,2.05060360379452,2.45960608409476,2033.331,3562.252,3057.77,0,-0.03687093,0.02337442,0.07353103,-1.03196835517883,-0.368712335824966,0.598377346992493,-0.994638524886308,-0.427965170275055,0.615728628108227,0
3.07998657226563,-1.95147657394409,1.76562905311584,2.4650719165802,-2.14686207530873,2.04208160581513,2.47186698402085,1772.763,2486.002,2276.764,2202.182,-0.02920263,0.02317622,0.06786356,-1.02783763408661,-0.364597111940384,0.612717807292938,-0.987017247723776,-0.424685947625853,0.611010694492843,0
3.09999084472656,-1.97186970710754,1.75844240188599,2.47684574127197,-2.16652837486666,2.03361974652815,2.48404136028297,2030.646,3547.98,3052.576,0,-0.03415131,0.0221307,0.07013635,-1.01964354515076,-0.359328597784042,0.588693618774414,-0.979153483542501,-0.421302389586788,0.606142649861596,0
3.1199951171875,-1.99216818809509,1.75134110450745,2.48890662193298,-2.18603502400946,2.02522658035469,2.49611690533293,1760.655,2484.424,2261.807,2210.02,-0.02648993,0.02190358,0.06434476,-1.01492166519165,-0.355070173740387,0.60304856300354,-0.971056158224178,-0.417818336715394,0.601130019760458,0
3.13998413085938,-2.01229357719421,1.74434673786163,2.50048279762268,-2.20536269329809,2.01691042421237,2.50808165332716,2017.915,3555.61,3035.346,0,-0.03154727,0.02084835,0.06659795,-1.00626540184021,-0.349712878465652,0.57881236076355,-0.962735018414262,-0.414237982720922,0.59597883782726,0
3.15998840332031,-2.03231191635132,1.73743999004364,2.51233577728271,-2.22453632143911,2.00866054767245,2.51995104251302,1741.909,2478.933,2256.068,2217.335,-0.02396898,0.02059915,0.06082647,-1.00091755390167,-0.34534478187561,0.592651724815369,-0.954180774018563,-0.410557330335374,0.590683353051152,0
3.17999267578125,-2.05214834213257,1.73064136505127,2.52369809150696,-2.24353658854737,2.00048526354177,2.53171311296128,2024.506,3530.329,3032.255,0,-0.02906521,0.01947484,0.06293523,-0.991826236248016,-0.339919596910477,0.568112969398499,-0.945403214201559,-0.406780591562751,0.585249625391267,0
3.19999694824219,-2.07186603546143,1.72393202781677,2.53533792495728,-2.2623590635174,1.99238647840124,2.54336512160655,1725.304,2487.212,2242.281,2218.363,-0.02150982,0.01913774,0.05715376,-0.985897481441498,-0.33547380566597,0.581995725631714,-0.936405971974636,-0.402909329586355,0.579679903854719,0
3.21998596191406,-2.09139347076416,1.7173318862915,2.54647970199585,-2.280985241111,1.98437215453788,2.55489561282487,2011.464,3529.71,3023.281,0,-0.02667475,0.01794075,0.05931738,-0.976369738578796,-0.330008566379547,0.55708783864975,-0.927199897745278,-0.398948213033402,0.573980905360615,0
3.239990234375,-2.11079144477844,1.71082186698914,2.5578989982605,-2.2994392795179,1.97643189735754,2.5663195416865,1701.26,2484.435,2224.318,2241.642,-0.01899739,0.0175434,0.05358697,-0.969893038272858,-0.325508624315262,0.570965945720673,-0.917774783907129,-0.394892849856044,0.568146310914365,0
3.25999450683594,-2.12999057769775,1.70442199707031,2.56881284713745,-2.31770268688992,1.96857366338589,2.57762546085652,2008.509,3523.087,3010.381,0,-0.02413996,0.01628232,0.05578324,-0.959969341754913,-0.319996327161789,0.545689582824707,-0.90814153446928,-0.390747931744771,0.562182870617026,0
3.27999877929688,-2.14905047416687,1.69811344146729,2.58000683784485,-2.33577134012187,1.96079922667992,2.58881081793642,1685.305,2483.419,2197.131,2264.77,-0.01633476,0.01582614,0.05004982,-0.952982544898987,-0.315417528152466,0.559698820114136,-0.898304216251578,-0.386515208538549,0.556093102023818,0
3.29998779296875,-2.16790390014648,1.69191694259644,2.59068369865417,-2.35362764460945,1.95311615770631,2.59986472102797,1999.827,3522.293,2997.07,0,-0.021521,0.01452267,0.05228438,-0.942675948143005,-0.309839427471161,0.53384530544281,-0.888274735793772,-0.382199803288803,0.549884375850026,0
3.31999206542969,-2.186607837677,1.68581366539001,2.60164260864258,-2.37129490830989,1.94551442770222,2.61080159886703,1664.943,2476.723,2171.649,2296.688,-0.01355549,0.01404029,0.04650019,-0.935199618339539,-0.305162787437439,0.547951102256775,-0.878042061913513,-0.37779696958594,0.54354986326829,0
3.33999633789063,-2.2050986289978,1.67982363700867,2.61207675933838,-2.38875555478454,1.93800159931817,2.62161057080077,1993.098,3525.7,2978.237,0,-0.01877316,0.01272775,0.0487371,-0.924537301063538,-0.299502789974213,0.521707534790039,-0.867618167158097,-0.373311858882592,0.53709697585572,0
3.3599853515625,-2.22342967987061,1.67392921447754,2.62279176712036,-2.40599272667425,1.93058492580486,2.63228120132087,1652.684,2471.915,2147.607,2316.889,-0.01079592,0.01223153,0.04289743,-0.916566967964172,-0.294707328081131,0.535745799541473,-0.857015715678588,-0.368749920209162,0.530533553325099,0
3.37998962402344,-2.24154090881348,1.6681501865387,2.63296961784363,-2.42302905329872,1.92325467039821,2.6428274990542,1985.324,3518.991,2970.681,0,-0.01612171,0.01091359,0.04508513,-0.905554890632629,-0.288968294858932,0.508893966674805,-0.846223126656603,-0.364106170663035,0.523852426598178,0
3.39999389648438,-2.25948309898376,1.66246843338013,2.6434314250946,-2.43984769972619,1.91601807669906,2.65323904237604,1637.146,2467.589,2126.813,2337.759,-0.008103999,0.01040393,0.03915523,-0.897105157375336,-0.284072071313858,0.523084938526154,-0.835253140422974,-0.35938609205264,0.51706148254665,0
3.41999816894531,-2.27719807624817,1.65690302848816,2.65335035324097,-2.45644516534361,1.90887665092339,2.66351366424015,1973.012,3527.146,2953.292,0,-0.01354058,0.009102882,0.04136088,-0.885760128498077,-0.278272330760956,0.495943427085876,-0.824110582941664,-0.354591760855451,0.510163708672097,0
3.43998718261719,-2.29473471641541,1.65143728256226,2.66354727745056,-2.47280564474684,1.90183719369507,2.67364158034846,1621.547,2460.929,2114.135,2351.8,-0.005584649,0.008598855,0.0354332,-0.876821279525757,-0.273293912410736,0.509847164154053,-0.812809078412023,-0.349729039183832,0.50316753900293,0
3.45999145507813,-2.31203818321228,1.64608836174011,2.67319273948669,-2.48895081463434,1.8948903781363,2.68363620960993,1973.226,3508.223,2951.173,0,-0.01109047,0.007283639,0.03754322,-0.865168571472168,-0.26745417714119,0.482275098562241,-0.80133641229185,-0.344792671461508,0.496065412155666,0
3.47999572753906,-2.32915329933167,1.64084005355835,2.68311953544617,-2.50486489870395,1.88804299234919,2.69348778574196,1606.704,2463.155,2099.317,2360.026,-0.003120692,0.006742766,0.03157829,-0.855765998363495,-0.262417376041412,0.496341407299042,-0.789706299681989,-0.339788558913217,0.488865818431069,0
3.49998474121094,-2.34602975845337,1.63570880889893,2.69249129295349,-2.52053292953407,1.8813014763971,2.70318704319762,1963.695,3512.07,2936.006,0,-0.008709069,0.005412002,0.03372358,-0.843816757202148,-0.256554424762726,0.468591779470444,-0.777933044257461,-0.334722856010721,0.481577612485354,0
3.51998901367188,-2.362708568573,1.63067924976349,2.70213985443115,-2.53597583877076,1.87465682397749,2.71274693966292,1587.339,2460.39,2087.277,2373.722,-0.0007579356,0.004852004,0.02782095,-0.833958685398102,-0.251476466655731,0.482422769069672,-0.766004036374581,-0.329590137176618,0.474192988348404,0
3.53999328613281,-2.37914347648621,1.62576746940613,2.71122694015503,-2.55117869390181,1.86811546013321,2.72215823120146,1969.415,3491.517,2930.536,0,-0.006387858,0.00347543,0.02989402,-0.821747362613678,-0.245600283145905,0.454352855682373,-0.753933682518821,-0.324396601119134,0.466720864320997,0
3.55999755859375,-2.39537310600281,1.62095737457275,2.72059416770935,-2.56613872308604,1.86167857751006,2.73141920191151,1571.076,2466.36,2069.154,2383.289,0.001572873,0.002857871,0.02399792,-0.811465561389923,-0.240489110350609,0.468356013298035,-0.741727567798258,-0.319144650954242,0.459164697851087,0
3.57998657226563,-2.41135311126709,1.61626529693604,2.72939276695251,-2.58084213759183,1.85535210901407,2.74052131591136,1959.855,3490.813,2920.281,0,-0.004142813,0.001446198,0.02612718,-0.799002766609192,-0.234609082341194,0.439930588006973,-0.72940084364523,-0.31384080592,0.451533868397061,0
3.59999084472656,-2.4271194934845,1.61167597770691,2.7384729385376,-2.59530884290342,1.84912748987145,2.74947689564398,1550.718,2464.057,2050.294,2405.89,0.003885085,0.0007989692,0.02027517,-0.788326859474182,-0.229475870728493,0.454009890556335,-0.716940488958392,-0.308479463400265,0.4438203152769,0
3.6199951171875,-2.44263243675232,1.6072039604187,2.74697804450989,-2.60952509409627,1.84301063413925,2.75827743234631,1958.191,3484.059,2908.779,0,-0.0018738,-0.0006359629,0.0224252,-0.775649011135101,-0.223589792847633,0.425256162881851,-0.704361775018033,-0.303067194200314,0.436033492140578,0
3.63998413085938,-2.45792484283447,1.60283541679382,2.75576710700989,-2.623478029369,1.83700707589127,2.76691496395061,1536.152,2463.676,2028.869,2423.993,0.006187516,-0.001310275,0.01658561,-0.764606773853302,-0.218424081802368,0.439457416534424,-0.691680442442073,-0.297610771068296,0.428183143180413,0
3.65998840332031,-2.47295951843262,1.5985848903656,2.76397752761841,-2.63718676607487,1.8311085894645,2.77540132500924,1940.368,3487.423,2889.107,14.79185,0.0004447163,-0.002712163,0.01878445,-0.751740217208862,-0.212530240416527,0.41051858663559,-0.678883253871145,-0.292104498338286,0.420261073840379,0
3.67999267578125,-2.4877667427063,1.59443867206573,2.77246832847595,-2.65063849381582,1.82532068681534,2.78372858527554,1528.604,2458.849,2011.93,2434.721,0.008481435,-0.003371029,0.01296443,-0.740350663661957,-0.20731857419014,0.42453995347023,-0.665986083416798,-0.286555206197011,0.41227711095171,0
3.69999694824219,-2.50231313705444,1.59041047096252,2.78038573265076,-2.66383127580226,1.81964420129024,2.79189554578451,1921.776,3488.426,2855.926,47.74685,0.002846888,-0.004681305,0.01511522,-0.727326929569244,-0.201408743858337,0.395869493484497,-0.65299527533123,-0.280965624398954,0.404235181908735,0
3.71998596191406,-2.51662492752075,1.58648777008057,2.78856635093689,-2.67675353880252,1.81408411252746,2.79989504215442,1528.454,2458.901,2009.888,2417.201,0.01062716,-0.005289038,0.009354622,-0.715587437152863,-0.196137845516205,0.409026026725769,-0.639927289491732,-0.275342835169479,0.396145476159594,0
3.739990234375,-2.53067374229431,1.58268308639526,2.79618787765503,-2.68942333385363,1.80863265367006,2.80773824883709,1900.097,3472.479,2820.426,105.208,0.005225538,-0.006469883,0.0112956,-0.702425241470337,-0.190225645899773,0.381079196929932,-0.62676873176137,-0.26968107538565,0.387999702095468,0
3.75999450683594,-2.5444803237915,1.57898473739624,2.80404734611511,-2.70182915057228,1.80329477731443,2.81541804035694,1537.742,2471.611,2022.567,2362.552,0.01253491,-0.007025952,0.005646298,-0.690323770046234,-0.184907406568527,0.392970114946365,-0.613536214864365,-0.263987493038594,0.379808143784027,0
3.77999877929688,-2.55802059173584,1.57540452480316,2.81137228012085,-2.7139695770734,1.79807109095524,2.82293354268985,1878.238,3447.158,2780.063,178.8884,0.007405257,-0.008083226,0.007296635,-0.67702180147171,-0.179023995995522,0.366248160600662,-0.60023651686137,-0.258265004538452,0.371574997167698,0
3.79998779296875,-2.57131195068359,1.57193052768707,2.81890034675598,-2.72583438304408,1.79296599641037,2.83027842278479,1545.638,2496.307,2049.655,2282.143,0.01404876,-0.008600412,0.001884594,-0.664553642272949,-0.173707202076912,0.376408874988556,-0.586886736182787,-0.252520966862155,0.36331084698941,0
3.81999206542969,-2.58433437347412,1.56857240200043,2.8259265422821,-2.73744054699573,1.78797218830065,2.83746319114912,1849.95,3408.803,2738.873,274.5686,0.009332444,-0.009539976,0.003220911,-0.651116609573364,-0.167908623814583,0.351310074329376,-0.573473482003301,-0.246749618311662,0.355007403690404,0
3.83999633789063,-2.59710025787354,1.56531953811646,2.83311796188354,-2.74877791451009,1.78309403578861,2.84448156171422,1557.641,2530.692,2083.333,2181.306,0.01526049,-0.01003586,-0.001840244,-0.638304948806763,-0.162644132971764,0.359567165374756,-0.560014026276881,-0.240958390526246,0.346675359432959,0
3.8599853515625,-2.60959529876709,1.56218028068542,2.83984613418579,-2.75983729406747,1.77833549372837,2.85132784449154,1823.534,3363.436,2692.056,382.2776,0.01105252,-0.01088221,-0.0008133294,-0.624746561050415,-0.156969606876373,0.336405754089355,-0.546525890176286,-0.235154822377061,0.338325560657667,0
3.87998962402344,-2.62182855606079,1.55914402008057,2.84669709205627,-2.7706348636882,1.77368960116974,2.85801205444635,1567.375,2571.428,2120.359,2072.92,0.01625475,-0.01136637,-0.005434447,-0.611636877059937,-0.151792481541634,0.342545211315155,-0.532995796775444,-0.22933320117373,0.329949788314816,0
3.89999389648438,-2.63378763198853,1.55621886253357,2.85312724113464,-2.78116151864576,1.76916027562219,2.86452855531919,1797.532,3310.613,2641.715,501.7549,0.01267313,-0.01213123,-0.004730307,-0.597980618476868,-0.146265670657158,0.321508705615997,-0.519441457145543,-0.223501147495394,0.321559006401168,0
3.91999816894531,-2.64548015594482,1.55339503288269,2.85963797569275,-2.79141684911929,1.7647476934202,2.87087709341145,1582.718,2617.831,2153.802,1957.385,0.01714137,-0.0126138,-0.008888034,-0.584626853466034,-0.141183435916901,0.325540870428085,-0.505870408491346,-0.2176619043907,0.313157880805522,0
