t,x_s1,x_s2,x_s3,x_s_d1,x_s_d2,x_s_d3,propellers_rpms1,propellers_rpms2,propellers_rpms3,propellers_rpms4,rollRad,pitchRad,yawRad,v_s1,v_s2,v_s3,v_s_d1,v_s_d2,v_s_d3,insideCount
0,-0.0599999986588955,2.94000005722046,1.17999994754791,-0.0599999986588955,2.94000005722046,1.17999994754791,0,0,0,0,0,0,0,0,0,0,-1.06581410364015E-15,4.44089209850063E-16,4.44089209850063E-16,0
0.0200042724609375,-0.0599999986588955,2.94000005722046,1.17811644077301,-0.0600018701838461,2.93999925195556,1.18000110611101,0,0,0,0,-0.01635288,0.0001297794,-0.01587137,-1.10653664009419E-09,-7.76775763711157E-08,-0.0941759571433067,-0.000280105751305916,-0.000120521679537258,0.00017339880334547,9
0.0399932861328125,-0.0599999986588955,2.94000005722046,1.17242503166199,-0.060014863945674,2.93999366110285,1.18000914986856,0,0,0,0,-0.03270202,0.0005238493,-0.03175127,-1.08383135799528E-09,-7.60859677484405E-08,-0.284568399190903,-0.00111059898697896,-0.000477859717552347,0.000687513678106196,9
0.05999755859375,-0.0599058829247952,2.93990302085876,1.16596519947052,-0.0600498857373401,2.93997859220429,1.18003083002592,1867.904,3252.744,3184.064,1722.533,-0.04942081,0.0003291642,-0.01369451,0.00470578344538808,-0.00484931888058782,-0.322993487119675,-0.00247936261166862,-0.00106680046642749,0.00153484356504269,9
0.0800018310546875,-0.0598203651607037,2.93960738182068,1.16000318527222,-0.0601175574246769,2.93994947496775,1.18007272202403,1925.689,2314.406,3251.882,2829.42,-0.07542925,-0.002135855,0.02094752,0.00427580904215574,-0.0147780273109674,-0.298102557659149,-0.00437268608126799,-0.00188144466206175,0.00270690098422899,9
0.0999908447265625,-0.0599374361336231,2.93904495239258,1.15498661994934,-0.0602281370710988,2.93990189563514,1.18014117609281,980.3461,1498.873,3914.857,3896.541,-0.1031932,-0.008062454,0.06330631,-0.00585355889052153,-0.0281156711280346,-0.250828981399536,-0.00677536694902951,-0.00291525111632684,0.0041942748969354,8
0.1199951171875,-0.060463834553957,2.93818354606628,1.15081334114075,-0.0603918861403606,2.93983143898525,1.18024254456713,346.1977,980.26,4173.206,4613.362,-0.1214295,-0.01542077,0.1040004,-0.0263199284672737,-0.0430677868425846,-0.20866422355175,-0.00967801353495435,-0.00416417885169243,0.00599115140585487,8
0.139999389648438,-0.0615635700523853,2.93704128265381,1.1472829580307,-0.0606185767455666,2.93973390035084,1.18038287685052,353.0333,747.2346,3975.123,4854.899,-0.1253987,-0.02116627,0.1351041,-0.0549868755042553,-0.0571124851703644,-0.176520496606827,-0.0130660253322238,-0.00562194567796536,0.00808849210174802,7
0.160003662109375,-0.0633407756686211,2.93568110466003,1.14427495002747,-0.0609177895434042,2.93960515744296,1.18056810382587,821.0941,815.0187,3462.568,4692.36,-0.118459,-0.02352317,0.1522677,-0.0888603180646896,-0.0680128633975983,-0.150397926568985,-0.0169265510445065,-0.00728302204135792,0.0104783414199936,7
0.17999267578125,-0.065846785902977,2.93417263031006,1.14182543754578,-0.0612985250199726,2.93944133760391,1.18080379722281,1348.71,1083.38,3006.764,4255.208,-0.1079832,-0.02277908,0.155776,-0.12530043721199,-0.0754290074110031,-0.122478008270264,-0.0212433804254414,-0.00914043312572283,0.0131506644458931,7
0.199996948242188,-0.0690848380327225,2.93255424499512,1.14006185531616,-0.0617704296168641,2.93923829023936,1.18109592864822,1636.077,1380.892,2919.077,3666.346,-0.09982806,-0.02030128,0.1501562,-0.16190280020237,-0.080915242433548,-0.0881805270910263,-0.0260104776919234,-0.0111915819022102,0.0161017247421801,7
0.220001220703125,-0.073010116815567,2.93082642555237,1.139035820961,-0.0623420644491781,2.93899233174064,1.18144979784016,1641.519,1580.823,3147.889,3113.139,-0.09583758,-0.01735475,0.1421895,-0.196263834834099,-0.086386151611805,-0.0512993223965168,-0.03121219533433,-0.0134297356845702,0.019321835755004,7
0.240005493164063,-0.0775497853755951,2.92897391319275,1.13863325119019,-0.0630219993990999,2.93869977472688,1.18187070996396,1524.439,1624.352,3417.368,2777.422,-0.09475687,-0.01467721,0.1377334,-0.226983532309532,-0.0926236659288406,-0.0201296862214804,-0.0368361158647881,-0.0158495515746756,0.0228033104678445,7
0.259994506835938,-0.0826386511325836,2.92699289321899,1.13863563537598,-0.0638179029240226,2.93835731967507,1.18236341216003,1439.019,1500.828,3533.26,2744.218,-0.09439415,-0.01258823,0.1393017,-0.254442930221558,-0.0990566089749336,0.000117845833301544,-0.0428651747123285,-0.0184436871643672,0.0265355850983733,7
0.279998779296875,-0.0882445201277733,2.92490124702454,1.13885247707367,-0.0647390625194898,2.93796097043536,1.18293365383054,1399.906,1275.629,3477.446,2977.811,-0.09321277,-0.01110645,0.1456856,-0.280293881893158,-0.104584880173206,0.0108429621905088,-0.0492963837173861,-0.0212108567320638,0.030516809833474,7
0.300003051757813,-0.0943702459335327,2.92273306846619,1.13920724391937,-0.0657927507678135,2.93750759781875,1.18358593705038,1350.737,1061.74,3344.76,3324.828,-0.09053096,-0.009935189,0.1533116,-0.306286245584488,-0.108407564461231,0.0177379548549652,-0.0561132031658829,-0.0241439437008635,0.0347367458022363,7
0.319992065429688,-0.101035505533218,2.92052626609802,1.13972520828247,-0.0669855955880233,2.93699435001684,1.18432436481717,1281.47,941.4073,3236.919,3590.35,-0.08597802,-0.008522648,0.1583586,-0.333262801170349,-0.110341787338257,0.0258954204618931,-0.0632980253096114,-0.0272353719486164,0.0391844929697465,7
0.339996337890625,-0.108251079916954,2.91831278800964,1.14046204090118,-0.068326768706371,2.93641728069206,1.18515461486636,1252.653,943.7963,3171.841,3649.898,-0.07944582,-0.006291984,0.158477,-0.360779285430908,-0.110679768025875,0.0368392579257488,-0.0708499516420146,-0.0304847548730522,0.0438594951176439,7
0.360000610351563,-0.116002589464188,2.91611552238464,1.14145302772522,-0.0698225328270578,2.93577369517774,1.1860805641102,1319.65,1047.289,3120.407,3498.322,-0.07154582,-0.002963033,0.1534734,-0.387575268745422,-0.109858393669128,0.0495484732091427,-0.0787518717320621,-0.0338847303337087,0.0487511600740379,8
0.3800048828125,-0.124250888824463,2.91395044326782,1.14270782470703,-0.0714797725314022,2.93506063123087,1.18710647443246,1455.911,1181.964,3090.262,3231.002,-0.0636144,0.001259794,0.1450354,-0.412415623664856,-0.108255825936794,0.0627416223287582,-0.0869921272359981,-0.0374302820709642,0.0538522707687797,8
0.399993896484375,-0.132942646741867,2.91182708740234,1.1442174911499,-0.0733036822025899,2.9342758538535,1.18823556140379,1579.593,1273.668,3104.89,2981.639,-0.05702467,0.005826743,0.1357448,-0.434588104486465,-0.106164380908012,0.0754813849925995,-0.0955525119207663,-0.0411135764513579,0.0591515566763244,8
0.419998168945313,-0.142023026943207,2.90975093841553,1.1459584236145,-0.0753034649285836,2.93341540321397,1.18947352217404,1630.257,1288.159,3160.202,2844.999,-0.0524435,0.01017421,0.1278591,-0.454019129276276,-0.103803545236588,0.0870460793375969,-0.104434660908044,-0.0449353170220673,0.0646500300148815,8
0.44000244140625,-0.151445388793945,2.9077250957489,1.14789605140686,-0.077483988232608,2.93247718495301,1.19082336997196,1607.052,1238.177,3218.854,2843.151,-0.04965464,0.0139745,0.122465,-0.471118450164795,-0.101292908191681,0.0968815684318542,-0.113620829717891,-0.048887868829098,0.0703367061060819,8
0.459991455078125,-0.161176040768623,2.90575242042542,1.1499969959259,-0.0798493430620752,2.93145943885026,1.19228763728888,1542.634,1158.54,3251.848,2937.769,-0.04788417,0.01718712,0.1193403,-0.486532479524612,-0.0986395254731178,0.105050176382065,-0.123092454730403,-0.0529632444654124,0.0762000931848968,8
0.479995727539063,-0.17119288444519,2.90383696556091,1.15223932266235,-0.0824088828700873,2.93035814037613,1.19387211435783,1473.519,1085.792,3249.2,3067.294,-0.04628893,0.0199863,0.1173801,-0.500841856002808,-0.0957778543233871,0.11211696267128,-0.132852887402757,-0.0571628859694044,0.0822422659629699,8
0.5,-0.181480273604393,2.90198421478271,1.15461587905884,-0.085166398670376,2.92917165836334,1.1955791479969,1431.4,1046.315,3216.165,3170.148,-0.04433258,0.02264308,0.1152249,-0.514370679855347,-0.0926394611597061,0.118827924132347,-0.142884000065179,-0.0614789935111996,0.0884520025491718,8
0.520004272460938,-0.192023456096649,2.90019965171814,1.15713477134705,-0.088127196023106,2.92789770997757,1.19741202260058,1424.496,1045.398,3176.855,3209.734,-0.04191869,0.02538016,0.1118818,-0.527158617973328,-0.0892268344759941,0.125942140817642,-0.153174893518032,-0.065906877469682,0.0948225558197254,9
0.539993286132813,-0.202803716063499,2.89848685264587,1.15981006622314,-0.091293865515634,2.92653518056143,1.19937234186584,1445.826,1073.486,3148.883,3184.275,-0.0392992,0.02828988,0.1070448,-0.539012968540192,-0.0856383442878723,0.133762404322624,-0.163706645289342,-0.0704383960337938,0.101342211863077,9
0.55999755859375,-0.213797017931938,2.89684629440308,1.1626535654068,-0.094676112580471,2.92507989413848,1.20146611391775,1482.732,1113.479,3140.051,3114.602,-0.03689117,0.03132627,0.1010609,-0.549665153026581,-0.0820334404706955,0.142174333333969,-0.17448465888317,-0.0750758741803766,0.108014315705644,9
0.580001831054688,-0.224975243210793,2.89527463912964,1.16566836833954,-0.0982762614093182,2.92353085067394,1.20369477754168,1521.193,1148.8,3145.18,3035.274,-0.0351239,0.03434502,0.09465823,-0.558911979198456,-0.0785792842507362,0.150739818811417,-0.185490414529404,-0.0798113433697334,0.11482740272751,9
0.599990844726563,-0.236309885978699,2.89376616477966,1.16885149478912,-0.102095761416081,2.92188742652551,1.20605922999388,1542.383,1167.359,3162.331,2978.102,-0.03428713,0.03716301,0.08861436,-0.566731333732605,-0.0754198953509331,0.15915684401989,-0.19670480600515,-0.0846365827279185,0.121769645266545,9
0.6199951171875,-0.247775197029114,2.89231276512146,1.17219495773315,-0.106144683970236,2.92014528826426,1.20856570593183,1533.579,1166.952,3183.274,2964.605,-0.03442136,0.03963097,0.08346194,-0.57326602935791,-0.0726655125617981,0.167170330882072,-0.208134604141382,-0.0895545055543457,0.128845234789665,9
0.639999389648438,-0.259350389242172,2.89090514183044,1.17568719387054,-0.110424235525481,2.91830391678686,1.21121495220784,1506.109,1156.305,3194.487,2987.861,-0.03534387,0.04169712,0.07930013,-0.578761041164398,-0.0703806206583977,0.174614325165749,-0.219761081350814,-0.0945570538913933,0.136042578028218,9
0.660003662109375,-0.271020174026489,2.88953328132629,1.17932045459747,-0.114938248900541,2.91636166293851,1.21400934151928,1468.353,1144.653,3196.954,3030.112,-0.03677772,0.04338701,0.07590038,-0.583488047122955,-0.0685952827334404,0.18166421353817,-0.231574097577923,-0.0996398647564507,0.143355397804799,9
0.67999267578125,-0.282773107290268,2.88818669319153,1.18308973312378,-0.119686638739014,2.91431856344567,1.21694882102647,1429.454,1139.773,3190.614,3074.944,-0.03845178,0.04477733,0.07287925,-0.587648034095764,-0.0673240050673485,0.188461810350418,-0.243554411173546,-0.104794659005432,0.150771782621969,9
0.699996948242188,-0.294600129127502,2.88685512542725,1.18699300289154,-0.124680083855354,2.91217002351282,1.22004000142426,1402.239,1145.918,3178.898,3102.884,-0.04017591,0.04596493,0.0698619,-0.591350734233856,-0.066576212644577,0.195164710283279,-0.255710395848158,-0.11002503961202,0.158296916205407,9
0.720001220703125,-0.306492388248444,2.88552784919739,1.19102895259857,-0.129918284978346,2.90991617190799,1.22328269744952,1393.765,1162.836,3162.743,3107.184,-0.04192774,0.04702041,0.06663217,-0.594612896442413,-0.0663624852895737,0.201797664165497,-0.268023157655716,-0.11532287703907,0.16591910230247,9
0.740005493164063,-0.318440794944763,2.88419365882874,1.19519925117493,-0.13540428105644,2.90755570105657,1.22667879035609,1394.852,1185.404,3152.534,3092.314,-0.04382391,0.04795539,0.06321316,-0.597420275211334,-0.0667100325226784,0.208516135811806,-0.280482990349159,-0.120683994959631,0.173632332283853,9
0.759994506835938,-0.330435901880264,2.88284039497375,1.19950437545776,-0.14113644597991,2.90508931062815,1.2302272735046,1392.499,1207.675,3149.665,3074.661,-0.04601037,0.04873471,0.05980989,-0.599754869937897,-0.067660965025425,0.215257972478867,-0.293070637251543,-0.126100107763583,0.181424685349205,9
0.779998779296875,-0.342468738555908,2.88145518302917,1.20394277572632,-0.147126184485884,2.90251209348295,1.23393520697061,1384.538,1226.18,3152.626,3060.532,-0.04855528,0.04931412,0.0566599,-0.601642787456512,-0.0692575573921204,0.221921175718307,-0.305795832832518,-0.131575403921268,0.189302187598958,9
0.800003051757813,-0.354531764984131,2.88002467155457,1.20850884914398,-0.153371683173492,2.89982482987671,1.2378014681726,1373.782,1240.497,3153.536,3055.108,-0.05147464,0.04965865,0.05394157,-0.603150486946106,-0.0715230852365494,0.228306233882904,-0.318639638509124,-0.13710173468952,0.197253115148089,9
0.819992065429688,-0.36661958694458,2.87853527069092,1.21319842338562,-0.159870162197751,2.89702871589906,1.2418243362541,1355.583,1251.155,3155.329,3059.874,-0.05473861,0.04974177,0.05175398,-0.604393064975739,-0.0744701623916626,0.234478756785393,-0.33158286215529,-0.142670842232658,0.205265587156312,9
0.839996337890625,-0.378729432821274,2.87697339057922,1.21800708770752,-0.166633637018892,2.89411858163313,1.24601124935738,1325.12,1259.495,3156.745,3078.91,-0.05825185,0.04955898,0.05010567,-0.605492234230042,-0.0780997276306152,0.240431651473045,-0.344636106234817,-0.148287288494656,0.213346167053785,8
0.860000610351563,-0.39086052775383,2.87532544136047,1.22292840480804,-0.173659158941841,2.89109569582005,1.2503603820997,1299.957,1268.979,3151.118,3098.278,-0.06187056,0.04915102,0.04886536,-0.606555461883545,-0.0823919773101807,0.24606828391552,-0.357780475378537,-0.153942943326036,0.221483157706883,8
0.8800048828125,-0.403013974428177,2.87357902526855,1.22795975208282,-0.180948461186242,2.88795931270381,1.25487280742661,1279.584,1281.177,3144.932,3111.668,-0.06550843,0.048557,0.04791104,-0.607670962810516,-0.0873240828514099,0.251565545797348,-0.371007022483504,-0.159633957038354,0.229671020432672,8
0.899993896484375,-0.415191650390625,2.87172174453735,1.23309850692749,-0.18849723509595,2.8847112861788,1.25954585807468,1259.144,1295.366,3138.671,3123.929,-0.06912608,0.04780674,0.04717604,-0.608884990215302,-0.0928686261177063,0.256936877965927,-0.384296738353309,-0.165352150505452,0.237897987633041,8
0.919998168945313,-0.427396237850189,2.86974167823792,1.2383428812027,-0.196318384305134,2.8813460641717,1.26438752200817,1243.586,1310.606,3134.29,3129.257,-0.07267927,0.04693029,0.04661774,-0.610229194164276,-0.0989990308880806,0.262219995260239,-0.397661187980262,-0.171102499820431,0.246171218589148,8
0.94000244140625,-0.439630568027496,2.86762809753418,1.24368941783905,-0.204407453948074,2.87786556348678,1.26939504145298,1236.848,1326.458,3127.469,3128.731,-0.076176,0.0459479,0.04623648,-0.611716449260712,-0.105677455663681,0.267324060201645,-0.411081631631503,-0.176876941799768,0.254479112513653,8
0.959991455078125,-0.451898068189621,2.86537051200867,1.24913716316223,-0.212759000778906,2.87427212620069,1.27456504678061,1230.539,1341.266,3124.75,3126.197,-0.07966261,0.04485626,0.04609449,-0.613375604152679,-0.112877324223518,0.272387564182281,-0.424539267042903,-0.182667386354485,0.262810029909387,8
0.979995727539063,-0.46420282125473,2.86295914649963,1.25468528270721,-0.22138664033507,2.87055989392801,1.27990596665734,1214.562,1353.317,3126.271,3132.181,-0.08315241,0.04364282,0.0462782,-0.6152383685112,-0.120572470128536,0.277404457330704,-0.438046240701377,-0.188479059778567,0.271171490030365,8
1,-0.476549714803696,2.8603847026825,1.26032972335815,-0.230284798736574,2.86673126495361,1.28541435058594,1204.129,1363.422,3124.315,3138.259,-0.08659162,0.04232452,0.04678002,-0.617343962192535,-0.128720298409462,0.282219231128693,-0.451584000205995,-0.194303979492187,0.279552008056641,8
1.02000427246094,-0.48894464969635,2.85763907432556,1.26606917381287,-0.239454009753966,2.86278600961093,1.2910905289958,1194.683,1372.532,3123.829,3143.935,-0.08995679,0.04091012,0.0475956,-0.619747042655945,-0.137284651398659,0.286971658468246,-0.465144357597929,-0.200138622445408,0.287946515251652,8
1.03999328613281,-0.501394331455231,2.8547146320343,1.27190208435059,-0.248887339851819,2.85872711120656,1.2969302096982,1179.882,1380.384,3123.527,3156.475,-0.09322342,0.03940828,0.04871844,-0.622486531734467,-0.146221175789833,0.291647553443909,-0.478708875293167,-0.205975055460915,0.29634359787259,8
1.05999755859375,-0.513906359672546,2.85160493850708,1.27782762050629,-0.258599401509697,2.85454828239877,1.30294243851408,1166.427,1387.228,3124.14,3168.221,-0.09631535,0.03784585,0.05008934,-0.625601232051849,-0.155485421419144,0.296277225017548,-0.492290296490434,-0.211818761581115,0.30475114456651,8
1.08000183105469,-0.526488482952118,2.84830451011658,1.2838431596756,-0.268583149539609,2.85025255453512,1.30912285413647,1162.278,1394.643,3119.886,3175.875,-0.09919742,0.03625749,0.05163213,-0.629106462001801,-0.165015831589699,0.300774216651917,-0.50587040849135,-0.217661904390701,0.313157880805523,8
1.09999084472656,-0.539148926734924,2.84480905532837,1.28994965553284,-0.278830554044452,2.84584338265603,1.31546648567654,1160.586,1402.117,3118.42,3179.813,-0.1018872,0.03465841,0.05331852,-0.633022546768188,-0.174769639968872,0.305325925350189,-0.519431110871131,-0.223496695782555,0.321552601564445,7
1.1199951171875,-0.551895916461945,2.84111499786377,1.29614889621735,-0.289357002179081,2.84131414609862,1.32198285851614,1151.658,1408.178,3121.033,3188.858,-0.1043943,0.03305345,0.0551635,-0.637350916862488,-0.184705942869186,0.309963524341583,-0.532985466132485,-0.229328756186667,0.329943393154705,7
1.13999938964844,-0.564737617969513,2.83721971511841,1.30243968963623,-0.300154365346813,2.83666834237095,1.3286669406667,1152.251,1413.46,3120.161,3193.135,-0.1066846,0.03147016,0.05711962,-0.642085075378418,-0.194768399000168,0.314538925886154,-0.546515580872639,-0.235150386571708,0.338319178707607,7
1.16000366210938,-0.577682316303253,2.83312129974365,1.30882382392883,-0.311222084148811,2.83190621216671,1.33551838583369,1155.659,1418.144,3121.735,3194.083,-0.1087827,0.02991518,0.05918739,-0.647234559059143,-0.204918146133423,0.319205760955811,-0.560014026276883,-0.240958390526247,0.34667535943296,7
1.17999267578125,-0.590738236904144,2.82881903648376,1.31530296802521,-0.322550701230474,2.8270318247214,1.34253133946411,1153.377,1421.161,3125.109,3201.039,-0.1107124,0.02838545,0.06139435,-0.652795195579529,-0.215113192796707,0.323954492807388,-0.573463232144024,-0.246745208083563,0.355001058539242,7
1.19999694824219,-0.603913724422455,2.82431268692017,1.32187879085541,-0.334156660511822,2.8220381046756,1.34971598112778,1150.478,1422.23,3130.388,3208.798,-0.1124365,0.02689222,0.06372187,-0.658771693706512,-0.225314483046532,0.328789800405502,-0.58687652428584,-0.252516572968185,0.36330452533874,7
1.22000122070313,-0.617216765880585,2.81960344314575,1.32855069637299,-0.346030421585499,2.81692915700008,1.35706640485806,1155.931,1423.385,3130.394,3213.887,-0.1139407,0.02545768,0.06611732,-0.665154814720154,-0.235465362668037,0.333597004413605,-0.600236516861372,-0.258265004538453,0.371574997167698,7
1.239990234375,-0.630655884742737,2.814692735672,1.33532178401947,-0.358161486344149,2.81170949873715,1.36457611182642,1161.784,1424.183,3132.877,3217.576,-0.1152579,0.02408666,0.06856152,-0.671952843666077,-0.245533123612404,0.338557302951813,-0.613526094901141,-0.263983138701136,0.379801879044709,7
1.25999450683594,-0.644238948822021,2.80958294868469,1.34219598770142,-0.3705671011502,2.80637170925886,1.37225577835275,1158.759,1423.426,3139.633,3227.403,-0.116394,0.02277686,0.07106113,-0.679155588150024,-0.255489736795425,0.343708723783493,-0.626758665639206,-0.269676744214496,0.387993470686331,7
1.27999877929688,-0.65797370672226,2.80427718162537,1.3491735458374,-0.383236695417198,2.80092033679326,1.3800988607405,1165.043,1422.743,3141.584,3232.586,-0.1173122,0.02155549,0.07354917,-0.686736941337585,-0.265287458896637,0.348878681659698,-0.639917282339435,-0.275338529371412,0.396139281255613,8
1.30000305175781,-0.671867549419403,2.79877924919128,1.35625791549683,-0.396168722856641,2.79535604666509,1.38810440176341,1174.854,1422.182,3145.261,3233.337,-0.1180393,0.02042888,0.07600569,-0.694690883159637,-0.274899452924728,0.354219138622284,-0.652995275331231,-0.280965624398954,0.404235181908735,8
1.31999206542969,-0.685927391052246,2.79309320449829,1.36345243453979,-0.409351342777246,2.78968393359302,1.39626507146953,1179.282,1420.646,3150.755,3238.737,-0.1186113,0.01938954,0.07845005,-0.702991724014282,-0.284298807382584,0.359728872776031,-0.665976209205206,-0.286550957599616,0.412270998344359,8
1.33999633789063,-0.700159788131714,2.78722381591797,1.37076056003571,-0.422802873722428,2.78389611561957,1.40459220990988,1182.61,1417.632,3158.553,3244.122,-0.1190049,0.01844221,0.08087018,-0.711620628833771,-0.293464064598083,0.365409046411514,-0.678873453515705,-0.29210028151913,0.420255006953505,8
1.36000061035156,-0.714570581912994,2.78117680549622,1.37818288803101,-0.436511415158101,2.77799771321212,1.41307845008695,1194.242,1415.376,3160.426,3246.401,-0.1192233,0.01760182,0.08322581,-0.720542848110199,-0.302354246377945,0.371116280555725,-0.691670720740693,-0.297606588091785,0.42817712498415,8
1.3800048828125,-0.72916567325592,2.77495765686035,1.38572335243225,-0.450474904562636,2.77198961381608,1.4217225152016,1205.697,1412.818,3164.91,3247.22,-0.1193165,0.01686221,0.08551468,-0.72975218296051,-0.310955822467804,0.377025306224823,-0.704361775018035,-0.303067194200314,0.436033492140578,8
1.39999389648438,-0.743950068950653,2.76857256889343,1.39338612556458,-0.464680216184654,2.76587746507559,1.43051627978847,1209.683,1409.097,3172.318,3253.322,-0.1193123,0.01621217,0.08775552,-0.739222764968872,-0.319259196519852,0.383137881755829,-0.716930938559026,-0.308475354130225,0.443814403124744,8
1.41999816894531,-0.758928716182709,2.76202750205994,1.4011744260788,-0.47914673136562,2.75965292774086,1.43947174182117,1212.524,1404.222,3181.58,3259.042,-0.1191642,0.01565705,0.08992933,-0.748930335044861,-0.327255189418793,0.389418095350266,-0.729391385793766,-0.313836736470737,0.451528013536465,8
1.44000244140625,-0.774105370044708,2.75532937049866,1.4090883731842,-0.493861275572861,2.75332167044526,1.4485807456364,1225.577,1400.884,3183.396,3260.245,-0.118867,0.0152141,0.09198756,-0.758832573890686,-0.334910839796066,0.395696848630905,-0.741727567798258,-0.319144650954242,0.459164697851088,8
1.45999145507813,-0.789483785629272,2.74848484992981,1.41713154315948,-0.508809800712713,2.74688973769103,1.45783459479497,1239.014,1397.633,3187.326,3259.479,-0.1184798,0.01487398,0.09393005,-0.768920421600342,-0.342220574617386,0.402158886194229,-0.753924423002454,-0.324392617007921,0.466715132239272,8
1.47999572753906,-0.805067121982574,2.74150109291077,1.42530858516693,-0.524012471663969,2.74034845309416,1.46724577231745,1241.165,1392.655,3196.751,3265.511,-0.1180265,0.01461705,0.09579255,-0.77916818857193,-0.349190682172775,0.408853709697723,-0.765994882555672,-0.329586198544069,0.474187321698441,8
1.5,-0.82085770368576,2.73438501358032,1.4336199760437,-0.539455198877605,2.73370387899399,1.4768055561018,1250.443,1388.542,3200.492,3268.283,-0.1174816,0.01445873,0.09753036,-0.789529383182526,-0.355805218219757,0.415566980838776,-0.777924000354858,-0.334718964672088,0.481572013878822,8
1.52000427246094,-0.836857557296753,2.72714376449585,1.44206857681274,-0.555135099954955,2.72695725560613,1.48651216180595,1262.568,1384.751,3205.613,3266.655,-0.1168664,0.01439595,0.09913421,-0.799991846084595,-0.362067401409149,0.422429203987122,-0.789706299681991,-0.339788558913217,0.48886581843107,8
1.53999328613281,-0.853067934513092,2.71978425979614,1.45065712928772,-0.571036956668503,2.72011513090874,1.49635616862212,1268.63,1380.327,3212.258,3269.588,-0.1162129,0.01441214,0.1006339,-0.810523092746735,-0.367980986833572,0.429425984621048,-0.801327600455846,-0.344788879974649,0.496059957209413,8
1.55999755859375,-0.869489967823029,2.71231317520142,1.45938789844513,-0.587181951496087,2.71316839067337,1.50635068951315,1272.637,1374.917,3220.632,3272.864,-0.1154912,0.01450466,0.1020274,-0.821098268032074,-0.373552888631821,0.436539828777313,-0.812800388649436,-0.349725300221754,0.503162159625937,8
1.58000183105469,-0.886123478412628,2.70473790168762,1.46825993061066,-0.60355483331529,2.70612359703193,1.51648628330776,1284.802,1371.331,3221.563,3273.075,-0.1147082,0.01468342,0.1032789,-0.831674456596375,-0.378768622875214,0.443604707717896,-0.824110582941666,-0.354591760855452,0.510163708672098,8
1.59999084472656,-0.902968466281891,2.69706511497498,1.47727608680725,-0.620139554045575,2.69898765502515,1.52675301547962,1296.177,1367.79,3225.256,3271.482,-0.1139157,0.01493577,0.1043924,-0.842247605323792,-0.383640736341476,0.450805574655533,-0.835244706287931,-0.359382463079953,0.517056261415284,8
1.6199951171875,-0.920024275779724,2.68930125236511,1.48643958568573,-0.636958033083316,2.69175113334911,1.53716445517924,1296.033,1362.583,3234.626,3276.275,-0.1131199,0.0152401,0.1054079,-0.852794170379639,-0.388192415237427,0.458174735307693,-0.846214826007804,-0.364102599125749,0.523847288101157,8
1.63999938964844,-0.937289655208588,2.68145275115967,1.49574899673462,-0.653994195024907,2.68442094880091,1.54771065096602,1303.853,1358.903,3236.971,3277.413,-0.1122879,0.01561285,0.106284,-0.863266110420227,-0.392420649528503,0.46546858549118,-0.857007552155828,-0.368746407673381,0.530528499715628,8
1.66000366210938,-0.954762697219849,2.67352604866028,1.50520551204681,-0.671244443874359,2.67699864863716,1.55838937674714,1314.905,1355.77,3240.227,3273.948,-0.1114437,0.01604857,0.1070163,-0.873656868934631,-0.396338045597076,0.47282350063324,-0.867618167158098,-0.373311858882592,0.53709697585572,8
1.67999267578125,-0.972441494464874,2.66552686691284,1.51481020450592,-0.688691692550512,2.66949158495151,1.56919005480539,1318.993,1352.063,3245.244,3275.562,-0.1106219,0.01652646,0.1076428,-0.883940279483795,-0.399960696697235,0.480237305164337,-0.878034183119987,-0.377793579561193,0.543544985919778,8
1.69999694824219,-0.99032336473465,2.65746068954468,1.52456414699554,-0.706358800111611,2.66188992212981,1.58012683598675,1319.956,1347.398,3252.477,3277.888,-0.1097893,0.01704245,0.1081684,-0.894098222255707,-0.403308510780334,0.487696170806885,-0.888267004546665,-0.382196476749158,0.549879589839776,8
1.72000122070313,-1.00840520858765,2.64933323860168,1.53446435928345,-0.724228658537036,2.6542010212754,1.5911891296115,1329.162,1344.873,3251.703,3277.132,-0.1089441,0.0176069,0.1085592,-0.904091358184814,-0.406377166509628,0.49501296877861,-0.898304216251578,-0.386515208538549,0.556093102023817,8
1.739990234375,-1.02668368816376,2.64114952087402,1.54451191425323,-0.74228345468553,2.64643254688532,1.60236590849663,1338.091,1342.521,3253.594,3273.995,-0.1081318,0.01820738,0.1088221,-0.913923680782318,-0.409185916185379,0.502375841140747,-0.908134108040217,-0.390744736359816,0.562178273303667,8
1.75999450683594,-1.04515528678894,2.63291430473328,1.55470824241638,-0.760546715064628,2.63857437616062,1.61367173667103,1335.107,1338.528,3261.212,3277.54,-0.1073563,0.01882149,0.1090041,-0.923579275608063,-0.411764889955521,0.509818553924561,-0.917767514700581,-0.394889722119545,0.568141810929231,8
1.77999877929688,-1.06381559371948,2.62463188171387,1.56505000591278,-0.779000609654483,2.63063418086074,1.62509557650306,1340.004,1336.27,3261.303,3277.791,-0.1065824,0.01946503,0.1090674,-0.933016955852509,-0.414117485284805,0.517089188098907,-0.927192788821983,-0.398945154262308,0.57397650459845,8
1.80000305175781,-1.08266043663025,2.6163067817688,1.57553672790527,-0.797640935141499,2.62261376955408,1.63663482594136,1348.17,1334.586,3262.58,3273.137,-0.1058308,0.02013316,0.1090099,-0.942240715026855,-0.416261106729507,0.524338364601135,-0.936405971974637,-0.402909329586356,0.579679903854719,7
1.81999206542969,-1.10168516635895,2.60794258117676,1.5861679315567,-0.816448984455027,2.61452119137054,1.64827790441807,1348.663,1332.315,3265.786,3274.11,-0.1051325,0.02080548,0.1088747,-0.951232731342316,-0.418216168880463,0.531561970710754,-0.945396434568188,-0.406777674475912,0.585245428475252,7
1.83999633789063,-1.12088465690613,2.59954237937927,1.59694278240204,-0.835449117627072,2.60634596486888,1.66003989195343,1346.206,1329.153,3271.107,3275.656,-0.1044465,0.0214794,0.1086676,-0.959983885288239,-0.420005261898041,0.538742303848267,-0.954174163352093,-0.410554485950274,0.590679260733698,7
1.86000061035156,-1.14025378227234,2.59110999107361,1.6078565120697,-0.854622615239374,2.59809614449182,1.6719092003358,1352.526,1328.266,3267.988,3273.977,-0.1037653,0.02216724,0.1083553,-0.968462944030762,-0.42162549495697,0.545686960220337,-0.962728579444532,-0.414235212212131,0.595974851798267,7
1.8800048828125,-1.15978753566742,2.58264803886414,1.61890840530396,-0.873964974649439,2.58977366760063,1.68388304221498,1358.621,1327.57,3267.656,3269.859,-0.1031346,0.02285767,0.1079466,-0.976683795452118,-0.423095494508743,0.552597105503082,-0.971056158224177,-0.417818336715394,0.601130019760457,7
1.89999389648438,-1.17948019504547,2.57415914535522,1.63009786605835,-0.893456683142228,2.58138692997148,1.69594933829086,1355.185,1325.997,3270.852,3271.736,-0.1025732,0.02353114,0.1074834,-0.984635829925537,-0.424441605806351,0.559474229812622,-0.979147395688901,-0.421299770153459,0.606138881190213,7
1.91999816894531,-1.19932651519775,2.56564545631409,1.64142310619354,-0.913122862707269,2.57292512231409,1.70812364027167,1349.678,1323.642,3275.881,3273.316,-0.1020172,0.02419173,0.1069659,-0.992310404777527,-0.425686627626419,0.566261827945709,-0.987011339258123,-0.424683405378145,0.611007036871143,7
1.94000244140625,-1.21932005882263,2.55710887908936,1.65287792682648,-0.932943991899774,2.5643966441608,1.72039386345315,1355.339,1323.796,3271.173,3270.478,-0.1014505,0.02485603,0.1063565,-0.999677360057831,-0.426822364330292,0.572744190692902,-0.994638524886308,-0.427965170275055,0.615728628108227,7
1.95999145507813,-1.23945510387421,2.54855179786682,1.66446089744568,-0.952900013794853,2.55581012544606,1.73274759164336,1361.621,1324.219,3269.083,3264.764,-0.100929,0.02551158,0.1056685,-1.00675582885742,-0.427862107753754,0.579149127006531,-1.00202031904361,-0.431141350077486,0.620298310335216,7
1.97999572753906,-1.25972604751587,2.5399751663208,1.67617154121399,-0.973016570682103,2.54715453300902,1.74520069864106,1353.536,1322.789,3273.38,3267.962,-0.1004683,0.02613291,0.1049624,-1.01354479789734,-0.42883312702179,0.585530757904053,-1.00916501115878,-0.434215511495054,0.624721215103391,7
2,-1.28012657165527,2.53138041496277,1.6880042552948,-0.993273599084619,2.53843849960327,1.7577407641983,1352.945,1322.764,3270.748,3268.046,-0.100023,0.02673993,0.1041977,-1.02001929283142,-0.429738819599152,0.591638207435608,-1.01606400046349,-0.437183953857422,0.628992018127441,6
2.02000427246094,-1.30065035820007,2.52276849746704,1.69995665550232,-1.01366615605493,2.52966415204104,1.77036472839513,1356.127,1323.286,3269.527,3262.642,-0.0995969,0.02733263,0.1033695,-1.02619576454163,-0.430592089891434,0.597622275352478,-1.02271452148052,-0.440045487257004,0.633109007445237,6
2.03999328613281,-1.32129168510437,2.51414036750793,1.71202600002289,-1.03417354141348,2.52084039703127,1.78305977683431,1352.322,1323.337,3269.773,3262.727,-0.0992134,0.02789505,0.1025206,-1.03206717967987,-0.431405782699585,0.603469848632813,-1.02910913225408,-0.442796909628122,0.637067576131623,6
2.05999755859375,-1.3420444726944,2.50549650192261,1.72420942783356,-1.05482201812353,2.5119559343546,1.79584216754118,1346.114,1322.488,3271.8,3263.48,-0.09882831,0.02842804,0.101656,-1.03763628005981,-0.432192921638489,0.609168946743011,-1.03525504859546,-0.445441325732794,0.640872191117535,6
2.08000183105469,-1.36290216445923,2.4968376159668,1.73650014400482,-1.07559088172821,2.50301967256038,1.80869908347065,1349.03,1323.669,3265.455,3261.136,-0.09843576,0.02894716,0.10074,-1.04288518428802,-0.43294221162796,0.614538431167603,-1.04114485287423,-0.447975543971863,0.644518260536375,6
2.09999084472656,-1.38385879993439,2.48816442489624,1.74889624118805,-1.09645901288412,2.49404069871208,1.82161745074311,1351.569,1324.946,3262.652,3256.118,-0.0980789,0.02944279,0.09978204,-1.04783892631531,-0.433665037155151,0.619806468486786,-1.04677201701582,-0.450396755497224,0.648001743199023,5
2.1199951171875,-1.40490889549255,2.47947669029236,1.76139628887177,-1.11745308225396,2.48500753716864,1.83461377976925,1340.643,1324.553,3265.877,3259.295,-0.09775772,0.02989615,0.09883554,-1.05249917507172,-0.434382408857346,0.625004827976227,-1.0521429102862,-0.45270770082608,0.651326581984514,5
2.13999938964844,-1.42604565620422,2.47077488899231,1.77399373054504,-1.138551967509,2.47592927627801,1.8476749948214,1339.147,1325.505,3261.441,3258.424,-0.09741896,0.03033149,0.09785467,-1.05684471130371,-0.435087859630585,0.629869341850281,-1.05725102347782,-0.454905579228273,0.654488747383304,4
2.16000366210938,-1.44726371765137,2.46205925941467,1.78668510913849,-1.15975039167652,2.46680818657414,1.86079782920208,1342.149,1327.014,3258.268,3251.809,-0.09707701,0.03074922,0.0968359,-1.06089580059052,-0.435785084962845,0.63457179069519,-1.0620943502576,-0.456989527434725,0.657486997379635,4
2.17999267578125,-1.46855664253235,2.45332956314087,1.79946744441986,-1.18102676265167,2.45765355853653,1.8739689163698,1336.882,1327.875,3257.024,3251.876,-0.09676489,0.03113177,0.09582698,-1.06465041637421,-0.43648025393486,0.639116764068604,-1.06666760390386,-0.458957270716794,0.660318059240953,3
2.19999694824219,-1.48991894721985,2.44458603858948,1.81233739852905,-1.20240821395574,2.44845371736898,1.88720505326679,1328.783,1327.592,3258.231,3252.669,-0.09643519,0.03148254,0.09483081,-1.0681164264679,-0.437181860208511,0.643500089645386,-1.07097597819164,-0.460811043810786,0.662985148161421,1
2.22000122070313,-1.5113445520401,2.4358286857605,1.82528793811798,-1.22387315175433,2.43921795429519,1.90049287228091,1330.153,1329.067,3251.133,3250.264,-0.09607354,0.03181896,0.09380863,-1.07127916812897,-0.437872558832169,0.647527158260345,-1.07501419914593,-0.462548577472581,0.665484999299265,0
2.239990234375,-1.53282785415649,2.42705750465393,1.83831644058228,-1.24539969505118,2.42995568409656,1.91381882803312,1332.14,1330.677,3247.321,3244.556,-0.09571827,0.03213534,0.09276602,-1.07416474819183,-0.438556224107742,0.651427268981934,-1.07877792518082,-0.464168003639063,0.667814925005999,0
2.25999450683594,-1.554363489151,2.41827249526978,1.85142111778259,-1.26701526177039,2.4206551096063,1.92719989352455,1320.664,1330.703,3249.248,3247.42,-0.09537473,0.03241343,0.09175634,-1.07677662372589,-0.439245462417603,0.655236601829529,-1.08227143928024,-0.465671165158559,0.669977576652695,0
2.27999877929688,-1.57594537734985,2.40947389602661,1.86459505558014,-1.28869796983554,2.41132564607061,1.9406225227075,1318.777,1331.726,3243.711,3246.37,-0.09499123,0.03267839,0.09073063,-1.07909762859344,-0.439926862716675,0.658696353435516,-1.08549040888332,-0.467056197851165,0.67197027217779,0
2.30000305175781,-1.59756827354431,2.40066194534302,1.87783491611481,-1.31044231452835,2.40196966201596,1.95408330789913,1321.353,1333.233,3239.843,3239.397,-0.0945827,0.03293166,0.0896828,-1.08114993572235,-0.440599709749222,0.661993145942688,-1.08843358680109,-0.468322565086307,0.673792239511894,0
2.31999206542969,-1.61922693252563,2.39183664321899,1.89113748073578,-1.33222611841886,2.3925966997709,1.96756852021384,1315.353,1334.081,3237.983,3239.399,-0.09418216,0.03315755,0.08865965,-1.08293151855469,-0.441264599561691,0.665128231048584,-1.09109790637238,-0.469468947365361,0.675441580245663,0
2.33999633789063,-1.64091610908508,2.38299822807312,1.90449929237366,-1.35407709248145,2.38319483607731,1.98109531406483,1306.962,1333.694,3238.475,3239.951,-0.09373954,0.03336085,0.08766022,-1.08445036411285,-0.441924184560776,0.668093085289001,-1.09348640563071,-0.470496651869278,0.67692017506657,0
2.36000061035156,-1.66262984275818,2.37414717674255,1.91791319847107,-1.37597305876702,2.37377361348711,1.99464996024512,1308.714,1334.84,3230.817,3236.82,-0.0932394,0.03356072,0.0866429,-1.085693359375,-0.44255605340004,0.670697808265686,-1.09559602313537,-0.471404361345641,0.678226128796969,0
2.3800048828125,-1.68436360359192,2.36528396606445,1.93137669563293,-1.39790843013262,2.36433543599182,2.00822900004707,1311.17,1336.129,3226.378,3230.469,-0.09272435,0.03375108,0.08561369,-1.0866847038269,-0.443159103393555,0.673175156116486,-1.09742594550583,-0.472191725819537,0.679358937915576,0
2.39999389648438,-1.70611202716827,2.35640931129456,1.94488716125488,-1.41986083522252,2.35488992936084,2.02181858453579,1303.092,1336.484,3225.199,3231.842,-0.09222154,0.03391714,0.08461599,-1.08742380142212,-0.443737387657166,0.675523638725281,-1.09897439291323,-0.472857979480329,0.680317500623536,0
2.41999816894531,-1.72787034511566,2.34752368927002,1.95844113826752,-1.44185817738692,2.34542508756209,2.03543598721428,1293.799,1335.671,3226.133,3232.584,-0.09165908,0.0340691,0.08363823,-1.08791589736938,-0.444293260574341,0.677702009677887,-1.10024313330221,-0.473403883025206,0.681102911362803,0
2.44000244140625,-1.74963319301605,2.33862733840942,1.97203123569489,-1.46387808506052,2.33595053645515,2.04906735901791,1296.765,1336.492,3218.213,3228.208,-0.09101459,0.03422891,0.08263431,-1.08814513683319,-0.444800794124603,0.679506897926331,-1.10123038958312,-0.473828671822132,0.681714070030222,0
2.45999145507813,-1.77139568328857,2.32972240447998,1.98565483093262,-1.48589810917879,2.32647593524532,2.06269880290633,1300.981,1337.532,3213.201,3220.498,-0.09034188,0.03438861,0.08161563,-1.08813297748566,-0.445255219936371,0.681182265281677,-1.10193535162022,-0.474131997292339,0.68215047511319,0
2.47999572753906,-1.79315328598022,2.32080888748169,1.99931025505066,-1.50794623031618,2.31698924467309,2.07634764018804,1290.375,1336.98,3213.69,3223.144,-0.0896665,0.03452778,0.08064038,-1.08788132667542,-0.445661753416061,0.682772815227509,-1.10235882472314,-0.474314205938057,0.682412625136718,0
2.5,-1.81490087509155,2.31188869476318,2.01299118995667,-1.52999999932945,2.30750012397766,2.08999997377396,1288.779,1336.744,3208.236,3221.644,-0.08893573,0.03467043,0.0796558,-1.08737909793854,-0.446006298065186,0.684048473834991,-1.10250000050292,-0.474374949932098,0.682500019669533,0
2.52000427246094,-1.83663392066956,2.30296301841736,2.02669477462769,-1.55205376834272,2.29801100328223,2.10365230735988,1290.997,1336.971,3204.521,3214.729,-0.08815756,0.03481888,0.07865367,-1.08664345741272,-0.446285903453827,0.685177981853485,-1.10235882472314,-0.474314205938057,0.682412625136718,0
2.53999328613281,-1.85834717750549,2.29403305053711,2.04041767120361,-1.57408507527774,2.28853154739156,2.11729073584934,1285.91,1336.696,3202.194,3213.999,-0.08735967,0.03496135,0.07767219,-1.08566999435425,-0.44649663567543,0.686148643493652,-1.10193578218388,-0.474132182551855,0.682150741652607,0
2.55999755859375,-1.88003635406494,2.28510022163391,2.05415678024292,-1.59612191359838,2.27904971150017,2.13093258853001,1279.431,1335.279,3201.802,3213.308,-0.08649628,0.03510262,0.0767063,-1.08446431159973,-0.446636557579041,0.686955809593201,-1.10123038958312,-0.473828671822132,0.681714070030222,0
2.58000183105469,-1.90169668197632,2.27616667747498,2.06790542602539,-1.61814182127198,2.26957516039323,2.14456396033363,1282.732,1335.052,3193.899,3209.113,-0.08555991,0.03525971,0.0757161,-1.08301365375519,-0.446682214736938,0.687427639961243,-1.10024313330221,-0.473403883025206,0.681102911362804,0
2.59999084472656,-1.92332339286804,2.26723408699036,2.08166122436523,-1.64012239440973,2.26011753383818,2.15817098218581,1286.107,1334.977,3189.288,3202.244,-0.08459798,0.03542541,0.07470823,-1.08133661746979,-0.446631669998169,0.68779456615448,-1.09897546783438,-0.47285844198887,0.680318166050934,0
2.6199951171875,-1.9449120759964,2.25830435752869,2.09542298316956,-1.66209156852628,2.2506648119635,2.17177094750084,1275.843,1333.568,3190.112,3204.271,-0.08362326,0.03558337,0.07373184,-1.0794335603714,-0.446491539478302,0.688093423843384,-1.09742594550583,-0.472191725819537,0.679358937915576,0
2.63999938964844,-1.96645784378052,2.24937915802002,2.1091845035553,-1.68402693989188,2.24122663446822,2.18534998730279,1275.305,1332.418,3184.469,3202.037,-0.08258089,0.03575704,0.07273353,-1.07729041576385,-0.446247100830078,0.688074052333832,-1.09559602313537,-0.471404361345641,0.67822612879697,0
2.66000366210938,-1.98795628547668,2.24046158790588,2.12294292449951,-1.70592290617745,2.23180541187802,2.19890463348308,1279.645,1331.832,3180.436,3193.479,-0.08148474,0.03594886,0.07170501,-1.07492125034332,-0.445894867181778,0.687918782234192,-1.09348640563071,-0.470496651869278,0.67692017506657,0
2.67999267578125,-2.00940275192261,2.23155307769775,2.13669514656067,-1.72775723139253,2.2224107117184,2.21242112090437,1275.59,1330.808,3177.588,3192.386,-0.08037473,0.03614298,0.07069062,-1.07231938838959,-0.44543132185936,0.687615156173706,-1.09109983431736,-0.469469776906228,0.675442773735451,0
2.69999694824219,-2.03079223632813,2.22265601158142,2.1504385471344,-1.74955768413056,2.21303058593937,2.22591663964878,1269.784,1328.526,3177.261,3191.214,-0.07920934,0.03634365,0.06968414,-1.069491147995,-0.444857537746429,0.687173306941986,-1.08843358680109,-0.468322565086308,0.673792239511893,0
2.72000122070313,-2.05212092399597,2.21377277374268,2.16416692733765,-1.77130202882336,2.20367460188472,2.23937742484041,1273.129,1327.267,3169.841,3186.812,-0.07797629,0.03656633,0.06864704,-1.06642389297485,-0.444154798984528,0.686415255069733,-1.08549040888332,-0.467056197851165,0.671970272177789,0
2.739990234375,-2.07338333129883,2.20490646362305,2.1778781414032,-1.79296822271738,2.1943522439355,2.25278983096475,1277.093,1326.258,3165.481,3179.261,-0.07671715,0.03680473,0.06758402,-1.06313240528107,-0.443322658538818,0.685559809207916,-1.08227399942825,-0.465672266718727,0.669979161506271,0
2.75999450683594,-2.09457588195801,2.19605898857117,2.19157075881958,-1.81458384274179,2.18505164650952,2.26617092945464,1268.056,1324.193,3165.643,3180.638,-0.07544735,0.03704236,0.06654249,-1.05961465835571,-0.442367106676102,0.684630513191223,-1.07878069424208,-0.464169195088763,0.667816639186824,0
2.77999877929688,-2.11569309234619,2.18723368644714,2.20523881912231,-1.83612684690458,2.17578229366013,2.27950707526701,1268.606,1322.192,3159.969,3177.541,-0.07411791,0.03730154,0.06546983,-1.05585968494415,-0.441277414560318,0.683402419090271,-1.07501419914593,-0.462548577472581,0.665484999299265,0
2.80000305175781,-2.13673043251038,2.17843246459961,2.21887969970703,-1.85759178470316,2.16654653058634,2.29279489428112,1273.22,1320.848,3155.775,3168.923,-0.07274531,0.03758183,0.06435971,-1.05187809467316,-0.440052479505539,0.682048439979553,-1.07097597819164,-0.460811043810786,0.662985148161422,0
2.81999206542969,-2.15768337249756,2.16965889930725,2.23249101638794,-1.87895695992541,2.1573536925621,2.30602095550813,1269.769,1319.151,3153.206,3166.892,-0.07136792,0.03786843,0.06325478,-1.04766392707825,-0.438692629337311,0.68056732416153,-1.06667099276523,-0.458958728849171,0.660320157107579,0
2.83999633789063,-2.17854809761047,2.1609148979187,2.24606990814209,-1.90024960698239,2.14819206138118,2.31920211834584,1264.174,1316.292,3152.476,3165.707,-0.0699458,0.03816452,0.06215092,-1.04322052001953,-0.437200546264648,0.678942501544952,-1.06209435025759,-0.456989527434725,0.657486997379635,0
2.86000061035156,-2.19931888580322,2.15220355987549,2.25961017608643,-1.9214480311499,2.13907097167731,2.33232495272651,1268.347,1314.281,3145.264,3160.287,-0.06846242,0.03848514,0.06100704,-1.03853857517242,-0.435562580823898,0.677017748355865,-1.05725102347782,-0.454905579228273,0.654488747383304,0
2.87998962402344,-2.21999168395996,2.14352798461914,2.27311015129089,-1.94253086194772,2.12999961857111,2.34537622930486,1272.836,1312.724,3140.746,3152.159,-0.06696305,0.03882257,0.0598318,-1.03362846374512,-0.433779776096344,0.674998879432678,-1.05214690704168,-0.452709420518306,0.651329056166547,0
2.89999389648438,-2.24056148529053,2.13489055633545,2.28656840324402,-1.96352501326936,2.1209664217661,2.35837260906308,1264.379,1310.25,3140.552,3152.989,-0.06546689,0.03916009,0.05867271,-1.02848863601685,-0.431859999895096,0.672910869121552,-1.04677621342161,-0.450398561093403,0.648004340974112,0
2.91999816894531,-2.26102375984192,2.12629461288452,2.2999792098999,-1.98440911693069,2.11198057539494,2.37130086407726,1265.182,1307.66,3134.916,3149.45,-0.06392439,0.03951791,0.05747855,-1.02311110496521,-0.429797470569611,0.67053496837616,-1.04114485287423,-0.447975543971863,0.644518260536375,0
2.94000244140625,-2.28137373924255,2.11774301528931,2.31333994865417,-2.00517798053537,2.10304431360073,2.38415778000673,1269.849,1305.817,3130.763,3140.464,-0.06235152,0.0398951,0.05624389,-1.01750469207764,-0.427593529224396,0.668040633201599,-1.03525504859546,-0.445441325732794,0.640872191117535,0
2.95999145507813,-2.30160665512085,2.1092381477356,2.32664823532104,-2.02581075424974,2.0941666074844,2.39693044981124,1266.574,1303.772,3127.775,3138.24,-0.06078506,0.04027778,0.05500976,-1.01166355609894,-0.425250709056854,0.66541588306427,-1.02911391720548,-0.442798968459032,0.637070538244476,0
2.97999572753906,-2.32171869277954,2.10078239440918,2.33990144729614,-2.04633384260397,2.08533609591429,2.40963521915279,1261.704,1300.678,3126.854,3136.044,-0.05918662,0.04066799,0.05377116,-1.00559258460999,-0.422774761915207,0.66265869140625,-1.02271452148052,-0.440045487257004,0.633109007445237,0
3,-2.34170436859131,2.09237909317017,2.35309362411499,-2.06672639957428,2.07656174835205,2.42225918334961,1265.506,1298.282,3119.797,3130.483,-0.05754185,0.04107882,0.05249338,-0.999283909797668,-0.420156419277191,0.659610390663147,-1.01606400046349,-0.437183953857422,0.628992018127441,0
3.02000427246094,-2.36155939102173,2.0840311050415,2.36622285842896,-2.0869834279768,2.06784571494631,2.43479924890685,1270.117,1296.4,3115.081,3121.984,-0.05589123,0.0415028,0.05118309,-0.992746114730835,-0.417398273944855,0.656464397907257,-1.00916501115878,-0.434215511495054,0.624721215103391,0
3.03999328613281,-2.38127899169922,2.07574129104614,2.3792872428894,-2.10708469520508,2.05919670122237,2.4472428908773,1265.203,1294.164,3112.482,3120.867,-0.0542683,0.04192631,0.04987845,-0.985976815223694,-0.414507210254669,0.653213560581207,-1.00202586176059,-0.431143734953757,0.620301741541063,0
3.05999755859375,-2.40085864067078,2.06751155853271,2.39228391647339,-2.12705600675913,2.05060360379452,2.45960608409476,1259.057,1290.975,3111.817,3119.289,-0.05262033,0.04235511,0.04856672,-0.978981792926788,-0.411492019891739,0.649832010269165,-0.994638524886308,-0.427965170275055,0.615728628108227,0
3.08000183105469,-2.4202938079834,2.05934453010559,2.40520715713501,-2.14687713595163,2.04207512564123,2.47187630727625,1263.18,1288.556,3104.885,3112.832,-0.05092124,0.04280415,0.04720894,-0.971753716468811,-0.408345580101013,0.646156489849091,-0.987011339258122,-0.424683405378145,0.611007036871143,0
3.09999084472656,-2.43957948684692,2.05124354362488,2.41805458068848,-2.16652837486666,2.03361974652815,2.48404136028297,1268.516,1286.795,3099.922,3103.356,-0.04921575,0.04326492,0.04581754,-0.96429842710495,-0.405069231987,0.642377197742462,-0.979153483542501,-0.421302389586788,0.606142649861596,0
3.1199951171875,-2.45871210098267,2.04320955276489,2.43082499504089,-2.18603502400946,2.02522658035469,2.49611690533293,1261.462,1284.435,3098.383,3103.043,-0.04753742,0.04372015,0.04444285,-0.956615090370178,-0.401670873165131,0.638518929481506,-0.971056158224178,-0.417818336715394,0.601130019760458,0
3.13999938964844,-2.47768592834473,2.03524684906006,2.44351315498352,-2.20537738341953,2.01690410346351,2.50809074721212,1261.807,1281.551,3093.031,3099.094,-0.04584152,0.04418484,0.04304229,-0.948704123497009,-0.398152381181717,0.634407937526703,-0.962728579444533,-0.414235212212131,0.595974851798267,0
3.16000366210938,-2.496497631073,2.02735614776611,2.45611667633057,-2.22455088103183,2.00865428308644,2.51996005559448,1264.995,1279.461,3088.811,3090.861,-0.04413923,0.04465805,0.04161125,-0.94057297706604,-0.394517868757248,0.630179405212402,-0.954174163352092,-0.410554485950274,0.590679260733698,0
3.17999267578125,-2.51514172554016,2.01954078674316,2.46863317489624,-2.24353658854737,2.00048526354177,2.53171311296128,1261.523,1277.372,3085.747,3087.939,-0.04245611,0.04512882,0.04018353,-0.932220160961151,-0.390772879123688,0.625828385353088,-0.945403214201559,-0.406780591562751,0.585249625391267,0
3.19999694824219,-2.53361463546753,2.01180267333984,2.48105978965759,-2.2623590635174,1.99238647840124,2.54336512160655,1256.812,1274.494,3083.739,3085.532,-0.04075755,0.04559975,0.03875414,-0.923651218414307,-0.38692370057106,0.621331393718719,-0.936405971974636,-0.402909329586355,0.579679903854719,0
3.22000122070313,-2.55191206932068,2.00414323806763,2.4933910369873,-2.28099938900442,1.98436606709459,2.55490437104486,1260.807,1272.078,3076.546,3079.162,-0.03903022,0.04608195,0.03728889,-0.914864540100098,-0.382966279983521,0.616564929485321,-0.927192788821982,-0.398945154262308,0.573976504598449,0
3.239990234375,-2.57002925872803,1.9965648651123,2.5056254863739,-2.2994392795179,1.97643189735754,2.5663195416865,1264.518,1270.368,3071.96,3070.478,-0.03731515,0.04656704,0.03580137,-0.905866146087646,-0.378904491662979,0.611719250679016,-0.917774783907129,-0.394892849856044,0.568146310914365,0
3.25999450683594,-2.58796262741089,1.98907017707825,2.51776146888733,-2.31770268688992,1.96857366338589,2.57762546085652,1256.418,1268.231,3070.409,3070.507,-0.03563363,0.04704091,0.03433634,-0.896657288074493,-0.374747216701508,0.606795132160187,-0.90814153446928,-0.390747931744771,0.562182870617026,0
3.27999877929688,-2.6057071685791,1.98166036605835,2.52979373931885,-2.33577134012187,1.96079922667992,2.58881081793642,1256.719,1265.458,3064.607,3066.521,-0.03393666,0.04751987,0.03284655,-0.88724148273468,-0.370497167110443,0.601608872413635,-0.898304216251578,-0.386515208538549,0.556093102023818,0
3.30000305175781,-2.62325978279114,1.97433710098267,2.54172015190125,-2.35364119854729,1.95311032582551,2.59987311156116,1260.724,1263.685,3060.369,3056.917,-0.03223597,0.04800308,0.03132884,-0.877625584602356,-0.366158306598663,0.596324920654297,-0.888267004546666,-0.382196476749158,0.549879589839776,0
3.31999206542969,-2.64061594009399,1.96710228919983,2.55353856086731,-2.37129490830989,1.94551442770222,2.61080159886703,1256.598,1261.988,3056.749,3054.586,-0.03056723,0.04847711,0.02982585,-0.867807865142822,-0.361735314130783,0.590916335582733,-0.878042061913513,-0.37779696958594,0.54354986326829,0
3.33999633789063,-2.65777206420898,1.9599574804306,2.56524610519409,-2.38875555478454,1.93800159931817,2.62161057080077,1252.209,1259.357,3054.52,3051.69,-0.02889423,0.04894599,0.02832794,-0.857797563076019,-0.357235163450241,0.58537495136261,-0.867618167158097,-0.373311858882592,0.53709697585572,0
3.36000061035156,-2.67472362518311,1.95290470123291,2.57683777809143,-2.406005803634,1.93057929915441,2.6322892965819,1255.19,1257.109,3047.688,3045.68,-0.02720259,0.0494186,0.02680713,-0.847596108913422,-0.352656245231628,0.579586207866669,-0.857007552155826,-0.36874640767338,0.530528499715627,0
3.37998962402344,-2.69146776199341,1.94594442844391,2.58831214904785,-2.42302905329872,1.92325467039821,2.6428274990542,1258.391,1255.566,3042.853,3037.426,-0.02552853,0.0498887,0.02527337,-0.837208807468414,-0.348001390695572,0.573714315891266,-0.846223126656603,-0.364106170663035,0.523852426598178,0
3.39999389648438,-2.70800065994263,1.9390789270401,2.59966778755188,-2.43984769972619,1.91601807669906,2.65323904237604,1250.756,1253.833,3040.965,3036.899,-0.02389388,0.05034362,0.02376792,-0.826639354228973,-0.343278437852859,0.567776799201965,-0.835253140422974,-0.35938609205264,0.51706148254665,0
3.41999816894531,-2.7243185043335,1.9323091506958,2.61089968681335,-2.45644516534361,1.90887665092339,2.66351366424015,1250.26,1251.307,3035.347,3033.312,-0.02225178,0.05079778,0.0222499,-0.815894603729248,-0.338491410017014,0.561597764492035,-0.824110582941664,-0.354591760855451,0.510163708672097,0
3.44000244140625,-2.74041843414307,1.92563629150391,2.62200617790222,-2.47281804716281,1.90183185728196,2.67364925803476,1253.787,1249.731,3031.048,3024.078,-0.02060914,0.05125106,0.02071349,-0.804980874061584,-0.333643317222595,0.555327355861664,-0.812800388649434,-0.349725300221754,0.503162159625937,0
3.45999145507813,-2.75629615783691,1.9190616607666,2.63298511505127,-2.48895081463434,1.8948903781363,2.68363620960993,1249.85,1248.373,3027.103,3021.663,-0.01900219,0.05169205,0.01919812,-0.793898403644562,-0.328737705945969,0.548942267894745,-0.80133641229185,-0.344792671461508,0.496065412155666,0
3.47999572753906,-2.77194952964783,1.91258597373962,2.64383387565613,-2.50486489870395,1.88804299234919,2.69348778574196,1245.813,1246.15,3024.506,3018.609,-0.01739843,0.05212431,0.01769473,-0.782657384872437,-0.323780864477158,0.542439818382263,-0.789706299681989,-0.339788558913217,0.488865818431069,0
3.5,-2.78737449645996,1.90621042251587,2.65454840660095,-2.5205447997813,1.88129636896134,2.70319439144611,1247.961,1244.159,3018.203,3012.92,-0.01578509,0.05255496,0.01618047,-0.771262109279633,-0.318772733211517,0.535724222660065,-0.777924000354857,-0.334718964672089,0.481572013878822,0
3.52000427246094,-2.8025689125061,1.89993619918823,2.66512703895569,-2.53598752699493,1.87465179486116,2.71275417523047,1250.348,1242.832,3013.636,3005.207,-0.01419199,0.05297905,0.01466507,-0.759717166423798,-0.313715368509293,0.52893590927124,-0.765994882555673,-0.32958619854407,0.474187321698442,0
3.53999328613281,-2.81752943992615,1.89376413822174,2.67556810379028,-2.55117869390181,1.86811546013321,2.72215823120146,1245.513,1241.444,3009.986,3003.688,-0.01264522,0.0533879,0.01317784,-0.74802702665329,-0.308614194393158,0.522053897380829,-0.753933682518821,-0.324396601119134,0.466720864320997,0
3.55999755859375,-2.83225345611572,1.88769435882568,2.68586945533752,-2.56613872308604,1.86167857751006,2.73141920191151,1240.714,1239.392,3007.714,3001.125,-0.01110378,0.05378653,0.01170549,-0.73620331287384,-0.303476244211197,0.515071630477905,-0.741727567798258,-0.319144650954242,0.459164697851087,0
3.58000183105469,-2.84673881530762,1.88172817230225,2.69602727890015,-2.58085326729328,1.85534732021446,2.74052820572674,1242.589,1237.563,3001.809,2995.375,-0.009548497,0.05418329,0.01022449,-0.72425103187561,-0.298301786184311,0.507888376712799,-0.729391385793765,-0.313836736470737,0.451528013536464,0
3.59999084472656,-2.86098194122314,1.87586641311646,2.7060399055481,-2.59530884290342,1.84912748987145,2.74947689564398,1245.28,1236.4,2997.089,2987.63,-0.008008658,0.05457356,0.008744876,-0.712173044681549,-0.293091028928757,0.500630259513855,-0.716940488958392,-0.308479463400265,0.4438203152769,0
3.6199951171875,-2.87498140335083,1.87010955810547,2.71590614318848,-2.60952509409627,1.84301063413925,2.75827743234631,1239.796,1235.196,2994.085,2986.281,-0.006508766,0.05494794,0.007300461,-0.699973940849304,-0.287848144769669,0.493309319019318,-0.704361775018033,-0.303067194200314,0.436033492140578,0
3.63999938964844,-2.88873481750488,1.86445784568787,2.7256224155426,-2.6234885835008,1.83700253474321,2.76692149746096,1239.379,1233.135,2989.057,2982.552,-0.005018993,0.05531522,0.005862044,-0.687664747238159,-0.282577693462372,0.485818415880203,-0.691670720740692,-0.297606588091786,0.428177124984152,0
3.66000366210938,-2.90223979949951,1.85891246795654,2.73518776893616,-2.63719712493647,1.83110413233575,2.77540773763803,1240.716,1231.882,2985.355,2975.426,-0.003544667,0.05567512,0.00442945,-0.675251305103302,-0.277282267808914,0.478271156549454,-0.678873453515702,-0.29210028151913,0.420255006953505,0
3.67999267578125,-2.91549396514893,1.85347306728363,2.74460029602051,-2.65063849381582,1.82532068681534,2.78372858527554,1236.856,1230.745,2981.491,2973.485,-0.002106028,0.05602091,0.003027618,-0.66273820400238,-0.271964997053146,0.47062885761261,-0.665986083416798,-0.286555206197011,0.41227711095171,0
3.69999694824219,-2.92849707603455,1.84814047813416,2.7538583278656,-2.66383127580226,1.81964420129024,2.79189554578451,1234.069,1229.03,2978.806,2969.837,-0.0006732471,0.05635661,0.001645942,-0.65013599395752,-0.266630232334137,0.462906181812286,-0.65299527533123,-0.280965624398954,0.404235181908735,0
3.72000122070313,-2.94124603271484,1.84291481971741,2.76295876502991,-2.6767633032417,1.81407991116207,2.79990108680742,1235.266,1227.43,2973.146,2965.222,0.0007568452,0.05668664,0.0002714849,-0.637450873851776,-0.261278301477432,0.455023437738419,-0.639917282339434,-0.275338529371411,0.396139281255611,0
3.739990234375,-2.95373964309692,1.83779644966125,2.77190065383911,-2.68942333385363,1.80863265367006,2.80773824883709,1237.349,1226.327,2969.012,2958.288,0.002163779,0.05700799,-0.001090831,-0.624686777591705,-0.255909830331802,0.447099089622498,-0.62676873176137,-0.26968107538565,0.387999702095468,0
3.75999450683594,-2.96597671508789,1.83278608322144,2.78068327903748,-2.70182915057228,1.80329477731443,2.81541804035694,1231.734,1225.346,2966.209,2957.504,0.003526333,0.05731299,-0.002411226,-0.611849665641785,-0.250528484582901,0.439133763313293,-0.613536214864365,-0.263987493038594,0.379808143784027,0
3.77999877929688,-2.97795629501343,1.8278831243515,2.78930377960205,-2.7139695770734,1.79807109095524,2.82293354268985,1231.311,1223.437,2961.623,2954.112,0.00487777,0.05761063,-0.003719371,-0.598952114582062,-0.245139017701149,0.43102952837944,-0.60023651686137,-0.258265004538452,0.371574997167698,0
3.80000305175781,-2.98967599868774,1.82308864593506,2.79776167869568,-2.72584333814708,1.79296214327972,2.83028396642013,1232.86,1222.396,2958.177,2947.277,0.006212912,0.05790032,-0.00501633,-0.585998475551605,-0.239742770791054,0.422894209623337,-0.586876524285838,-0.252516572968186,0.363304525338741,0
3.81999206542969,-3.00113582611084,1.81840145587921,2.80605554580688,-2.73744054699573,1.78797218830065,2.83746319114912,1229.724,1221.471,2954.36,2945.402,0.007508741,0.05817699,-0.006277071,-0.572993874549866,-0.234342038631439,0.414688020944595,-0.573473482003301,-0.246749618311662,0.355007403690404,0
3.83999633789063,-3.0123348236084,1.81382274627686,2.81418418884277,-2.74877791451009,1.78309403578861,2.84448156171422,1227.528,1219.995,2951.898,2941.846,0.008788588,0.05844321,-0.007510647,-0.559948563575745,-0.228940740227699,0.406436651945114,-0.560014026276881,-0.240958390526246,0.346675359432959,0
3.86000061035156,-3.02327227592468,1.80935215950012,2.82214546203613,-2.75984563331209,1.77833190558438,2.85133300688122,1228.257,1218.552,2946.893,2938.029,0.01005452,0.05870178,-0.008726646,-0.546870350837708,-0.223540142178535,0.398065567016602,-0.546515580872635,-0.235150386571708,0.338319178707605,0
3.87998962402344,-3.03394722938538,1.80498945713043,2.82993912696838,-2.7706348636882,1.77368960116974,2.85801205444635,1229.972,1217.523,2943.298,2931.951,0.01129141,0.05895112,-0.009921873,-0.533763289451599,-0.218141168355942,0.389680117368698,-0.532995796775444,-0.22933320117373,0.329949788314816,0
3.89999389648438,-3.04436016082764,1.80073428153992,2.83756470680237,-2.78116151864576,1.76916027562219,2.86452855531919,1225.258,1216.698,2940.667,2931.11,0.01248066,0.05918478,-0.01107183,-0.520634174346924,-0.212746918201447,0.381277561187744,-0.519441457145543,-0.223501147495394,0.321559006401168,0
3.91999816894531,-3.05451011657715,1.79658699035645,2.84502029418945,-2.79141684911929,1.7647476934202,2.87087709341145,1224.791,1215.018,2936.879,2927.993,0.01365145,0.05941026,-0.01219994,-0.507495880126953,-0.207362160086632,0.372784048318863,-0.505870408491346,-0.2176619043907,0.313157880805522,0
