t,x_s1,x_s2,x_s3,x_s_d1,x_s_d2,x_s_d3,propellers_rpms1,propellers_rpms2,propellers_rpms3,propellers_rpms4,rollRad,pitchRad,yawRad,v_s1,v_s2,v_s3,v_s_d1,v_s_d2,v_s_d3,insideCount
0,-0.0599999986588955,2.94000005722046,1.17999994754791,-0.0599999986588955,2.94000005722046,1.17999994754791,0,0,0,0,0,0,0,0,0,0,-1.06581410364015E-15,4.44089209850063E-16,4.44089209850063E-16,0
0.019989013671875,-0.0599999986588955,2.94000005722046,1.17811644077301,-0.0600018659130177,2.93999925379318,1.18000110346716,0,0,0,0,-0.01635288,0.0001297794,-0.01587137,-1.10653664009419E-09,-7.76775763711157E-08,-0.0941759571433067,-0.000279680311988734,-0.000120338624884473,0.000173135436141649,9
0.03997802734375,-0.0599999986588955,2.94000005722046,1.17242503166199,-0.060014847005691,2.93999366839165,1.1800091393819,0,0,0,0,-0.03270202,0.0005238493,-0.03175127,-1.08383135799528E-09,-7.60859677484405E-08,-0.284568399190903,-0.00110975851463131,-0.000477498085781228,0.000686993385685745,9
0.05999755859375,-0.0599058829247952,2.93990302085876,1.16596508026123,-0.0600498857373401,2.93997859220429,1.18003083002592,1868.072,3252.779,3183.935,1722.446,-0.04942134,0.0003294809,-0.01369504,0.00470571499317884,-0.00484924810007215,-0.322995662689209,-0.00247936261166862,-0.00106680046642749,0.00153484356504269,9
0.079986572265625,-0.059820368885994,2.93960738182068,1.16000294685364,-0.0601174907153006,2.93994950367094,1.18007268072775,1925.918,2314.482,3251.728,2829.28,-0.07543351,-0.002135855,0.02094678,0.00427568424493074,-0.0147781055420637,-0.298104643821716,-0.00437104534358026,-0.00188073869847162,0.00270588528944111,9
0.0999755859375,-0.0599374547600746,2.93904495239258,1.15498650074005,-0.0602280337026576,2.93990194011169,1.18014111210282,979.7985,1498.691,3915.455,3896.663,-0.1031986,-0.008062987,0.06330869,-0.00585421733558178,-0.0281175076961517,-0.250819474458694,-0.00677334142420609,-0.00291437958958193,0.00419302100058057,8
0.1199951171875,-0.0604638606309891,2.93818354606628,1.15081322193146,-0.0603918861403606,2.93983143898525,1.18024254456713,346.0985,980.2968,4173.12,4613.439,-0.1214322,-0.01542183,0.1040046,-0.0263202358037233,-0.0430699847638607,-0.20866596698761,-0.00967801353495435,-0.00416417885169243,0.00599115140585487,8
0.139984130859375,-0.061563603579998,2.93704128265381,1.14728260040283,-0.0606183773949454,2.93973398612584,1.18038275344299,353.3564,747.382,3974.569,4854.985,-0.1254019,-0.0211668,0.1351072,-0.0549871101975441,-0.0571137107908726,-0.176532119512558,-0.0130632593357409,-0.00562075554695178,0.00808677981816243,7
0.15997314453125,-0.0633408799767494,2.93568086624146,1.14427471160889,-0.0609172730813211,2.93960537966217,1.18056778411123,820.7548,814.631,3463.234,4692.448,-0.118459,-0.02352423,0.1522708,-0.0888639092445374,-0.0680151954293251,-0.150393977761269,-0.0169203082141145,-0.00728033592584475,0.0104744768105937,7
0.17999267578125,-0.0658469572663307,2.9341721534729,1.1418251991272,-0.0612985250199726,2.93944133760391,1.18080379722281,1348.395,1083.174,3007.15,4255.266,-0.1079752,-0.02278068,0.1557795,-0.125304073095322,-0.0754317045211792,-0.122475892305374,-0.0212433804254414,-0.00914043312572283,0.0131506644458931,7
0.199981689453125,-0.069084994494915,2.93255376815796,1.14006114006042,-0.0617700327574899,2.93923846099686,1.18109568297336,1637.074,1381.759,2917.251,3666.304,-0.0998238,-0.02030021,0.150154,-0.161901831626892,-0.0809138864278793,-0.0882059186697006,-0.0260066742439309,-0.011189945384795,0.0160993702266893,7
0.219970703125,-0.0730103477835655,2.93082618713379,1.13903534412384,-0.0623411120546116,2.93899274152942,1.18144920826256,1641.26,1580.447,3148.792,3112.982,-0.09583811,-0.01735422,0.1421851,-0.196267813444138,-0.0863847136497498,-0.0512904152274132,-0.0312039351396938,-0.0134261815535814,0.0193167223010366,7
0.239990234375,-0.077550083398819,2.92897367477417,1.13863301277161,-0.0630214373585105,2.93870001655724,1.18187036203406,1523.522,1623.937,3418.42,2777.608,-0.09475101,-0.01467828,0.1377315,-0.226987063884735,-0.0926243737339973,-0.0201157964766026,-0.0368316683029241,-0.015847637913056,0.022800557215184,7
0.259979248046875,-0.0826389044523239,2.92699265480042,1.13863503932953,-0.0638172488896441,2.93835760108779,1.18236300728159,1439.801,1501.468,3531.992,2743.978,-0.09438669,-0.01258663,0.1392971,-0.25444096326828,-0.0990556478500366,0.000100800767540932,-0.0428604193878216,-0.0184416410810803,0.0265326413259761,7
0.279998779296875,-0.0882447510957718,2.92490100860596,1.13885176181793,-0.0647390625194898,2.93796097043536,1.18293365383054,1400.36,1275.7,3477.254,2977.556,-0.0932101,-0.01110432,0.1456796,-0.280292361974716,-0.104582212865353,0.0108360331505537,-0.0492963837173861,-0.0212108567320638,0.030516809833474,7
0.29998779296875,-0.0943704396486282,2.92273283004761,1.13920652866364,-0.0657918945890516,2.93750796620855,1.18358540703494,1350.816,1061.84,3344.661,3324.808,-0.09053789,-0.009934124,0.1533063,-0.306284368038177,-0.108404703438282,0.0177359040826559,-0.0561078595514081,-0.0241416444928383,0.0347334378503248,7
0.319976806640625,-0.101035729050636,2.92052602767944,1.1397248506546,-0.0669846297797139,2.93699476557717,1.18432376693582,1280.394,940.7818,3238.552,3590.396,-0.08598335,-0.008524246,0.1583598,-0.333264350891113,-0.110342629253864,0.0259176287800074,-0.0632924014512957,-0.0272329521594955,0.0391810115335476,7
0.339996337890625,-0.108251258730888,2.91831231117249,1.14046156406403,-0.068326768706371,2.93641728069206,1.18515461486636,1252.379,943.6885,3171.749,3650.216,-0.0794405,-0.006293582,0.1584831,-0.360776603221893,-0.110682174563408,0.0368330180644989,-0.0708499516420146,-0.0304847548730522,0.0438594951176439,7
0.3599853515625,-0.116002634167671,2.91611528396606,1.14145183563232,-0.0698213312158394,2.93577421219747,1.18607982025561,1321.108,1048.005,3118.5,3498.093,-0.07154263,-0.002961435,0.1534751,-0.387569189071655,-0.109857134521008,0.0495162084698677,-0.0787457139191101,-0.0338820807988248,0.0487473480944833,8
0.379974365234375,-0.124250948429108,2.91395020484924,1.14270687103271,-0.0714771179380247,2.93506177342824,1.1871048311127,1455.364,1181.402,3091.309,3231.2,-0.06361546,0.001259405,0.1450378,-0.412415951490402,-0.108252994716167,0.0627488866448402,-0.0869793044824472,-0.0374247647983375,0.0538443328734993,8
0.399993896484375,-0.132942736148834,2.91182684898376,1.14421677589417,-0.0733036822025899,2.9342758538535,1.18823556140379,1577.978,1272.995,3106.236,2982.462,-0.05701455,0.00582457,0.1357498,-0.434589952230453,-0.106163114309311,0.0754958540201187,-0.0955525119207663,-0.0411135764513579,0.0591515566763244,8
0.41998291015625,-0.142022997140884,2.90975093841553,1.14595687389374,-0.075301871434707,2.93341608884986,1.18947253572543,1632.474,1289.397,3157.264,2844.43,-0.05243338,0.0101778,0.1278511,-0.454013288021088,-0.103799156844616,0.0870033800601959,-0.104427768518458,-0.0449323514193797,0.064645763297398,8
0.439971923828125,-0.151445358991623,2.9077250957489,1.14789485931396,-0.0774805210173447,2.93247867679888,1.19082122360055,1607.225,1238.085,3219.961,2842.188,-0.04965464,0.0139774,0.1224539,-0.471118420362473,-0.101286545395851,0.0969008505344391,-0.113606589893581,-0.0488817418305121,0.0703278909764972,8
0.459991455078125,-0.16117599606514,2.90575242042542,1.14999639987946,-0.0798493430620752,2.93145943885026,1.19228763728888,1540.011,1157.655,3253.979,2938.999,-0.04787938,0.01718594,0.1193403,-0.486531853675842,-0.0986364036798477,0.105079770088196,-0.123092454730403,-0.0529632444654124,0.0762000931848968,8
0.47998046875,-0.17119263112545,2.90383696556091,1.15223777294159,-0.082406855753501,2.93035901258777,1.1938708594761,1476.045,1086.887,3246.161,3066.59,-0.04628095,0.01999037,0.117371,-0.500831723213196,-0.0957735702395439,0.112069822847843,-0.132845337826091,-0.057159637597476,0.0822375924153778,8
0.5,-0.181479960680008,2.90198421478271,1.15461468696594,-0.085166398670376,2.92917165836334,1.1955791479969,1431.89,1046.194,3217.263,3168.927,-0.04433471,0.02264586,0.1152173,-0.514366030693054,-0.0926333218812943,0.118845961987972,-0.142884000065179,-0.0614789935111996,0.0884520025491718,8
0.519989013671875,-0.192022949457169,2.90019965171814,1.15713346004486,-0.0881248588203387,2.92789871561062,1.19741057576073,1423.19,1045.085,3176.993,3211.161,-0.04193147,0.02537908,0.1118842,-0.527150571346283,-0.0892224162817001,0.125939205288887,-0.153166947611899,-0.0659034585682559,0.0948176369253132,9
0.53997802734375,-0.202803134918213,2.89848685264587,1.15980911254883,-0.0912913676125048,2.92653625533937,1.19937079554481,1444.887,1073.163,3150.196,3184.162,-0.03930506,0.02828784,0.1070519,-0.539009392261505,-0.0856367498636246,0.133784711360931,-0.16369851368286,-0.0704348972306956,0.101337178011302,9
0.55999755859375,-0.213796332478523,2.89684629440308,1.16265225410461,-0.094676112580471,2.92507989413848,1.20146611391775,1482.347,1113.265,3139.651,3115.417,-0.03688318,0.03132491,0.1010701,-0.549659311771393,-0.0820330083370209,0.14215786755085,-0.17448465888317,-0.0750758741803766,0.108014315705644,9
0.579986572265625,-0.224974408745766,2.89527487754822,1.16566622257233,-0.0982734311149,2.92353206847056,1.2036930254546,1524.144,1149.498,3142.859,3034.042,-0.03511591,0.03434851,0.09465448,-0.55890429019928,-0.0785750821232796,0.150696277618408,-0.185481935470438,-0.0798076950675377,0.114822153786096,9
0.5999755859375,-0.236308962106705,2.89376664161682,1.16884994506836,-0.102092760004862,2.92188871794891,1.20605737197736,1541.156,1167.032,3164.003,2978.2,-0.03429033,0.03716281,0.08861447,-0.566729009151459,-0.0754138007760048,0.159184545278549,-0.196696165293826,-0.0846328648712294,0.121764296254622,9
0.6199951171875,-0.247774213552475,2.8923134803772,1.17219340801239,-0.106144683970236,2.92014528826426,1.20856570593183,1531.37,1166.623,3183.798,2966.438,-0.03442136,0.03962879,0.08346621,-0.573262155056,-0.0726612508296967,0.167175993323326,-0.208134604141382,-0.0895545055543457,0.128845234789665,9
0.639984130859375,-0.259349286556244,2.89090585708618,1.17568504810333,-0.110420882305709,2.91830535958365,1.21121287640506,1508.965,1156.982,3192.665,2986.133,-0.03533855,0.04170129,0.0792884,-0.578755080699921,-0.0703757330775261,0.174584865570068,-0.219752140575416,-0.0945532069255159,0.136037043262338,9
0.65997314453125,-0.271018981933594,2.88953399658203,1.179319024086,-0.114931182097002,2.91636470358665,1.21400496683125,1467.537,1144.514,3198.69,3029.49,-0.03677772,0.04338866,0.07589433,-0.583484828472137,-0.0685907676815987,0.181698158383369,-0.231555939228262,-0.0996320517258771,0.143344156921357,9
0.67999267578125,-0.282771825790405,2.88818764686584,1.18308854103088,-0.119686638739014,2.91431856344567,1.21694882102647,1426.178,1139.101,3191.929,3077.316,-0.0384406,0.04477544,0.07288717,-0.587642431259155,-0.0673215910792351,0.188476949930191,-0.243554411173546,-0.104794659005432,0.150771782621969,9
0.699981689453125,-0.294598609209061,2.88685631752014,1.18699014186859,-0.124676182095571,2.91217170233105,1.22003758604909,1407.684,1146.713,3174.672,3100.823,-0.04015568,0.04597222,0.0698472,-0.591338217258453,-0.0665691122412682,0.195079907774925,-0.25570106256044,-0.110021023759057,0.158291138455704,9
0.719970703125,-0.306490689516068,2.88552927970886,1.19102692604065,-0.129910105849058,2.90991969115882,1.22327763417886,1394.191,1162.981,3164.532,3105.31,-0.04193147,0.04702428,0.06662098,-0.594605684280396,-0.066352941095829,0.201837047934532,-0.268004259419652,-0.115314745656047,0.165907403394098,9
0.739990234375,-0.318438947200775,2.88419508934021,1.19519817829132,-0.135400001298574,2.90755754251682,1.2266761409821,1387.953,1184.447,3155.173,3097.248,-0.04383457,0.04794936,0.06322877,-0.597411751747131,-0.0667043626308441,0.208560332655907,-0.280473432677602,-0.12067988256057,0.173626415629864,9
0.759979248046875,-0.330433785915375,2.88284206390381,1.19950222969055,-0.141131974150567,2.90509123473139,1.23022450522921,1395.835,1207.931,3147.204,3073.181,-0.04599013,0.04873813,0.05980293,-0.59974330663681,-0.0676547661423683,0.215205192565918,-0.293060978423328,-0.126095951839638,0.181418706074426,9
0.779998779296875,-0.342466413974762,2.88145709037781,1.20394039154053,-0.147126184485884,2.90251209348295,1.23393520697061,1388.182,1226.748,3151.905,3057.334,-0.04853718,0.04932163,0.05664079,-0.601631641387939,-0.0692479312419891,0.221908792853355,-0.305795832832518,-0.131575403921268,0.189302187598958,9
0.79998779296875,-0.354529112577438,2.88002681732178,1.2085063457489,-0.153366821193532,2.89982692185086,1.2377984583754,1373.344,1240.653,3152.974,3056.163,-0.05148955,0.04966123,0.05393239,-0.603135108947754,-0.0715115889906883,0.2282954454422,-0.318629798715703,-0.137097500901303,0.197247023847227,9
0.819976806640625,-0.366616785526276,2.87853741645813,1.21319711208344,-0.159865102720482,2.89703089285078,1.24182120419666,1351.936,1250.748,3158.281,3060.973,-0.05476578,0.04973793,0.05176045,-0.604382038116455,-0.0744650289416313,0.234540835022926,-0.331572942526109,-0.142666574093344,0.205259446433311,9
0.839996337890625,-0.378726363182068,2.87697553634644,1.21800565719604,-0.166633637018892,2.89411858163313,1.24601124935738,1322.738,1259.082,3156.992,3080.997,-0.05825931,0.04955468,0.05011838,-0.605480015277863,-0.0780986770987511,0.240429773926735,-0.344636106234817,-0.148287288494656,0.213346167053785,8
0.8599853515625,-0.390857219696045,2.87532782554626,1.22292578220367,-0.173653699721778,2.89109804476993,1.25035700258242,1305.609,1269.367,3148.443,3094.888,-0.06185724,0.0491556,0.04885607,-0.606542944908142,-0.0823884382843971,0.246006965637207,-0.357770416714212,-0.153938615363784,0.221476930914505,8
0.879974365234375,-0.403010487556458,2.87358140945435,1.22795760631561,-0.180937139259224,2.88796418421271,1.25486579861444,1278.521,1281.272,3146.299,3111.591,-0.06551056,0.04855651,0.04791367,-0.607661962509155,-0.0873213559389114,0.251591265201569,-0.370986786595025,-0.159625250100867,0.229658493453734,8
0.899993896484375,-0.415187954902649,2.87172412872314,1.23309671878815,-0.18849723509595,2.8847112861788,1.25954585807468,1253.756,1294.714,3140.154,3128.2,-0.06912395,0.04780051,0.04719562,-0.608875572681427,-0.0928670689463615,0.256954967975616,-0.384296738353309,-0.165352150505452,0.237897987633041,8
0.91998291015625,-0.427392274141312,2.86974430084229,1.23833918571472,-0.196312316554895,2.88134867495511,1.26438376578173,1250.474,1311.011,3129.994,3126.149,-0.07265689,0.04693665,0.04660063,-0.610216379165649,-0.0989893823862076,0.262122631072998,-0.397650971463704,-0.171098103938772,0.246164894078718,8
0.939971923828125,-0.439626514911652,2.86763095855713,1.24368667602539,-0.204394909045252,2.877870961208,1.26938727556053,1237.269,1327.01,3129.533,3126.255,-0.07617759,0.04595143,0.04622076,-0.611709773540497,-0.105670966207981,0.267376005649567,-0.411061119720526,-0.176868116097511,0.254466414663641,8
0.959991455078125,-0.45189380645752,2.86537337303162,1.24913537502289,-0.212759000778906,2.87427212620069,1.27456504678061,1222.064,1340.643,3127.384,3132.304,-0.07967433,0.04484955,0.04610982,-0.61336475610733,-0.112875126302242,0.27243760228157,-0.424539267042903,-0.182667386354485,0.262810029909387,8
0.97998046875,-0.46419820189476,2.86296200752258,1.25468158721924,-0.221379956358585,2.87056276985637,1.27990182895749,1222.077,1353.469,3122.193,3128.301,-0.08313217,0.04365061,0.04625633,-0.615221798419952,-0.120563119649887,0.277308762073517,-0.438035925118965,-0.188474621271639,0.271165104193453,8
1,-0.476544857025146,2.86038780212402,1.26032686233521,-0.230284798736574,2.86673126495361,1.28541435058594,1205.657,1363.987,3126.061,3134.978,-0.08659055,0.0423296,0.04676354,-0.617332875728607,-0.128715485334396,0.282262444496155,-0.451584000205995,-0.194303979492187,0.279552008056641,8
1.01998901367188,-0.488939434289932,2.85764217376709,1.26606595516205,-0.239446912293295,2.86278906344998,1.29108613532954,1190.927,1372.351,3123.245,3148.356,-0.08998821,0.04090628,0.04760545,-0.619728565216064,-0.137278497219086,0.286956459283829,-0.46513400752272,-0.200134169097193,0.287940108062054,8
1.03997802734375,-0.501388967037201,2.85471773147583,1.27189981937408,-0.248880035413094,2.85873025410248,1.29692568790267,1178.601,1379.806,3126.044,3155.715,-0.09324259,0.03940301,0.04873119,-0.622476279735565,-0.146224096417427,0.291691660881042,-0.478698517198992,-0.205970598662363,0.296337185718871,8
1.05999755859375,-0.513900697231293,2.85160803794861,1.27782499790192,-0.258599401509697,2.85454828239877,1.30294243851408,1164.691,1387.051,3123.62,3170.275,-0.09631429,0.03784063,0.05010681,-0.625589191913605,-0.155487924814224,0.296257197856903,-0.492290296490434,-0.211818761581115,0.30475114456651,8
1.07998657226563,-0.526482582092285,2.84830784797668,1.28383898735046,-0.268575430648764,2.85025587575821,1.30911807577533,1168.509,1395.038,3116.75,3172.48,-0.09918198,0.03626139,0.05162371,-0.629094898700714,-0.165011048316956,0.30069887638092,-0.50586005237609,-0.217657448443621,0.313151469876847,8
1.0999755859375,-0.539142966270447,2.84481239318848,1.28994631767273,-0.278822628233634,2.845846792911,1.31546157922208,1158.343,1402.302,3120.324,3180.366,-0.1018957,0.03465635,0.05332205,-0.633018314838409,-0.174769401550293,0.305365234613419,-0.519420764586993,-0.223492244065532,0.321546196721701,7
1.1199951171875,-0.551889836788177,2.84111833572388,1.29614567756653,-0.289357002179081,2.84131414609862,1.32198285851614,1147.5,1407.78,3121.73,3192.431,-0.1044028,0.03304772,0.05517619,-0.637344062328339,-0.184706389904022,0.309969991445541,-0.532985466132485,-0.229328756186667,0.329943393154705,7
1.13998413085938,-0.564731359481812,2.83722305297852,1.3024355173111,-0.300146026259498,2.83667193044725,1.3286617783744,1157.535,1413.806,3117.987,3189.638,-0.1066766,0.03147476,0.05710376,-0.642077088356018,-0.194764763116837,0.31448969244957,-0.546505271550557,-0.235145950758426,0.338312796746137,7
1.15997314453125,-0.577675998210907,2.83312463760376,1.30882060527802,-0.311204994190806,2.83191356549821,1.33550780633558,1153.94,1418.321,3123.901,3193.725,-0.1087859,0.02991513,0.05918297,-0.647231459617615,-0.204921245574951,0.319252371788025,-0.559993461530388,-0.240949542090342,0.346662628875245,7
1.17999267578125,-0.590731799602509,2.82882237434387,1.31530010700226,-0.322550701230474,2.8270318247214,1.34253133946411,1147.84,1420.413,3126.971,3205.047,-0.1107012,0.02838015,0.06140998,-0.652787566184998,-0.215118393301964,0.323978155851364,-0.573463232144024,-0.246745208083563,0.355001058539242,7
1.19998168945313,-0.603906869888306,2.82431626319885,1.32187330722809,-0.334147705564643,2.8220419577392,1.34971043758889,1159.816,1422.887,3124.591,3204.528,-0.112403,0.02690288,0.06369825,-0.658754050731659,-0.225302591919899,0.328660577535629,-0.586866312357874,-0.25251217906087,0.363298203668868,7
1.219970703125,-0.617209851741791,2.81960701942444,1.32854616641998,-0.346012104131023,2.81693703848901,1.35705506548116,1156.3,1423.824,3132.473,3211.781,-0.1139465,0.02546212,0.06610212,-0.665149569511414,-0.235459536314011,0.333644777536392,-0.600216179640808,-0.2582562540006,0.371562407459373,7
1.239990234375,-0.630648672580719,2.81469631195068,1.33531880378723,-0.358161486344149,2.81170949873715,1.36457611182642,1151.105,1423.109,3136.989,3224.833,-0.1152787,0.0240757,0.06858741,-0.67194527387619,-0.245536178350449,0.338633865118027,-0.613526094901141,-0.263983138701136,0.379801879044709,7
1.25997924804688,-0.64423143863678,2.80958676338196,1.34219086170197,-0.370557537648727,2.80637582416637,1.37224985808977,1166.368,1423.812,3134.767,3223.813,-0.1163764,0.02278302,0.0710467,-0.679136395454407,-0.25548055768013,0.343602478504181,-0.626748599474006,-0.269672413024826,0.387987239250554,7
1.27999877929688,-0.657966017723083,2.80428099632263,1.34916913509369,-0.383236695417198,2.80092033679326,1.3800988607405,1167.271,1423.24,3143.026,3228.997,-0.1173096,0.02156045,0.07353354,-0.686730027198792,-0.265284150838852,0.348911136388779,-0.639917282339435,-0.275338529371412,0.396139281255613,8
1.29998779296875,-0.671859562397003,2.79878306388855,1.35625326633453,-0.396158759015336,2.79536033382764,1.388098233671,1171.575,1422.208,3144.743,3237.093,-0.1180707,0.02042508,0.07601389,-0.694676160812378,-0.274894624948502,0.354209005832672,-0.652985332144132,-0.280961346123326,0.404229026602261,8
1.31997680664063,-0.685919225215912,2.79309701919556,1.36344885826111,-0.409341180862083,2.78968830598122,1.39625878075997,1176.962,1419.809,3153.848,3238.668,-0.118631,0.01938287,0.07846532,-0.702986478805542,-0.284305214881897,0.35978040099144,-0.665966334939128,-0.286546708978778,0.412264885703281,8
1.33999633789063,-0.70015150308609,2.78722763061523,1.37075662612915,-0.422802873722428,2.78389611561957,1.40459220990988,1181.356,1417.408,3157.993,3245.724,-0.1189975,0.01843695,0.08088834,-0.711610376834869,-0.293469190597534,0.365386426448822,-0.678873453515705,-0.29210028151913,0.420255006953505,8
1.3599853515625,-0.714562118053436,2.78118062019348,1.37817716598511,-0.436500861174643,2.77800225429635,1.41307191666844,1201.153,1416.244,3156.208,3242.992,-0.1192063,0.01760745,0.08321609,-0.720530033111572,-0.302347809076309,0.371025532484055,-0.69166099897751,-0.297602405088682,0.428171106749628,8
1.37997436523438,-0.729157149791718,2.77496147155762,1.38571858406067,-0.45045340944128,2.77199886256629,1.42170920869753,1203.128,1412.689,3167.466,3247.849,-0.1193277,0.01685988,0.08551767,-0.729753017425537,-0.310955584049225,0.377072125673294,-0.704342498157629,-0.303058899905815,0.436021558845703,8
1.39999389648438,-0.74394154548645,2.76857614517212,1.3933824300766,-0.464680216184654,2.76587746507559,1.43051627978847,1202.03,1407.95,3175.706,3258.249,-0.119308,0.01620234,0.08777827,-0.739222943782806,-0.319265842437744,0.383190304040909,-0.716930938559026,-0.308475354130225,0.443814403124744,8
1.41998291015625,-0.758919894695282,2.7620313167572,1.40116822719574,-0.479135601808478,2.75965771647838,1.43946485209513,1221.812,1405.558,3175.022,3254.731,-0.1191296,0.01566786,0.0899042,-0.748914122581482,-0.327244162559509,0.389288038015366,-0.729381927869995,-0.313832666990362,0.451522158631107,8
1.43997192382813,-0.774096548557281,2.75533318519592,1.40908300876617,-0.493838640129536,2.75333140984416,1.4485667332187,1227.353,1401.335,3185.247,3256.963,-0.1188638,0.01522211,0.09196164,-0.758831560611725,-0.334903866052628,0.395736545324326,-0.741708845898107,-0.319136595443637,0.459153108103047,8
1.45999145507813,-0.789474904537201,2.74848866462708,1.41712784767151,-0.508809800712713,2.74688973769103,1.45783459479497,1229.028,1396.273,3192.048,3265.799,-0.1184888,0.01486585,0.09394723,-0.768916845321655,-0.342223525047302,0.402240604162216,-0.753924423002454,-0.324392617007921,0.466715132239272,8
1.47998046875,-0.805057764053345,2.74150514602661,1.42530262470245,-0.524000783579472,2.74035348215039,1.46723853683636,1248.648,1393.609,3190.915,3262.502,-0.1180095,0.01462553,0.09577589,-0.779144883155823,-0.349179685115814,0.408738553524017,-0.76598572865452,-0.329582259876133,0.474181654997567,8
1.5,-0.820848286151886,2.73438906669617,1.43361473083496,-0.539455198877605,2.73370387899399,1.4768055561018,1252.449,1388.717,3202.328,3264.9,-0.1174854,0.01446433,0.09751527,-0.789522469043732,-0.355799347162247,0.415602654218674,-0.777924000354858,-0.334718964672088,0.481572013878822,8
1.51998901367188,-0.836847841739655,2.72714781761169,1.442063331604,-0.555123050061237,2.72696244033876,1.48650470234772,1258.738,1384.635,3205.567,3270.609,-0.1169058,0.01439071,0.09914596,-0.799977660179138,-0.362062603235245,0.422429323196411,-0.789697369743256,-0.339784716610053,0.488860290373601,8
1.53997802734375,-0.853058159351349,2.71978807449341,1.45065295696259,-0.571024729446907,2.7201203919406,1.49634859938949,1265.791,1379.238,3215.8,3269.743,-0.1162342,0.01440338,0.1006552,-0.81052029132843,-0.367988884449005,0.429483562707901,-0.801318788528229,-0.344785088448372,0.496054502206448,8
1.55999755859375,-0.869480013847351,2.71231698989868,1.45938313007355,-0.587181951496087,2.71316839067337,1.50635068951315,1271.864,1374.689,3219.724,3274.27,-0.1154773,0.01449891,0.1020503,-0.821088671684265,-0.373559445142746,0.436508238315582,-0.812800388649436,-0.349725300221754,0.503162159625937,8
1.57998657226563,-0.886113166809082,2.70474171638489,1.46825301647186,-0.603542258451077,2.7061290076447,1.51647849886779,1292.387,1372.632,3216.231,3269.737,-0.114689,0.01469017,0.1032703,-0.831660628318787,-0.378760576248169,0.443496257066727,-0.82410201904291,-0.354588076049064,0.510158407210813,8
1.5999755859375,-0.902958273887634,2.69706892967224,1.47727024555206,-0.620126809287134,2.69899313873865,1.52674512586702,1293.475,1367.466,3228.315,3272.034,-0.113929,0.01493329,0.1043944,-0.842252790927887,-0.383637487888336,0.450858891010284,-0.835236272052476,-0.359378834064062,0.517051040221759,8
1.6199951171875,-0.920014142990112,2.68930506706238,1.48643445968628,-0.636958033083316,2.69175113334911,1.53716445517924,1290.297,1361.883,3236.656,3280.309,-0.1131311,0.01523209,0.1054231,-0.852796196937561,-0.388194680213928,0.458207935094833,-0.846214826007804,-0.364102599125749,0.523847288101157,8
1.63998413085938,-0.937279403209686,2.68145680427551,1.49574255943298,-0.653981118189727,2.68442657539777,1.54770255578211,1309.591,1359.904,3233.572,3273.913,-0.1122783,0.01561891,0.1062671,-0.863259613513947,-0.39241760969162,0.465407073497772,-0.856999388527105,-0.368742895092007,0.53052344604056,8
1.65997314453125,-0.954752624034882,2.67353010177612,1.50519990921021,-0.671217966514002,2.67701004110563,1.55837298599979,1314.308,1355.566,3242.695,3272.621,-0.111441,0.01605099,0.1070076,-0.873660385608673,-0.396340310573578,0.472866326570511,-0.86760212115283,-0.373304954734798,0.537087042614082,8
1.67999267578125,-0.972431421279907,2.66553068161011,1.51480531692505,-0.688691692550512,2.66949158495151,1.56919005480539,1312.966,1350.817,3248.05,3279.627,-0.1106,0.01652125,0.1076609,-0.8839390873909,-0.399966984987259,0.480271250009537,-0.878034183119987,-0.377793579561193,0.543544985919778,8
1.69998168945313,-0.990312933921814,2.65746474266052,1.52455615997314,-0.706345246291743,2.66189575395985,1.5801184455266,1329.566,1349.207,3244.347,3274.538,-0.1097569,0.01705519,0.1081464,-0.894075691699982,-0.403293818235397,0.48754096031189,-0.88825927318574,-0.382193150160541,0.549874803759068,8
1.719970703125,-1.00839471817017,2.64933753013611,1.53445756435394,-0.724201244699276,2.65421281668394,1.59117215914002,1329.692,1344.887,3254.601,3274.609,-0.1089574,0.01761223,0.1085405,-0.90409255027771,-0.40636533498764,0.495070964097977,-0.898289055119065,-0.386508685126782,0.556083716560567,8
1.739990234375,-1.02667319774628,2.64115381240845,1.54450726509094,-0.74228345468553,2.64643254688532,1.60236590849663,1325.913,1340.583,3259.854,3281.368,-0.1081504,0.01819406,0.1088497,-0.913926541805267,-0.409188747406006,0.502485871315002,-0.908134108040217,-0.390744736359816,0.562178273303667,8
1.75997924804688,-1.0451443195343,2.6329185962677,1.55470108985901,-0.760532711099173,2.63858040167573,1.61366306754931,1343.226,1339.963,3254.234,3274.355,-0.107335,0.01882934,0.1089893,-0.923557341098785,-0.411756128072739,0.509689629077911,-0.917760245372929,-0.394886594330938,0.568137310869129,8
1.77999877929688,-1.06380474567413,2.62463641166687,1.56504344940186,-0.779000609654483,2.63063418086074,1.62509557650306,1343.825,1336.61,3262.756,3272.891,-0.1065754,0.01947379,0.1090455,-0.933013141155243,-0.414109885692596,0.517116904258728,-0.927192788821983,-0.398945154262308,0.57397650459845,8
1.79998779296875,-1.08264946937561,2.6163113117218,1.57553005218506,-0.797626646773287,2.62261991743975,1.63662598076079,1344.293,1334.592,3262.184,3277.487,-0.1058686,0.02012936,0.1090168,-0.942227900028229,-0.416253089904785,0.524332702159882,-0.936399026186941,-0.402906341007953,0.579675604081262,7
1.81997680664063,-1.10167384147644,2.60794687271118,1.58616268634796,-0.816434558901977,2.61452739828301,1.64826897431355,1345.31,1331.085,3270.021,3274.274,-0.1051581,0.02079718,0.1088932,-0.951233685016632,-0.41822162270546,0.53163468837738,-0.945389654806995,-0.406774757334075,0.585241231480109,7
1.83999633789063,-1.12087333202362,2.5995466709137,1.59693706035614,-0.835449117627072,2.60634596486888,1.66003989195343,1344.749,1328.81,3270.542,3277.441,-0.1044348,0.02147344,0.108691,-0.959976613521576,-0.42001211643219,0.538719296455383,-0.954174163352093,-0.410554485950274,0.590679260733698,7
1.8599853515625,-1.14024233818054,2.59111428260803,1.6078485250473,-0.854607925216182,2.59810246519841,1.67190010651166,1360.773,1329.672,3262.186,3270.301,-0.1037445,0.02217525,0.1083455,-0.96844893693924,-0.421618074178696,0.545571446418762,-0.962722140342816,-0.41423244164655,0.595970865687568,7
1.87997436523438,-1.15977621078491,2.58265256881714,1.61890161037445,-0.873935340558452,2.5897864183221,1.683864697301,1356.208,1327.196,3270.844,3270.093,-0.1031469,0.02285582,0.1079486,-0.976689696311951,-0.423090875148773,0.552652835845947,-0.971043628570469,-0.417812945555442,0.601122263307942,7
1.89999389648438,-1.17946910858154,2.57416367530823,1.63009250164032,-0.893456683142228,2.58138692997148,1.69594933829086,1345.795,1324.456,3275.296,3277.669,-0.1025695,0.02351955,0.107511,-0.984642803668976,-0.424446195363998,0.559544920921326,-0.979147395688901,-0.421299770153459,0.606138881190213,7
1.91998291015625,-1.19931483268738,2.56565022468567,1.64141464233398,-0.91310780215452,2.5729316024492,1.70811431707208,1359.732,1325.575,3267.724,3269.154,-0.1019804,0.02420416,0.1069382,-0.992294192314148,-0.425674885511398,0.566109955310822,-0.98700543065471,-0.424680863071164,0.611003379164165,7
1.93997192382813,-1.21930861473083,2.55711388587952,1.65287053585052,-0.932913638115654,2.56440970454612,1.72037507301483,1358.323,1324.245,3273.515,3265.64,-0.1014457,0.02486685,0.1063219,-0.999680697917938,-0.426811516284943,0.572794675827026,-0.9946270711101,-0.427960242035134,0.615721537675136,7
1.95999145507813,-1.2394437789917,2.5485565662384,1.66445553302765,-0.952900013794853,2.55581012544606,1.73274759164336,1349.923,1322.534,3274.799,3272.101,-0.1009386,0.02550263,0.1056865,-1.00675654411316,-0.427862584590912,0.579249024391174,-1.00202031904361,-0.431141350077486,0.620298310335216,7
1.97998046875,-1.25971412658691,2.53998017311096,1.6761634349823,-0.973001172086935,2.54716115859433,1.74519116617712,1361.791,1324.047,3266.333,3265.012,-0.1004502,0.02614279,0.1049435,-1.01352035999298,-0.428821891546249,0.585396647453308,-1.0091596546337,-0.434213206731958,0.624717899159203,7
2,-1.28011441230774,2.53138566017151,1.68799710273743,-0.993273599084619,2.53843849960327,1.7577407641983,1355.91,1322.9,3272.993,3263.454,-0.1000267,0.02674724,0.1041787,-1.02001428604126,-0.429730325937271,0.5916827917099,-1.01606400046349,-0.437183953857422,0.628992018127441,6
2.01998901367188,-1.30063796043396,2.52277398109436,1.69994950294495,-1.01365055070775,2.52967086658596,1.77035506794184,1351.184,1323.138,3269.373,3267.851,-0.09964537,0.02732598,0.1033841,-1.02618181705475,-0.430585414171219,0.597622275352478,-1.02270954399163,-0.440043345582587,0.633105926142498,6
2.03997802734375,-1.32127928733826,2.51414561271667,1.71202027797699,-1.03415783849082,2.52084715356021,1.78305005597715,1349.248,1322.115,3273.856,3262.671,-0.09924056,0.02788546,0.1025442,-1.03206765651703,-0.431413024663925,0.603539824485779,-1.02910434715509,-0.442794850733705,0.637064613927399,6
2.05999755859375,-1.34203195571899,2.50550127029419,1.72420299053192,-1.05482201812353,2.5119559343546,1.79584216754118,1344.923,1322.212,3270.85,3265.305,-0.09881552,0.02842175,0.1016819,-1.03762984275818,-0.432200938463211,0.609137058258057,-1.03525504859546,-0.445441325732794,0.640872191117535,6
2.07998657226563,-1.36288928985596,2.49684286117554,1.7364913225174,-1.07557499515204,2.50302650811029,1.80868924892322,1357.884,1325.019,3259.611,3256.999,-0.09841179,0.028955,0.1007296,-1.04287362098694,-0.432935893535614,0.614418864250183,-1.04114045847258,-0.4479736531836,0.644515540192423,6
2.0999755859375,-1.38384628295898,2.48816967010498,1.74888861179352,-1.09644304044274,2.49404757120739,1.82160756304102,1348.851,1324.725,3265.799,3256.586,-0.09809274,0.0294401,0.0997842,-1.04784619808197,-0.433661043643951,0.619864404201508,-1.04676782045836,-0.450394949835787,0.647999145330045,5
2.1199951171875,-1.40489637851715,2.47948169708252,1.76138937473297,-1.11745308225396,2.48500753716864,1.83461377976925,1333.929,1323.865,3267.899,3264.287,-0.0977737,0.02988656,0.09885351,-1.05250370502472,-0.43438395857811,0.625040352344513,-1.0521429102862,-0.45270770082608,0.651326581984514,5
2.13998413085938,-1.42603313922882,2.47077989578247,1.77398550510406,-1.13853583516761,2.47593621757383,1.84766500813359,1345.45,1326.41,3258.022,3254.458,-0.09741098,0.03033728,0.09783559,-1.05684208869934,-0.435085713863373,0.629806756973267,-1.05724722779031,-0.454903946049977,0.654486397671922,4
2.15997314453125,-1.44725131988525,2.46206426620483,1.78667807579041,-1.15971797923886,2.46682213274057,1.86077776435915,1341.404,1326.903,3261.196,3250.099,-0.09707542,0.03075102,0.09682625,-1.06090319156647,-0.435788780450821,0.634628593921661,-1.06208716414724,-0.456986435452193,0.657482548835001,4
2.17999267578125,-1.46854424476624,2.45333456993103,1.79946112632751,-1.18102676265167,2.45765355853653,1.8739689163698,1330.01,1326.702,3259.738,3256.741,-0.09674305,0.03112558,0.09584815,-1.06465172767639,-0.436487883329391,0.639151811599731,-1.06666760390386,-0.458957270716794,0.660318059240953,3
2.19998168945313,-1.48990619182587,2.44459128379822,1.81232762336731,-1.20239187218348,2.44846074877705,1.8871949369313,1340.02,1329.126,3249.463,3248.611,-0.09639684,0.03149629,0.09480531,-1.0680969953537,-0.437168478965759,0.643323421478271,-1.07097279461286,-0.460809674005774,0.6629831773745,1
2.219970703125,-1.51133191585541,2.43583416938782,1.82527959346771,-1.22384034501537,2.43923207011845,1.90047256334669,1331.13,1329.298,3254.337,3246.927,-0.09608738,0.03182446,0.0937877,-1.07128262519836,-0.437861204147339,0.64759761095047,-1.07500824518964,-0.462546015651526,0.665481313516697,0
2.239990234375,-1.53281533718109,2.42706298828125,1.83831059932709,-1.24539969505118,2.42995568409656,1.91381882803312,1317.553,1328.971,3253.678,3253.967,-0.0957481,0.0321191,0.09280062,-1.07416868209839,-0.438559144735336,0.651548862457275,-1.07877792518082,-0.464168003639063,0.667814925005999,0
2.25997924804688,-1.55435037612915,2.41827821731567,1.85141253471375,-1.26699874763832,2.42066221517598,1.92718967049012,1329.72,1331.607,3242.3,3243.694,-0.09535288,0.03242103,0.09173983,-1.07675957679749,-0.439238518476486,0.65509819984436,-1.08226887897249,-0.465670063529659,0.669975991700231,0
2.27999877929688,-1.575932264328,2.40947985649109,1.86458718776703,-1.28869796983554,2.41132564607061,1.9406225227075,1323.572,1332.29,3245.324,3240.182,-0.0949811,0.03268773,0.09070438,-1.07909739017487,-0.439921855926514,0.658732950687408,-1.08549040888332,-0.467056197851165,0.67197027217779,0
2.29998779296875,-1.59755527973175,2.4006679058075,1.87782680988312,-1.31042570636616,2.40197680804417,1.95407302665558,1316.761,1333.363,3239.075,3244.713,-0.09462371,0.0329272,0.08969099,-1.08113873004913,-0.44059357047081,0.6619833111763,-1.08843144721369,-0.468321644481621,0.673790915005368,0
2.31997680664063,-1.61921381950378,2.39184236526489,1.89113092422485,-1.33220946960077,2.39260386329221,1.96755821380235,1312.092,1332.913,3242.304,3239.347,-0.09421145,0.03314875,0.0886786,-1.08293414115906,-0.441271871328354,0.66520631313324,-1.09109597826566,-0.469468117754907,0.675440386655758,0
2.33999633789063,-1.64090275764465,2.38300371170044,1.90449237823486,-1.35407709248145,2.38319483607731,1.98109531406483,1304.841,1333.333,3237.982,3242.319,-0.09373315,0.03335369,0.08768521,-1.08444690704346,-0.441933423280716,0.668073415756226,-1.09348640563071,-0.470496651869278,0.67692017506657,0
2.3599853515625,-1.66261649131775,2.37415266036987,1.91790401935577,-1.37595634130987,2.37378080654189,1.99463961134278,1317.796,1335.853,3225.392,3232.3,-0.09321596,0.03356792,0.08663156,-1.08568525314331,-0.442552924156189,0.670583009719849,-1.09559452046326,-0.471403714787811,0.678225198571351,0
2.37997436523438,-1.68435037136078,2.36528921127319,1.93136870861053,-1.39787493938994,2.36434984612278,2.00820826768196,1308.729,1336.105,3229.298,3230.675,-0.09273607,0.03374821,0.08561741,-1.08669233322144,-0.443158626556396,0.6732337474823,-1.09742336725307,-0.472190616469403,0.679357341854299,0
2.39999389648438,-1.70609903335571,2.35641431808472,1.94488060474396,-1.41986083522252,2.35488992936084,2.02181858453579,1292.983,1335.251,3229.205,3238.629,-0.09222207,0.03390396,0.08464798,-1.0874320268631,-0.443744361400604,0.675593018531799,-1.09897439291323,-0.472857979480329,0.680317500623536,0
2.41998291015625,-1.72785711288452,2.34752893447876,1.95843148231506,-1.4418413890156,2.34543231112926,2.03542559441269,1304.609,1336.872,3218.504,3227.86,-0.0916202,0.03408032,0.08361058,-1.08790695667267,-0.444284707307816,0.677546560764313,-1.10024227275454,-0.473403512755585,0.681102378642803,0
2.43997192382813,-1.74962019920349,2.33863306045532,1.97202277183533,-1.46384447819578,2.33596499655018,2.04904655476771,1299.869,1337.197,3220.595,3222.997,-0.0910082,0.03423807,0.08260097,-1.08815205097198,-0.444794028997421,0.679565489292145,-1.10122909805959,-0.473828116115641,0.681713270515638,0
2.45999145507813,-1.77138292789459,2.3297278881073,1.98564839363098,-1.48589810917879,2.32647593524532,2.06269880290633,1288.129,1336.395,3218.19,3229.156,-0.09035839,0.0343785,0.08163753,-1.08813512325287,-0.445257663726807,0.681280314922333,-1.10193535162022,-0.474131997292339,0.68215047511319,0
2.47998046875,-1.79314017295837,2.32081460952759,1.99930119514465,-1.50792940965705,2.3169964821328,2.07633722739875,1299.536,1337.48,3207.318,3219.356,-0.08964573,0.03453727,0.08061828,-1.08786523342133,-0.44565349817276,0.682638049125671,-1.10235860927677,-0.474314113237503,0.682412491765153,0
2.5,-1.8148877620697,2.31189489364624,2.01298332214355,-1.52999999932945,2.30750012397766,2.08999997377396,1291.961,1337.161,3210.55,3216.523,-0.0889368,0.03467752,0.07963443,-1.08737802505493,-0.446001887321472,0.684102535247803,-1.10250000050292,-0.474374949932098,0.682500019669533,0
2.51998901367188,-1.83662045001984,2.30296921730042,2.02668690681458,-1.5520369476803,2.29801824074336,2.10364189456856,1285.451,1336.932,3204.025,3220.751,-0.08820709,0.03481211,0.07866934,-1.08663260936737,-0.446282237768173,0.685174703598022,-1.10235904000526,-0.474314298567936,0.682412758406603,0
2.53997802734375,-1.85833382606506,2.29403877258301,2.04041123390198,-1.57406826106879,2.28853878207593,2.11728032705303,1283.324,1335.579,3206.168,3213.489,-0.0873879,0.03495221,0.07769418,-1.08567261695862,-0.446506202220917,0.686220526695251,-1.10193621258339,-0.474132367740737,0.682151008090402,0
2.55999755859375,-1.88002300262451,2.28510618209839,2.05414986610413,-1.59612191359838,2.27904971150017,2.13093258853001,1277.734,1335.017,3201.001,3215.489,-0.08648776,0.03509574,0.07673237,-1.08446252346039,-0.446647018194199,0.686930179595947,-1.10123038958312,-0.473828671822132,0.681714070030222,0
2.57998657226563,-1.90168344974518,2.27617263793945,2.06789612770081,-1.61812503288753,2.26958238396605,2.14455356752391,1291.832,1335.895,3188.531,3204.718,-0.08553434,0.03526668,0.07570495,-1.08300876617432,-0.446680337190628,0.687309801578522,-1.1002439936861,-0.473404253224357,0.681103443981416,0
2.5999755859375,-1.92331039905548,2.26724004745483,2.08165335655212,-1.64010562536668,2.26012474908893,2.15816060134934,1283.649,1335.151,3192.106,3202.399,-0.08461022,0.03542285,0.07471052,-1.08134579658508,-0.446632146835327,0.687855958938599,-1.09897654259203,-0.472858904427064,0.680318831377119,0
2.6199951171875,-1.94489908218384,2.25831007957458,2.09541583061218,-1.66209156852628,2.2506648119635,2.17177094750084,1268.664,1333.038,3191.743,3209.967,-0.08364243,0.03557341,0.07375208,-1.07943987846375,-0.446495890617371,0.688125848770142,-1.09742594550583,-0.472191725819537,0.679358937915576,0
2.63998413085938,-1.96644520759583,2.24938488006592,2.10917615890503,-1.6840102224118,2.24123382753286,2.18533963838626,1281.946,1332.839,3181.598,3197.666,-0.08257131,0.03576233,0.07271434,-1.0772932767868,-0.44624862074852,0.688015162944794,-1.09559752564474,-0.471405007833448,0.678227058921845,0
2.65997314453125,-1.9879435300827,2.2404670715332,2.12293577194214,-1.70588953556828,2.23181977031887,2.19888397548635,1278.708,1332.071,3183.044,3191.928,-0.08148368,0.03595028,0.0716957,-1.07493078708649,-0.445901602506638,0.687978684902191,-1.09348983658457,-0.470498128112872,0.676922298990445,0
2.67999267578125,-2.00939011573792,2.23155832290649,2.13668870925903,-1.72775723139253,2.2224107117184,2.21242112090437,1268.599,1329.953,3179.919,3197.451,-0.08035769,0.03613715,0.07071088,-1.07232344150543,-0.445440948009491,0.687650918960571,-1.09109983431736,-0.469469776906228,0.675442773735451,0
2.69998168945313,-2.03077960014343,2.22266125679016,2.15042877197266,-1.74954107593572,2.21303773198162,2.22590635838503,1281.19,1329.216,3169.734,3186.567,-0.07916832,0.0363566,0.06965795,-1.06948089599609,-0.444850236177444,0.68700760602951,-1.08843572622736,-0.468323485621663,0.673793563918671,0
2.719970703125,-2.0521080493927,2.21377825737,2.1641583442688,-1.77126890221328,2.20368885533958,2.23935691789074,1274.349,1327.821,3172.574,3183.347,-0.07798481,0.03657147,0.06862856,-1.06642806529999,-0.444148600101471,0.686484158039093,-1.08549510920706,-0.467058220269158,0.671973181902092,0
2.739990234375,-2.07337093353271,2.20491170883179,2.17787170410156,-1.79296822271738,2.1943522439355,2.25278983096475,1262.56,1325.183,3170.601,3189.283,-0.07675124,0.0367897,0.06762155,-1.06313526630402,-0.443326324224472,0.685668647289276,-1.08227399942825,-0.465672266718727,0.669979161506271,0
2.75997924804688,-2.09456276893616,2.19606447219849,2.19156169891357,-1.81456738183361,2.18505872917844,2.26616073936833,1276.842,1324.202,3160.06,3176.758,-0.07542764,0.03704882,0.06652863,-1.0596067905426,-0.442364037036896,0.684504926204681,-1.07878346314437,-0.464170386470068,0.667818353269249,0
2.77999877929688,-2.11568021774292,2.18723893165588,2.20523047447205,-1.83612684690458,2.17578229366013,2.27950707526701,1273.101,1322.954,3161.48,3171.495,-0.07410672,0.0373093,0.06544697,-1.05586302280426,-0.4412761926651,0.683444440364838,-1.07501419914593,-0.462548577472581,0.665484999299265,0
2.79998779296875,-2.13671731948853,2.17843794822693,2.21887135505676,-1.85757544288233,2.1665535620153,2.29278477791556,1268.582,1321.065,3154.9,3174.262,-0.07278259,0.03757764,0.06437037,-1.05187213420868,-0.440049916505814,0.682039439678192,-1.07097916161324,-0.460812413548163,0.662987118851036,0
2.81997680664063,-2.15767097473145,2.16966366767883,2.23248410224915,-1.87894068379188,2.15736069572766,2.30601087980613,1267.19,1318.204,3156.804,3166.69,-0.07139402,0.03786138,0.06327257,-1.04766845703125,-0.438700050115585,0.680634677410126,-1.0666743814704,-0.458960186914335,0.660322254877504,0
2.83999633789063,-2.17853546142578,2.16091966629028,2.24606275558472,-1.90024960698239,2.14819206138118,2.31920211834584,1261.986,1316.004,3152.148,3168.002,-0.06994154,0.03815843,0.06217382,-1.04322302341461,-0.437209963798523,0.678930044174194,-1.06209435025759,-0.456989527434725,0.657486997379635,0
2.8599853515625,-2.19930601119995,2.15220832824707,2.25960111618042,-1.92143189875059,2.13907791299805,2.33231496600284,1276.709,1314.769,3140.835,3155.976,-0.06843738,0.03849155,0.06099625,-1.03853893280029,-0.435563236474991,0.676917433738708,-1.05725481901126,-0.454907212340279,0.654491096999312,0
2.87997436523438,-2.21997904777527,2.14353275299072,2.27310228347778,-1.94251480742951,2.13000652638179,2.34536629079331,1270.975,1313.06,3143.018,3152.02,-0.06697051,0.03882094,0.05983466,-1.03363752365112,-0.433781027793884,0.675053894519806,-1.05215090364426,-0.452711140144745,0.65133153025393,0
2.89999389648438,-2.24054884910583,2.13489532470703,2.28656101226807,-1.96352501326936,2.1209664217661,2.35837260906308,1257.911,1309.821,3141.666,3158.452,-0.06548446,0.03915169,0.05869383,-1.02849543094635,-0.431863337755203,0.672934532165527,-1.04677621342161,-0.450398561093403,0.648004340974112,0
2.91998291015625,-2.26101088523865,2.12629985809326,2.29997062683105,-1.98439323028747,2.1119874109737,2.37129102948832,1271.314,1307.794,3132.466,3145.504,-0.06391693,0.03952206,0.05746366,-1.02311730384827,-0.429798722267151,0.670481443405151,-1.0411492471255,-0.447977434695422,0.644520980787238,0
2.93997192382813,-2.28136110305786,2.11774778366089,2.31333255767822,-2.00514638691846,2.10305790745146,2.38413822205285,1268.624,1306.204,3133.095,3139.302,-0.06235472,0.03989567,0.05623784,-1.01751577854156,-0.427598506212234,0.668101012706757,-1.03526422946899,-0.445445276006189,0.640877874515594,0
2.95999145507813,-2.30159473419189,2.10924243927002,2.32664179801941,-2.02581075424974,2.0941666074844,2.39693044981124,1259.665,1303.118,3130.004,3143.14,-0.0607744,0.04027217,0.05502972,-1.01167118549347,-0.425258755683899,0.665456473827362,-1.02911391720548,-0.442798968459032,0.637070538244476,0
2.97998046875,-2.32170629501343,2.10078692436218,2.33989191055298,-2.04631823718085,2.08534281049189,2.40962555865248,1272.307,1300.887,3120.505,3131.453,-0.05914508,0.04067976,0.0537467,-1.00559067726135,-0.422771036624908,0.66251128911972,-1.0227194988233,-0.440047628868552,0.633112088657521,0
3,-2.3416919708252,2.09238386154175,2.35308527946472,-2.06672639957428,2.07656174835205,2.42225918334961,1267.475,1299.018,3121.835,3126.694,-0.05754239,0.04108464,0.05247479,-0.999289393424988,-0.420151203870773,0.659668505191803,-1.01606400046349,-0.437183953857422,0.628992018127441,0
3.01998901367188,-2.36154699325562,2.08403587341309,2.36621499061584,-2.0869680292999,2.06785234056679,2.43478971639231,1262.734,1296.338,3115.459,3128.957,-0.05594662,0.04149509,0.05120067,-0.992745578289032,-0.417394936084747,0.656486868858337,-1.00917036754089,-0.434217816196637,0.624724530959079,0
3.03997802734375,-2.38126707077026,2.07574558258057,2.37928080558777,-2.10706940546153,2.05920327997188,2.4472334257977,1262.584,1293.237,3116.368,3120.172,-0.05429706,0.04191913,0.04989513,-0.985986471176147,-0.41451570391655,0.653293311595917,-1.00203140433628,-0.431146119769234,0.620305172659443,0
3.05999755859375,-2.4008469581604,2.06751537322998,2.39227700233459,-2.12705600675913,2.05060360379452,2.45960608409476,1258.342,1290.854,3110.935,3120.445,-0.05260649,0.04235243,0.04858214,-0.978989481925964,-0.411502808332443,0.649810492992401,-0.994638524886308,-0.427965170275055,0.615728628108227,0
3.07998657226563,-2.42028212547302,2.05934858322144,2.405198097229,-2.14686207530873,2.04208160581513,2.47186698402085,1272.54,1288.912,3100.519,3107.687,-0.05088449,0.04281316,0.0471929,-0.971758842468262,-0.408348023891449,0.646053433418274,-0.987017247723776,-0.424685947625853,0.611010694492843,0
3.0999755859375,-2.43956804275513,2.05124711990356,2.41804647445679,-2.16651343412374,2.03362617511243,2.48403211125138,1266.708,1287.265,3101.606,3103.701,-0.04922108,0.0432646,0.04582089,-0.964307010173798,-0.40506899356842,0.642423152923584,-0.979159571260203,-0.421305008961644,0.606146418448853,0
3.1199951171875,-2.45870065689087,2.04321336746216,2.43081736564636,-2.18603502400946,2.02522658035469,2.49611690533293,1254.582,1283.973,3099.689,3108.832,-0.04756086,0.04371167,0.04446744,-0.956623136997223,-0.401672214269638,0.63854968547821,-0.971056158224178,-0.417818336715394,0.601130019760458,0
3.13998413085938,-2.47767472267151,2.03525066375732,2.44350481033325,-2.20536269329809,2.01691042421237,2.50808165332716,1266.564,1281.399,3091.28,3096.047,-0.04583992,0.04418685,0.04303402,-0.948714256286621,-0.398153811693192,0.634368717670441,-0.962735018414262,-0.414237982720922,0.59597883782726,0
3.15997314453125,-2.49648666381836,2.02735996246338,2.45610952377319,-2.22452176174551,2.00866681230185,2.51994202936911,1264.011,1279.954,3090.933,3089.461,-0.0441403,0.04465847,0.04160722,-0.940586566925049,-0.394522309303284,0.630240499973297,-0.954187384555097,-0.410560174664568,0.590687445288169,0
3.17999267578125,-2.5151309967041,2.01954436302185,2.4686267375946,-2.24353658854737,2.00048526354177,2.53171311296128,1255.616,1276.977,3087.16,3092.425,-0.04244227,0.04512535,0.04019969,-0.932230591773987,-0.390778839588165,0.625856935977936,-0.945403214201559,-0.406780591562751,0.585249625391267,0
3.19998168945313,-2.53360414505005,2.01180601119995,2.48105072975159,-2.26234477504321,1.99239262633251,2.54335627636037,1267.313,1274.409,3078.229,3080.575,-0.04071334,0.04561193,0.03872668,-0.92365574836731,-0.386920750141144,0.621197938919067,-0.936412917636688,-0.402912318110697,0.579684203550396,0
3.219970703125,-2.55190134048462,2.00414681434631,2.49338340759277,-2.2809710931091,1.98437824202785,2.55488685453773,1262.275,1272.939,3078.553,3075.733,-0.03902916,0.04608804,0.03727079,-0.914870798587799,-0.382960498332977,0.616628229618073,-0.927207006545169,-0.398951271751399,0.573985306046387,0
3.239990234375,-2.57001900672913,1.99656879901886,2.50561952590942,-2.2994392795179,1.97643189735754,2.5663195416865,1251.841,1269.944,3075.29,3079.909,-0.03734817,0.04655687,0.03583394,-0.905869424343109,-0.378902524709702,0.611803114414215,-0.917774783907129,-0.394892849856044,0.568146310914365,0
3.25997924804688,-2.58795237541199,1.98907375335693,2.51775360107422,-2.31768882969315,1.96857962575054,2.57761688259161,1263.707,1267.411,3066.727,3067.189,-0.03561978,0.04704653,0.0343243,-0.89666074514389,-0.374744743108749,0.606698572635651,-0.908148960779607,-0.390751127078637,0.562187467856884,0
3.27999877929688,-2.60569715499878,1.98166394233704,2.52978682518005,-2.33577134012187,1.96079922667992,2.58881081793642,1260.205,1266.339,3066.208,3061.119,-0.03392761,0.04752621,0.03282825,-0.887248396873474,-0.370495229959488,0.601662993431091,-0.898304216251578,-0.386515208538549,0.556093102023818,0
3.29998779296875,-2.62325000762939,1.97434067726135,2.54171299934387,-2.35362764460945,1.95311615770631,2.59986472102797,1256.161,1263.875,3059.308,3062.278,-0.03226473,0.0480002,0.0313402,-0.87762588262558,-0.366155743598938,0.596314072608948,-0.888274735793772,-0.382199803288803,0.549884375850026,0
3.31997680664063,-2.64060640335083,1.96710586547852,2.55353236198425,-2.37128151039117,1.94552019245235,2.61079330491711,1255.911,1261.314,3059.263,3053.366,-0.03058214,0.04847435,0.02983635,-0.867814481258392,-0.361737936735153,0.590966165065765,-0.878049940595779,-0.377800359562814,0.543554740547926,0
3.33999633789063,-2.65776228904724,1.95996117591858,2.56523966789246,-2.38875555478454,1.93800159931817,2.62161057080077,1250.201,1259.294,3053.944,3054.013,-0.0288921,0.04894323,0.02834331,-0.857804596424103,-0.357239037752151,0.585365056991577,-0.867618167158097,-0.373311858882592,0.53709697585572,0
3.3599853515625,-2.6747145652771,1.95290803909302,2.5768301486969,-2.40599272667425,1.93058492580486,2.63228120132087,1261.734,1257.067,3045.023,3041.942,-0.02718288,0.04942432,0.02679557,-0.847603797912598,-0.352656811475754,0.579521358013153,-0.857015715678588,-0.368749920209162,0.530533553325099,0
3.37997436523438,-2.6914587020874,1.94594788551331,2.58830547332764,-2.42301614089521,1.92326022624472,2.64281950566132,1256.46,1256.152,3044.612,3037.445,-0.02553492,0.04988822,0.02527547,-0.837216913700104,-0.348000824451447,0.573769569396973,-0.846231427202182,-0.364109742155906,0.523857565031302,0
3.39999389648438,-2.70799160003662,1.93908226490021,2.59966135025024,-2.43984769972619,1.91601807669906,2.65323904237604,1245.718,1253.537,3041.368,3041.545,-0.02390773,0.05033898,0.02378405,-0.826646625995636,-0.34327894449234,0.567789316177368,-0.835253140422974,-0.35938609205264,0.51706148254665,0
3.41998291015625,-2.72430992126465,1.93231248855591,2.61089253425598,-2.45643259034873,1.90888206159239,2.66350587971929,1255.841,1251.038,3033.848,3029.435,-0.02224112,0.05080222,0.0222358,-0.815904140472412,-0.338492095470428,0.561560213565826,-0.824119146742881,-0.354595445619869,0.510169010073001,0
3.43997192382813,-2.74040937423706,1.92563962936401,2.62200021743774,-2.47279324219826,1.90184253016523,2.67363390258008,1252.388,1250.388,3032.605,3023.541,-0.0206118,0.05125196,0.02070998,-0.804989516735077,-0.333644360303879,0.555381000041962,-0.812817768079999,-0.3497327781052,0.503172918321354,0
3.45999145507813,-2.75628781318665,1.91906476020813,2.63297963142395,-2.48895081463434,1.8948903781363,2.68363620960993,1244.312,1248.044,3028.255,3026.042,-0.01899952,0.05168864,0.0192136,-0.79390561580658,-0.328739851713181,0.548969209194183,-0.80133641229185,-0.344792671461508,0.496065412155666,0
3.47998046875,-2.77194118499756,1.91258931159973,2.64382648468018,-2.50485284867397,1.88804817714046,2.69348032619939,1254.128,1245.65,3020.744,3014.464,-0.01736541,0.05213275,0.01767379,-0.782664060592651,-0.323779672384262,0.542341351509094,-0.789715229532172,-0.33979240117828,0.488871346433721,0
3.49996948242188,-2.78736591339111,1.90621399879456,2.65454196929932,-2.52052105914884,1.88130658389224,2.7031796948637,1249.274,1245.052,3019.599,3009.991,-0.01578296,0.05255932,0.01616636,-0.771266102790833,-0.318768590688705,0.535776674747467,-0.777942088074629,-0.334726747312594,0.481583211039,0
3.51998901367188,-2.80256080627441,1.89993989467621,2.66512179374695,-2.53597583877076,1.87465682397749,2.71274693966292,1240.408,1242.751,3015.694,3012.907,-0.01421968,0.05297175,0.01469016,-0.759718537330627,-0.31371283531189,0.52899569272995,-0.766004036374581,-0.329590137176618,0.474192988348404,0
3.53997802734375,-2.81752157211304,1.89376735687256,2.67556190490723,-2.55116718971613,1.86812041006291,2.72215110956251,1249.517,1240.437,3008.589,3001.639,-0.01262764,0.05339097,0.01317177,-0.748032689094543,-0.308613508939743,0.522005319595337,-0.753942941956194,-0.324400585196356,0.466726596353819,0
3.55999755859375,-2.83224582672119,1.88769793510437,2.68586325645447,-2.56613872308604,1.86167857751006,2.73141920191151,1245.673,1240.058,3007.111,2996.43,-0.01107928,0.05379418,0.01168385,-0.736207365989685,-0.303473174571991,0.515070557594299,-0.741727567798258,-0.319144650954242,0.459164697851087,0
3.57998657226563,-2.84673070907593,1.88173198699951,2.69602084159851,-2.58084213759183,1.85535210901407,2.74052131591136,1241.646,1237.991,3000.712,2997.221,-0.009562879,0.05418527,0.01021882,-0.724249482154846,-0.298296272754669,0.507878124713898,-0.72940084364523,-0.31384080592,0.451533868397061,0
3.5999755859375,-2.86097383499146,1.8758704662323,2.70603466033936,-2.59529790318687,1.84913219692586,2.7494701234383,1241.946,1236.191,2999.642,2988.668,-0.008039018,0.05457017,0.00875375,-0.712172567844391,-0.293088912963867,0.500695049762726,-0.716950039288888,-0.308483572640672,0.443826227386424,0
3.6199951171875,-2.87497329711914,1.87011349201202,2.71590113639832,-2.60952509409627,1.84301063413925,2.75827743234631,1236.486,1234.871,2994.422,2989.153,-0.006527408,0.05494354,0.007316207,-0.699976682662964,-0.287850439548492,0.493320107460022,-0.704361775018033,-0.303067194200314,0.436033492140578,0
3.63998413085938,-2.88872694969177,1.86446189880371,2.7256166934967,-2.623478029369,1.83700707589127,2.76691496395061,1244.936,1232.833,2987.461,2978.806,-0.005006743,0.05531868,0.005853198,-0.687671005725861,-0.282581478357315,0.485775113105774,-0.691680442442073,-0.297610771068296,0.428183143180413,0
3.65997314453125,-2.90223217010498,1.85891580581665,2.735182762146,-2.63717640706374,1.8311130466576,2.77539491228788,1240.303,1232.519,2985.929,2974.922,-0.003544667,0.05567512,0.004430358,-0.675255537033081,-0.277284801006317,0.478298336267471,-0.678893054168409,-0.29210871513241,0.420267140691237,0
3.67999267578125,-2.91548681259155,1.85347652435303,2.7445957660675,-2.65063849381582,1.82532068681534,2.78372858527554,1231.99,1230.572,2982.363,2977.471,-0.002109756,0.05601642,0.003045676,-0.662742435932159,-0.271967530250549,0.470650494098663,-0.665986083416798,-0.286555206197011,0.41227711095171,0
3.69998168945313,-2.92848992347717,1.84814381599426,2.75385236740112,-2.66382131180924,1.81964848851807,2.79188937759817,1239.7,1228.412,2976.21,2967.311,-0.0006540724,0.05636057,0.001634518,-0.650143027305603,-0.266631811857224,0.462833046913147,-0.653005218467595,-0.280969902652754,0.404241337183804,0
3.719970703125,-2.94123888015747,1.84291851520538,2.76295375823975,-2.67674377421065,1.81408831395855,2.7998889974069,1236.453,1228.273,2974.359,2962.456,0.0007581085,0.05668873,0.0002602547,-0.637454569339752,-0.261277556419373,0.455070674419403,-0.639937296597115,-0.275347140947358,0.396151671034529,0
3.739990234375,-2.95373296737671,1.83780026435852,2.77189660072327,-2.68942333385363,1.80863265367006,2.80773824883709,1229.687,1226.487,2970.175,2964.4,0.002143248,0.05700265,-0.001074319,-0.624688506126404,-0.255909770727158,0.447139531373978,-0.62676873176137,-0.26968107538565,0.387999702095468,0
3.75997924804688,-2.96597003936768,1.83278965950012,2.78067803382874,-2.70181978867538,1.80329880547712,2.81541224489679,1237.172,1224.418,2964.528,2954.424,0.003538727,0.05731688,-0.00242614,-0.611855745315552,-0.250530630350113,0.439077615737915,-0.6135463347885,-0.263991847359231,0.379814408499146,0
3.77999877929688,-2.97794890403748,1.82788681983948,2.78929948806763,-2.7139695770734,1.79807109095524,2.82293354268985,1233.135,1224.288,2962.583,2950.856,0.004881915,0.05761369,-0.003733219,-0.598954379558563,-0.245140194892883,0.431070566177368,-0.60023651686137,-0.258265004538452,0.371574997167698,0
3.79998779296875,-2.98966908454895,1.82309174537659,2.79775714874268,-2.72583438304408,1.79296599641037,2.83027842278479,1229.658,1222.426,2957.422,2951.118,0.006190551,0.05789806,-0.005008874,-0.58599841594696,-0.239744454622269,0.422884702682495,-0.586886736182787,-0.252520966862155,0.36331084698941,0
3.81997680664063,-3.00112891197205,1.8184050321579,2.80605149269104,-2.73743179640664,1.78797595343468,2.83745777411762,1229.751,1221.046,2956.044,2944.091,0.007495933,0.0581745,-0.006270146,-0.572996497154236,-0.234346508979797,0.414722502231598,-0.573483731835694,-0.246754028528195,0.355013748824923,0
3.83999633789063,-3.01232767105103,1.81382608413696,2.81418013572693,-2.74877791451009,1.78309403578861,2.84448156171422,1225.658,1220.002,2951.302,2944.091,0.008781814,0.05843947,-0.007497864,-0.559953689575195,-0.22894674539566,0.406427383422852,-0.560014026276881,-0.240958390526246,0.346675359432959,0
3.8599853515625,-3.02326536178589,1.80935525894165,2.82214093208313,-2.75983729406747,1.77833549372837,2.85132784449154,1232.396,1218.247,2945.85,2935.279,0.01006407,0.05870267,-0.008730907,-0.546878099441528,-0.223546400666237,0.398034125566483,-0.546525890176286,-0.235154822377061,0.338325560657667,0
3.87997436523438,-3.03394079208374,1.80499219894409,2.82993507385254,-2.77062673073895,1.77369310055059,2.85800701976334,1228.646,1218.119,2943.929,2932.268,0.01128563,0.05894867,-0.009917079,-0.533768773078918,-0.218145832419395,0.389709502458572,-0.533006127404299,-0.22933764615472,0.329956183466192,0
3.89999389648438,-3.04435348510742,1.80073714256287,2.83756065368652,-2.78116151864576,1.76916027562219,2.86452855531919,1222.542,1216.522,2940.765,2933.748,0.01247125,0.05918066,-0.01106064,-0.520641088485718,-0.212751999497414,0.381281286478043,-0.519441457145543,-0.223501147495394,0.321559006401168,0
3.91998291015625,-3.05450344085693,1.79658985137939,2.84501600265503,-2.79140913007042,1.76475101471128,2.87087231495249,1227.993,1214.713,2936.241,2925.712,0.01365747,0.05941072,-0.01220687,-0.507505476474762,-0.207367986440659,0.372764229774475,-0.505880764601328,-0.217666360335509,0.313164291730931,0
