t,x_s1,x_s2,x_s3,x_s_d1,x_s_d2,x_s_d3,propellers_rpms1,propellers_rpms2,propellers_rpms3,propellers_rpms4,rollRad,pitchRad,yawRad,v_s1,v_s2,v_s3,v_s_d1,v_s_d2,v_s_d3,insideCount
0,-0.0599999986588955,2.94000005722046,1.17999994754791,-0.0599999986588955,2.94000005722046,1.17999994754791,0,0,0,0,0,0,0,0,0,0,-1.06581410364015E-15,4.44089209850063E-16,4.44089209850063E-16,0
0.0200004577636719,-0.0599999986588955,2.94000005722046,1.17811644077301,-0.0600018691155303,2.93999925241522,1.18000110544967,0,0,0,0,-0.01635288,0.0001297794,-0.01587137,-1.10653664009419E-09,-7.76775763711157E-08,-0.0941759571433067,-0.000279999361409376,-0.000120475902936966,0.000173332942931458,9
0.0400009155273438,-0.0599999986588955,2.94000005722046,1.17242503166199,-0.0600148724204753,2.93999365745638,1.18000915511487,0,0,0,0,-0.03270202,0.0005238493,-0.03175127,-1.08383135799528E-09,-7.60859677484405E-08,-0.284568399190903,-0.00111101934050116,-0.00047804058392963,0.00068777389696065,9
0.05999755859375,-0.0599058866500854,2.93990302085876,1.16596508026123,-0.0600498857373401,2.93997859220429,1.18003083002592,1868.158,3252.8,3183.883,1722.412,-0.04942188,0.0003295469,-0.01369504,0.00470569217577577,-0.00484922388568521,-0.322996377944946,-0.00247936261166862,-0.00106680046642749,0.00153484356504269,9
0.0799980163574219,-0.0598203726112843,2.93960738182068,1.16000318527222,-0.0601175407449857,2.93994948214456,1.18007271169851,1925.417,2314.329,3252.175,2829.49,-0.07543191,-0.002136388,0.02094827,0.00427574524655938,-0.0147786010056734,-0.298097372055054,-0.00437227586895222,-0.00188126815916228,0.00270664704326441,9
0.0999984741210938,-0.059937447309494,2.93904495239258,1.15498661994934,-0.0602281887669101,2.93990187339187,1.18014120809498,980.2307,1498.878,3914.889,3896.586,-0.1031948,-0.008062987,0.06330813,-0.00585366552695632,-0.0281165614724159,-0.250827729701996,-0.00677637982016689,-0.00291568692648091,0.00419490191241918,8
0.119998931884766,-0.0604638457298279,2.93818354606628,1.15081322193146,-0.0603919230601972,2.93983142309968,1.18024256742227,346.43,980.3618,4172.869,4613.367,-0.1214316,-0.01542077,0.1040017,-0.0263199768960476,-0.0430682152509689,-0.208670049905777,-0.00967861374975049,-0.00416443710735115,0.00599152296740588,8
0.139999389648438,-0.0615636147558689,2.93704128265381,1.14728283882141,-0.0606185767455666,2.93973390035084,1.18038287685052,352.9093,747.0989,3975.375,4854.938,-0.1254008,-0.0211668,0.1351055,-0.0549884214997292,-0.0571135841310024,-0.176518216729164,-0.0130660253322238,-0.00562194567796536,0.00808849210174802,7
0.159999847412109,-0.0633408576250076,2.93568110466003,1.14427495002747,-0.0609177249752248,2.93960518522485,1.18056806385509,820.9555,814.9553,3462.737,4692.378,-0.118459,-0.02352423,0.1522695,-0.0888621807098389,-0.0680146068334579,-0.150395318865776,-0.0169257706321904,-0.00728268625174051,0.0104778583075938,7
0.180000305175781,-0.0658468902111053,2.93417239189148,1.14182531833649,-0.0612986871007165,2.9394412678651,1.18080389755851,1348.717,1083.387,3006.692,4255.243,-0.1079805,-0.02277961,0.1557776,-0.125301867723465,-0.0754304826259613,-0.122479736804962,-0.0212451141043368,-0.00914117907931815,0.0131517376757159,7
0.200000762939453,-0.069084957242012,2.93255400657654,1.14006149768829,-0.0617705288407759,2.93923824754608,1.18109599007255,1636.457,1381.189,2918.47,3666.298,-0.09982806,-0.02030074,0.1501558,-0.161903396248817,-0.0809152945876122,-0.0881882905960083,-0.0260114285934326,-0.0111919910485645,0.016102313395512,7
0.219997406005859,-0.0730102881789207,2.93082618713379,1.13903558254242,-0.0623419453860714,2.93899238297017,1.18144972413443,1641.382,1580.668,3148.268,3113.102,-0.09584025,-0.01735475,0.1421885,-0.196266457438469,-0.0863864719867706,-0.0512943454086781,-0.0312111627562649,-0.0134292913950757,0.0193211965399932,7
0.239997863769531,-0.0775500163435936,2.92897367477417,1.1386331319809,-0.0630217183703222,2.93869989564571,1.18187053599376,1524.013,1624.156,3417.899,2777.48,-0.09475634,-0.01467775,0.1377341,-0.226986467838287,-0.0926253423094749,-0.0201211906969547,-0.0368338920540454,-0.0158485947310391,0.02280193382306,7
0.259998321533203,-0.0826389044523239,2.92699241638184,1.1386353969574,-0.063818066443955,2.93835724931701,1.18236351338666,1439.041,1500.872,3533.106,2744.247,-0.09438882,-0.01258823,0.1393029,-0.254444122314453,-0.0990581661462784,0.000115355476737022,-0.04286636357961,-0.0184441987007453,0.0265363210638542,7
0.279998779296875,-0.0882447585463524,2.92490077018738,1.13885200023651,-0.0647390625194898,2.93796097043536,1.18293365383054,1400.645,1276.007,3476.51,2977.659,-0.0932101,-0.01110538,0.1456839,-0.280293345451355,-0.104584150016308,0.0108290715143085,-0.0492963837173861,-0.0212108567320638,0.030516809833474,7
0.299999237060547,-0.0943705290555954,2.92273259162903,1.1392068862915,-0.065792536715479,2.93750768991949,1.18358580454179,1350.584,1061.563,3345.177,3324.823,-0.09053256,-0.009935189,0.1533097,-0.306288331747055,-0.108406469225883,0.0177432522177696,-0.0561118672418845,-0.0241433688900884,0.0347359188016424,7
0.319999694824219,-0.101035833358765,2.92052578926086,1.13972496986389,-0.0669860785243584,2.93699414222283,1.18432466377777,1280.869,941.149,3237.601,3590.493,-0.08597856,-0.008523713,0.158359,-0.333265513181686,-0.110342241823673,0.0259066764265299,-0.0633008373176985,-0.0272365818771378,0.0391862337367069,7
0.340000152587891,-0.1082514077425,2.91831207275391,1.14046156406403,-0.0683270389802989,2.93641716440073,1.1851547821788,1253.108,944.1946,3171.064,3649.786,-0.07944689,-0.006291984,0.1584762,-0.360778838396072,-0.110679998993874,0.0368312783539295,-0.0708514254995047,-0.0304853890327553,0.0438604075056398,7
0.360000610351563,-0.116002932190895,2.91611480712891,1.14145267009735,-0.0698225328270578,2.93577369517774,1.1860805641102,1319.742,1047.217,3120.693,3498.071,-0.07154848,-0.002963033,0.1534734,-0.387576907873154,-0.1098587885499,0.049553319811821,-0.0787518717320621,-0.0338847303337087,0.0487511600740379,8
0.379997253417969,-0.124251276254654,2.91394972801208,1.14270758628845,-0.0714791088463715,2.935060916796,1.18710606357981,1455.366,1181.631,3090.781,3231.335,-0.06361493,0.001258608,0.1450394,-0.412417531013489,-0.108257204294205,0.0627469718456268,-0.0869889214763108,-0.0374289027221294,0.0538502862508218,8
0.399997711181641,-0.13294306397438,2.91182637214661,1.14421725273132,-0.0733040467096699,2.93427569701629,1.18823578705104,1579.382,1273.531,3104.968,2981.852,-0.05701775,0.00582592,0.1357496,-0.434589803218842,-0.106165796518326,0.0754804387688637,-0.0955541759940907,-0.0411142924556206,0.059152586816983,8
0.419998168945313,-0.142023429274559,2.90975022315979,1.14595770835876,-0.0753034649285836,2.93341540321397,1.18947352217404,1631.32,1288.616,3158.829,2844.874,-0.05243764,0.01017542,0.1278584,-0.454018324613571,-0.103802219033241,0.0870242118835449,-0.104434660908044,-0.0449353170220673,0.0646500300148815,8
0.439998626708984,-0.151445835828781,2.90772438049316,1.14789545536041,-0.0774835548069347,2.93247737144397,1.19082310166083,1607.105,1238.159,3219.226,2842.875,-0.0496557,0.0139754,0.1224615,-0.471120893955231,-0.101289838552475,0.0968896821141243,-0.113619049702587,-0.0488871029382406,0.0703356041918149,8
0.459999084472656,-0.161176547408104,2.90575170516968,1.14999675750732,-0.0798502821969742,2.93145903476675,1.19228821865812,1541.455,1158.229,3252.808,2938.259,-0.04788577,0.01718613,0.1193398,-0.486535549163818,-0.0986380130052567,0.105067938566208,-0.123096124252221,-0.0529648233581361,0.0762023647937057,8
0.479999542236328,-0.171193391084671,2.90383625030518,1.15223896503448,-0.0824093896672336,2.93035792231548,1.19387242808941,1474.265,1086.203,3248.322,3066.954,-0.04628893,0.01998716,0.1173761,-0.500841796398163,-0.0957770049571991,0.112107925117016,-0.13285477482153,-0.0571636980729742,0.0822434343651008,8
0.5,-0.181480824947357,2.90198349952698,1.15461564064026,-0.085166398670376,2.92917165836334,1.1955791479969,1431.723,1046.33,3216.477,3169.569,-0.04433524,0.02264394,0.1152218,-0.514371871948242,-0.092638798058033,0.118835903704166,-0.142884000065179,-0.0614789935111996,0.0884520025491718,8
0.520000457763672,-0.192024007439613,2.9001989364624,1.15713465213776,-0.0881266117110474,2.92789796139072,1.19741166088358,1423.6,1045.052,3177.478,3210.318,-0.04192082,0.025379,0.1118855,-0.527159571647644,-0.0892274528741837,0.125950455665588,-0.153172907027918,-0.0659060227384819,0.0948213260877149,9
0.540000915527344,-0.202804267406464,2.89848613739014,1.15980982780457,-0.0912951145137283,2.92653464315245,1.19937311505516,1445.727,1073.393,3148.777,3184.503,-0.03929494,0.02828919,0.1070499,-0.53901344537735,-0.0856392532587051,0.133758723735809,-0.163710711144578,-0.0704401454577151,0.101344728821151,9
0.55999755859375,-0.21379753947258,2.89684557914734,1.16265285015106,-0.094676112580471,2.92507989413848,1.20146611391775,1484.194,1113.863,3138.638,3114.216,-0.03688851,0.03132743,0.1010599,-0.549663901329041,-0.082032173871994,0.14215013384819,-0.17448465888317,-0.0750758741803766,0.108014315705644,9
0.579998016357422,-0.224975824356079,2.8952739238739,1.16566801071167,-0.0982755538235842,2.92353115512831,1.2036943395124,1520.677,1148.647,3146.12,3035.139,-0.03512869,0.03434445,0.09465855,-0.558914601802826,-0.0785770043730736,0.150758817791939,-0.185488294752812,-0.0798104312890852,0.11482609048482,9
0.599998474121094,-0.236310482025146,2.89376544952393,1.16885137557983,-0.102097262171133,2.92188678079254,1.20606015903275,1540.606,1167.021,3163.118,2979.311,-0.03428873,0.03716052,0.08861948,-0.566733956336975,-0.0754194408655167,0.15917082130909,-0.196709126405959,-0.0846384416756885,0.121772319800455,9
0.619998931884766,-0.247775822877884,2.89231204986572,1.17219436168671,-0.106145477944935,2.92014494663912,1.20856619743999,1535.354,1167.397,3181.858,2963.746,-0.03441656,0.03963248,0.08345733,-0.573266446590424,-0.0726648196578026,0.167148604989052,-0.208136802817102,-0.0895554515830839,0.128846595874672,9
0.639999389648438,-0.259351074695587,2.89090442657471,1.17568683624268,-0.110424235525481,2.91830391678686,1.21121495220784,1506.673,1156.412,3194.882,2986.949,-0.03534547,0.04169853,0.07929497,-0.578763008117676,-0.0703790485858917,0.174625620245934,-0.219761081350814,-0.0945570538913933,0.136042578028218,9
0.659999847412109,-0.271020859479904,2.88953256607056,1.17932045459747,-0.114937365519793,2.91636204303257,1.21400879466451,1466.626,1144.339,3197.756,3031.312,-0.03678251,0.04338514,0.07590421,-0.58348947763443,-0.0685950145125389,0.181678593158722,-0.231571827761751,-0.0996388881179631,0.143353992680462,9
0.680000305175781,-0.282773852348328,2.88818597793579,1.18308973312378,-0.119688496929273,2.91431776391831,1.21694997133476,1429.292,1139.673,3190.633,3075.074,-0.03844699,0.04477649,0.07288256,-0.587649405002594,-0.067324660718441,0.188461855053902,-0.243559016194652,-0.104796640417365,0.150774633349401,9
0.700000762939453,-0.29460084438324,2.88685441017151,1.18699240684509,-0.124681059317553,2.91216960379868,1.22004060528183,1404.361,1146.244,3177.373,3101.998,-0.04017005,0.04596706,0.06985724,-0.591350138187408,-0.0665748193860054,0.195136442780495,-0.255712729184339,-0.110026043581393,0.158298360651655,9
0.719997406005859,-0.306493133306503,2.88552713394165,1.19102871417999,-0.129917262555645,2.90991661182791,1.22328206452116,1393.698,1162.876,3163.407,3106.74,-0.0419336,0.04702062,0.06663007,-0.594614386558533,-0.0663603693246841,0.201814651489258,-0.26802079535749,-0.115321860608138,0.165917639927336,9
0.739997863769531,-0.318441569805145,2.884192943573,1.19519948959351,-0.135402141159277,2.90755662179454,1.22667746565781,1391.96,1185.006,3153.828,3094.199,-0.04383137,0.04795174,0.06322177,-0.597422361373901,-0.0667101666331291,0.208541661500931,-0.280478211503383,-0.120681938755799,0.173629373950669,9
0.759998321533203,-0.330436736345291,2.88283967971802,1.19950449466705,-0.141137563960274,2.90508882959244,1.2302279655877,1392.534,1207.563,3149.454,3074.733,-0.04599865,0.0487339,0.05981321,-0.599756717681885,-0.0676618814468384,0.215252265334129,-0.293073051970232,-0.126101146749576,0.181426180175103,9
0.779998779296875,-0.342469573020935,2.88145446777344,1.20394217967987,-0.147126184485884,2.90251209348295,1.23393520697061,1387.979,1226.608,3150.626,3058.73,-0.04853771,0.04931874,0.05664889,-0.601642191410065,-0.0692546889185905,0.221881985664368,-0.305795832832518,-0.131575403921268,0.189302187598958,9
0.799999237060547,-0.354532569646835,2.88002419471741,1.2085086107254,-0.153370467664426,2.8998253528763,1.23780071571459,1373.883,1240.652,3154.148,3054.523,-0.05147464,0.0496607,0.05393407,-0.603150486946106,-0.071518637239933,0.228323400020599,-0.318637178554805,-0.1371006762399,0.197251592319181,9
0.819999694824219,-0.366620361804962,2.87853479385376,1.2131986618042,-0.159872691993147,2.89702762739878,1.24182590231796,1352.457,1250.849,3156.446,3062.111,-0.05474927,0.04973909,0.05175877,-0.604392051696777,-0.0744672864675522,0.234503194689751,-0.331587821991737,-0.142672976311719,0.205268657531342,9
0.840000152587891,-0.378730148077011,2.87697291374207,1.21800696849823,-0.166634951706069,2.89411801595997,1.24601206321137,1326.762,1259.582,3155.779,3078.021,-0.05825505,0.04955993,0.05010093,-0.605490207672119,-0.0780973434448242,0.240414828062057,-0.344638604388044,-0.148288363380199,0.213347713529636,8
0.860000610351563,-0.39086127281189,2.87532496452332,1.22292876243591,-0.173659158941841,2.89109569582005,1.2503603820997,1300.426,1269.125,3151.756,3097.135,-0.06187642,0.04915151,0.04886214,-0.606555223464966,-0.0823917090892792,0.246087148785591,-0.357780475378537,-0.153942943326036,0.221483157706883,8
0.879997253417969,-0.403014659881592,2.8735785484314,1.22796022891998,-0.180945630646592,2.88796053060595,1.25487105518773,1277.434,1280.94,3145.51,3113.371,-0.06551589,0.04855415,0.04791984,-0.607669830322266,-0.0873254612088203,0.251576334238052,-0.371001963495383,-0.159631780297098,0.229667888678032,8
0.899997711181641,-0.415192365646362,2.87172102928162,1.23309898376465,-0.188498701076517,2.88471065540831,1.25954676558649,1258.913,1295.104,3138.84,3124.097,-0.06911702,0.0478051,0.04718337,-0.608885049819946,-0.0928703546524048,0.256934881210327,-0.384299280991351,-0.165353244531568,0.237899561647111,8
0.919998168945313,-0.427396953105927,2.86974120140076,1.23834252357483,-0.196318384305134,2.8813460641717,1.26438752200817,1246.611,1310.85,3132.226,3128.081,-0.07266381,0.04693333,0.04661247,-0.610227525234222,-0.0989957824349403,0.262174934148788,-0.397661187980262,-0.171102499820431,0.246171218589148,8
0.939998626708984,-0.439631223678589,2.86762762069702,1.24368929862976,-0.204405885800988,2.87786623821667,1.26939407069523,1237.166,1326.67,3127.902,3128.056,-0.07617546,0.04594929,0.04623128,-0.611717104911804,-0.105673670768738,0.267337530851364,-0.411079067636589,-0.176875838584386,0.254477525278661,8
0.959999084472656,-0.451898753643036,2.86537003517151,1.24913763999939,-0.212762239776093,2.87427073255068,1.27456705187416,1227.185,1341.08,3125.929,3128.486,-0.07967326,0.04485319,0.04609986,-0.613375782966614,-0.112875550985336,0.272415369749069,-0.424544411524882,-0.18266959988136,0.262813214588797,8
0.979999542236328,-0.464203476905823,2.86295866966248,1.25468528270721,-0.221388311353785,2.87055917493534,1.27990700109753,1216.463,1353.371,3125.256,3131.099,-0.08315348,0.04364439,0.04627125,-0.615236878395081,-0.120569944381714,0.277385026216507,-0.438048819599778,-0.188480169406503,0.271173086491326,8
1,-0.476550340652466,2.86038422584534,1.26033008098602,-0.230284798736574,2.86673126495361,1.28541435058594,1204.847,1363.638,3124.96,3136.818,-0.08659588,0.042326,0.04677377,-0.61734414100647,-0.128720611333847,0.282238841056824,-0.451584000205995,-0.194303979492187,0.279552008056641,8
1.02000045776367,-0.488945245742798,2.8576385974884,1.26606976985931,-0.239452235373992,2.86278677307706,1.29108943057007,1192.329,1372.337,3124.476,3145.744,-0.08996478,0.04090738,0.04760352,-0.619745433330536,-0.137286603450775,0.286984622478485,-0.465141770078335,-0.200137509108014,0.287944913453762,8
1.03999710083008,-0.501394927501678,2.85471415519714,1.27190256118774,-0.248889165986195,2.85872632547195,1.29693134016237,1180.082,1380.104,3123.454,3156.48,-0.09321649,0.0394069,0.04872465,-0.622485280036926,-0.146222800016403,0.291639357805252,-0.478711464817306,-0.205976169660809,0.296345200911388,8
1.05999755859375,-0.513906896114349,2.85160446166992,1.27782738208771,-0.258599401509697,2.85454828239877,1.30294243851408,1169.01,1387.442,3122.489,3167.138,-0.09630523,0.03784806,0.05008607,-0.625599265098572,-0.155482515692711,0.296240985393524,-0.492290296490434,-0.211818761581115,0.30475114456651,8
1.07999801635742,-0.526489019393921,2.848304271698,1.2838431596756,-0.268581219802083,2.85025338484727,1.30912165953701,1161.89,1394.762,3120.449,3175.804,-0.09920062,0.0362572,0.05163164,-0.629107654094696,-0.165013894438744,0.300788909196854,-0.50586781946303,-0.217660790404144,0.31315627807366,8
1.09999847412109,-0.539149463176727,2.84480881690979,1.28995013237,-0.278834517009062,2.84584167750307,1.31546893894041,1157.664,1401.901,3119.406,3181.856,-0.1018952,0.03465512,0.05332546,-0.633023679256439,-0.174769714474678,0.305347323417664,-0.519436284009554,-0.223498921639497,0.321555803983559,7
1.11999893188477,-0.551896452903748,2.84111475944519,1.29614889621735,-0.289359035362208,2.84131327127672,1.32198411715334,1154.222,1408.335,3119.677,3187.394,-0.1043922,0.03305571,0.05515544,-0.637349963188171,-0.184703469276428,0.30993664264679,-0.532988048794549,-0.229329867434001,0.329944991945551,7
1.13999938964844,-0.564738214015961,2.83721947669983,1.3024400472641,-0.300154365346813,2.83666834237095,1.3286669406667,1152.771,1413.691,3120.851,3191.887,-0.10669,0.03147145,0.05711302,-0.642086744308472,-0.194769158959389,0.314558982849121,-0.546515580872639,-0.235150386571708,0.338319178707607,7
1.15999984741211,-0.577682912349701,2.83312106132507,1.30882453918457,-0.311219947869739,2.83190713134792,1.33551706337518,1152.888,1417.898,3122.679,3196.056,-0.1087923,0.029912,0.05919554,-0.647234499454498,-0.204921454191208,0.319224715232849,-0.560011455688534,-0.240957284473894,0.346673768116318,7
1.18000030517578,-0.590738713741302,2.82881879806519,1.31530344486237,-0.322555076427271,2.82702994219644,1.34253404791935,1153.463,1420.857,3125.124,3201.05,-0.1107044,0.0283841,0.06140034,-0.652794599533081,-0.215116232633591,0.323947846889496,-0.573468357077025,-0.246747413199059,0.355004231116904,7
1.19999694824219,-0.603914141654968,2.82431268692017,1.32187819480896,-0.334156660511822,2.8220381046756,1.34971598112778,1154.214,1422.649,3127.999,3207.127,-0.1124264,0.02689597,0.06371491,-0.658768892288208,-0.225310832262039,0.328740566968918,-0.58687652428584,-0.252516572968185,0.36330452533874,7
1.21999740600586,-0.617217242717743,2.81960344314575,1.32855069637299,-0.346028131869748,2.8169301422008,1.35706498741494,1154.771,1423.428,3131.647,3214.054,-0.1139503,0.02545705,0.06611776,-0.665158092975616,-0.235465243458748,0.333625882863998,-0.600233974716476,-0.258263910724523,0.371573423458908,7
1.23999786376953,-0.63065642118454,2.814692735672,1.33532238006592,-0.358166167196084,2.81170748469733,1.36457900949675,1157.863,1423.762,3134.291,3220.298,-0.1152685,0.02408139,0.06857333,-0.671955525875092,-0.245536461472511,0.338585287332535,-0.613531154887641,-0.263985315871967,0.379805011417393,7
1.2599983215332,-0.644239485263824,2.80958294868469,1.34219574928284,-0.370569492049568,2.80637068052165,1.37225725843336,1162.139,1423.675,3137.744,3225.511,-0.1163871,0.02277935,0.071054,-0.679154694080353,-0.25548905134201,0.343670934438705,-0.626761182173783,-0.269677827009021,0.387995028541113,7
1.27999877929688,-0.657974243164063,2.80427718162537,1.3491735458374,-0.383236695417198,2.80092033679326,1.3800988607405,1166.176,1423.039,3141.941,3231.063,-0.1173138,0.02155779,0.0735416,-0.686740100383759,-0.2652887403965,0.348890751600266,-0.639917282339435,-0.275338529371412,0.396139281255613,8
1.29999923706055,-0.671868145465851,2.79877901077271,1.35625839233398,-0.396166231882091,2.79535711846185,1.3881028597315,1171.804,1421.882,3146.406,3235.5,-0.1180494,0.02042555,0.07601409,-0.694693088531494,-0.274903506040573,0.354241460561752,-0.652992789539212,-0.280964554832093,0.404233643085061,8
1.31999969482422,-0.685927927494049,2.79309296607971,1.36345291137695,-0.409356423791328,2.7896817473746,1.39626821685929,1178.868,1420.296,3151.052,3238.99,-0.1186044,0.01938755,0.07845724,-0.702993154525757,-0.284303277730942,0.359728932380676,-0.665981146317813,-0.286553081901244,0.412274054652251,8
1.34000015258789,-0.700160324573517,2.78722381591797,1.37076008319855,-0.422805463423808,2.78389500134342,1.4045938130584,1186.439,1418.19,3155.9,3242.452,-0.1189943,0.01844631,0.08086266,-0.711618304252625,-0.29346090555191,0.365357637405396,-0.678875903610019,-0.292101335726266,0.4202565236786,8
1.36000061035156,-0.714571177959442,2.78117680549622,1.37818276882172,-0.436511415158101,2.77799771321212,1.41307845008695,1194.059,1415.505,3161.219,3246.014,-0.119234,0.01760237,0.08322204,-0.720547258853912,-0.302353411912918,0.371136516332626,-0.691670720740693,-0.297606588091785,0.42817712498415,8
1.37999725341797,-0.729166388511658,2.77495765686035,1.38572406768799,-0.450469530727146,2.77199192602736,1.42171918854144,1201.574,1412.326,3166.903,3249.718,-0.1193347,0.0168566,0.08552581,-0.72975766658783,-0.310960978269577,0.377066165208817,-0.704356955827446,-0.303065120637236,0.436030508832034,8
1.39999771118164,-0.743950843811035,2.76857233047485,1.39338707923889,-0.464682951063699,2.76587628833354,1.43051797280888,1208.561,1408.628,3173.184,3253.663,-0.119299,0.01620936,0.08776391,-0.739226758480072,-0.319267004728317,0.383149296045303,-0.716933326165324,-0.308476381450513,0.44381588116678,8
1.41999816894531,-0.758929431438446,2.76202726364136,1.40117406845093,-0.47914673136562,2.75965292774086,1.43947174182117,1217.69,1405.004,3177.965,3256.691,-0.1191354,0.01566417,0.08991668,-0.748926222324371,-0.32725203037262,0.389347076416016,-0.729391385793766,-0.313836736470737,0.451528013536465,8
1.43999862670898,-0.77410614490509,2.75532913208008,1.40908801555634,-0.4938584461112,2.75332288788357,1.44857899406484,1226.902,1401.218,3183.414,3259.058,-0.1188627,0.01521913,0.09197465,-0.758834600448608,-0.334905534982681,0.395700335502625,-0.741725227577294,-0.31914364402254,0.459163249142831,8
1.45999908447266,-0.789484679698944,2.74848484992981,1.41713213920593,-0.508815552717244,2.74688726276417,1.45783815555978,1234.461,1397.106,3189.55,3262.342,-0.1184952,0.01487037,0.09393549,-0.768923997879028,-0.34222012758255,0.402204394340515,-0.753929052770513,-0.324394609067776,0.466717998286247,8
1.47999954223633,-0.805067956447601,2.74150109291077,1.4253089427948,-0.524015393706918,2.74034719582071,1.46724758120123,1242.484,1392.834,3195.61,3264.928,-0.118035,0.01461763,0.09578834,-0.779165804386139,-0.34918949007988,0.4088374376297,-0.76599717101811,-0.329587183205524,0.474188738365705,8
1.5,-0.820858597755432,2.73438501358032,1.43362069129944,-0.539455198877605,2.73370387899399,1.4768055561018,1251.374,1388.606,3201.249,3266.631,-0.1174885,0.01445986,0.09752563,-0.789531350135803,-0.355808258056641,0.415586352348328,-0.777924000354858,-0.334718964672088,0.481572013878822,8
1.52000045776367,-0.836858451366425,2.72714352607727,1.44206953048706,-0.555132087468752,2.72695855179478,1.48651029693349,1260.284,1384.364,3206.568,3268.254,-0.1168723,0.01439259,0.09914494,-0.799992263317108,-0.362073302268982,0.422444581985474,-0.789704067205609,-0.339787598340998,0.488864436421842,8
1.53999710083008,-0.853068888187408,2.71978378295898,1.45065772533417,-0.571040013494911,2.72011381564173,1.49635806094328,1268.753,1380.05,3211.969,3269.846,-0.1162001,0.01441031,0.1006444,-0.810522079467773,-0.367985337972641,0.429412186145782,-0.801329803423436,-0.344789827850059,0.496061320951293,8
1.55999755859375,-0.869490802288055,2.71231269836426,1.45938754081726,-0.587181951496087,2.71316839067337,1.50635068951315,1275.777,1375.504,3218.024,3271.849,-0.1154784,0.01450769,0.1020247,-0.821094751358032,-0.373548954725266,0.436489045619965,-0.812800388649436,-0.349725300221754,0.503162159625937,8
1.57999801635742,-0.886124312877655,2.70473742485046,1.46826004981995,-0.603551689586986,2.70612494969039,1.51648433719019,1284.239,1371.365,3222.415,3273.057,-0.1147141,0.01468347,0.103276,-0.831679224967957,-0.378765285015106,0.443623900413513,-0.824108441976122,-0.354590839657789,0.510162383312438,8
1.59999847412109,-0.902969419956207,2.69706463813782,1.47727692127228,-0.620145926473056,2.69898491314762,1.52675696031579,1292.545,1367.316,3227.238,3273.457,-0.1139231,0.01493162,0.1043978,-0.842253804206848,-0.383642554283142,0.45084547996521,-0.835248923368005,-0.359384277571697,0.517058871988737,8
1.61999893188477,-0.920025229454041,2.68930077552795,1.48643970489502,-0.636961261140657,2.69174974440622,1.53716645350051,1298.838,1363.157,3232.557,3274.793,-0.1131156,0.01524374,0.1053974,-0.852792203426361,-0.388191163539886,0.458141773939133,-0.846216901179681,-0.364103492014234,0.523848572731403,8
1.63999938964844,-0.937290608882904,2.68145227432251,1.49574935436249,-0.653994195024907,2.68442094880091,1.54771065096602,1305.185,1359.076,3237.519,3275.61,-0.1122906,0.01561646,0.1062734,-0.863268435001373,-0.392421245574951,0.465483099222183,-0.857007552155828,-0.368746407673381,0.530528499715628,8
1.65999984741211,-0.954763770103455,2.67352533340454,1.50520634651184,-0.671241134177535,2.67700007270724,1.55838732788714,1311.944,1355.26,3241.695,3275.9,-0.1114528,0.01604534,0.1070249,-0.873658180236816,-0.396342247724533,0.472848951816559,-0.867616161431205,-0.373310995874343,0.537095734215228,8
1.68000030517578,-0.97244256734848,2.66552591323853,1.51481103897095,-0.688698391434734,2.66948870260877,1.56919420173384,1318.453,1351.66,3245.418,3276.09,-0.1106123,0.0165242,0.107654,-0.883939564228058,-0.39996525645256,0.480233609676361,-0.878038122530658,-0.377795274579551,0.543547424602645,8
1.69999694824219,-0.990324378013611,2.65745973587036,1.52456367015839,-0.706358800111611,2.66188992212981,1.58012683598675,1324.043,1348.199,3249.119,3276.439,-0.1097798,0.01704644,0.1081639,-0.894092321395874,-0.403304100036621,0.487634003162384,-0.888267004546665,-0.382196476749158,0.549879589839776,8
1.71999740600586,-1.00840628147125,2.64933228492737,1.53446459770203,-0.724225231782013,2.65420249571236,1.5911870082869,1328.094,1344.698,3253.403,3277.033,-0.1089547,0.01760598,0.1085593,-0.904097259044647,-0.406375050544739,0.495047181844711,-0.898302321135456,-0.386514393123025,0.556091928856661,8
1.73999786376953,-1.02668499946594,2.64114856719971,1.54451286792755,-0.742290383213093,2.64642956573347,1.60237019758524,1333.564,1341.853,3255.672,3276.859,-0.1081393,0.01820094,0.1088351,-0.913929760456085,-0.409189224243164,0.502414643764496,-0.908137821269591,-0.39074633405868,0.562180571969536,8
1.7599983215332,-1.04515635967255,2.63291335105896,1.55470824241638,-0.760550216073323,2.63857286977439,1.61367390396219,1338.832,1339.216,3258.427,3275.717,-0.1073462,0.01882473,0.1089959,-0.923576891422272,-0.41176363825798,0.509770393371582,-0.917769332013572,-0.394890504058555,0.568142935932543,8
1.77999877929688,-1.06381690502167,2.62463092803955,1.56505024433136,-0.779000609654483,2.63063418086074,1.62509557650306,1341.796,1336.563,3261.612,3275.734,-0.1065824,0.01946887,0.1090557,-0.933020651340485,-0.414116352796555,0.517099440097809,-0.927192788821983,-0.398945154262308,0.57397650459845,8
1.79999923706055,-1.08266174793243,2.6163055896759,1.57553768157959,-0.79763736303951,2.62261530652977,1.63663261464007,1344.589,1334.048,3264.386,3275.434,-0.1058415,0.0201296,0.1090177,-0.942244648933411,-0.416263818740845,0.52437150478363,-0.936404235539493,-0.402908582446823,0.579678828918647,7
1.81999969482422,-1.10168647766113,2.60794115066528,1.58616900444031,-0.816456197270346,2.61451808789761,1.64828236949435,1347.823,1331.892,3266.224,3274.648,-0.105123,0.02080308,0.108884,-0.951234400272369,-0.418220341205597,0.531565129756927,-0.945399824400851,-0.406779133026206,0.585247526943151,7
1.84000015258789,-1.1208860874176,2.59954118728638,1.59694254398346,-0.835452757515797,2.60634439872645,1.66004214521794,1350.702,1330.015,3267.602,3273.859,-0.1044332,0.02148453,0.1086596,-0.959978580474854,-0.420000702142715,0.538678288459778,-0.954175816030892,-0.41055519705179,0.590680283820602,7
1.8599967956543,-1.1402553319931,2.59110879898071,1.60785675048828,-0.854618942724365,2.59809772467243,1.67190692687406,1352.575,1328.331,3268.946,3273.334,-0.1037775,0.0221683,0.1083499,-0.96846729516983,-0.421621114015579,0.545709490776062,-0.962726969681477,-0.41423451957606,0.595973855278252,7
1.87999725341797,-1.15978920459747,2.58264684677124,1.61890995502472,-0.873957566090845,2.58977685529642,1.6838784559643,1352.928,1326.653,3270.894,3273.045,-0.1031501,0.02284997,0.1079617,-0.976691961288452,-0.423099249601364,0.552658438682556,-0.971053025860989,-0.417816988947023,0.601128080678429,7
1.89999771118164,-1.1794821023941,2.57415795326233,1.63009929656982,-0.893460418296025,2.58138532283915,1.69595165052899,1354.779,1325.655,3270.767,3272.048,-0.1025487,0.02352965,0.1074914,-0.984637916088104,-0.4244464635849,0.559466779232025,-0.979148917665041,-0.421300425017273,0.606139823365946,7
1.91999816894531,-1.19932818412781,2.56564450263977,1.64142274856567,-0.913122862707269,2.57292512231409,1.70812364027167,1356.603,1324.889,3271.095,3270.046,-0.1019815,0.02420257,0.1069449,-0.992302596569061,-0.425678372383118,0.566172122955322,-0.987011339258123,-0.424683405378145,0.611007036871143,7
1.93999862670898,-1.21932172775269,2.55710816383362,1.65287804603577,-0.932940197657643,2.56439827671719,1.72039151463653,1356.032,1324.092,3271.886,3269.418,-0.1014531,0.02486191,0.106338,-0.999678194522858,-0.426810950040817,0.572763741016388,-0.99463709319481,-0.4279645542582,0.615727741822989,7
1.95999908447266,-1.23945689201355,2.54855132102966,1.66446232795715,-0.952907658613767,2.55580683609405,1.73275232415044,1355.434,1323.411,3272.363,3268.393,-0.100953,0.02550609,0.1056743,-1.00675857067108,-0.427858293056488,0.579216599464417,-1.00202309041976,-0.431142542523221,0.620300025949072,7
1.97999954223633,-1.25972759723663,2.53997468948364,1.67617249488831,-0.973020420343666,2.54715287660719,1.74520308176496,1355.204,1323.031,3271.915,3267.148,-0.1004768,0.02613387,0.104957,-1.01353871822357,-0.4288310110569,0.585510015487671,-1.00916635026771,-0.434216087676217,0.62472204407561,7
2,-1.28012800216675,2.53137993812561,1.6880054473877,-0.993273599084619,2.53843849960327,1.7577407641983,1354.972,1322.874,3271.229,3265.546,-0.1000267,0.02674278,0.1041908,-1.02001738548279,-0.429739832878113,0.591650784015656,-1.01606400046349,-0.437183953857422,0.628992018127441,6
2.02000045776367,-1.30065178871155,2.52276802062988,1.69995808601379,-1.01366225471101,2.52966583068033,1.7703623132774,1353.624,1322.841,3270.409,3264.641,-0.09960382,0.02732911,0.1033829,-1.02619254589081,-0.430595248937607,0.597633898258209,-1.022713277122,-0.440044951844294,0.633108237128032,6
2.03999710083008,-1.32129287719727,2.51413989067078,1.71202719211578,-1.03417746715556,2.52083870789413,1.78306220705567,1351.984,1322.959,3269.521,3263.504,-0.09920382,0.02789224,0.1025355,-1.03206372261047,-0.43140771985054,0.603454947471619,-1.02911032850577,-0.442797424341804,0.637068316668402,6
2.05999755859375,-1.342045545578,2.50549626350403,1.72420942783356,-1.05482201812353,2.5119559343546,1.79584216754118,1349.314,1323.077,3269.046,3262.525,-0.09881765,0.02843073,0.1016544,-1.03763091564178,-0.432187080383301,0.6091148853302,-1.03525504859546,-0.445441325732794,0.640872191117535,6
2.07999801635742,-1.36290335655212,2.4968376159668,1.73650062084198,-1.07558691007788,2.50302138145056,1.8086966248299,1348.463,1323.756,3266.485,3260.889,-0.09844322,0.02894704,0.100736,-1.042888879776,-0.432936817407608,0.614562451839447,-1.04114375428791,-0.447975071280863,0.644517580459114,6
2.09999847412109,-1.38386034965515,2.48816442489624,1.74889755249023,-1.09646699912883,2.4940372624541,1.82162239460902,1347.549,1324.533,3264.688,3258.331,-0.09808689,0.02943873,0.09978616,-1.04784369468689,-0.433665066957474,0.619848430156708,-1.04677411523768,-0.450397658303471,0.648003042098304,5
2.11999893188477,-1.40491008758545,2.47947692871094,1.76139688491821,-1.11745709586255,2.485005810225,1.83461626438416,1343.996,1325.136,3263.559,3257.494,-0.09775186,0.02990086,0.09882071,-1.05249536037445,-0.434380084276199,0.624964892864227,-1.0521439094894,-0.452708130755304,0.651327200538896,5
2.13999938964844,-1.4260470867157,2.47077512741089,1.77399456501007,-1.138551967509,2.47592927627801,1.8476749948214,1340.866,1325.735,3262.073,3256.146,-0.09742216,0.03033612,0.09783977,-1.056844830513,-0.435087233781815,0.629885673522949,-1.05725102347782,-0.454905579228273,0.654488747383304,4
2.15999984741211,-1.44726490974426,2.46205925941467,1.78668653964996,-1.15974634010981,2.46680992985011,1.86079532108929,1338.523,1326.508,3259.898,3254.259,-0.09709033,0.03074577,0.09684467,-1.06089448928833,-0.435788661241531,0.634600937366486,-1.06209345202774,-0.456989140951513,0.657486441332569,4
2.18000030517578,-1.46855783462524,2.45332956314087,1.79946875572205,-1.18103490068612,2.45765005696766,1.87397395420079,1336.246,1327.392,3257.271,3252.463,-0.09675797,0.03112945,0.09583902,-1.06464743614197,-0.436485171318054,0.639112710952759,-1.06666929835407,-0.458957999791384,0.660319108186354,3
2.19999694824219,-1.48991990089417,2.44458603858948,1.81233727931976,-1.20240821395574,2.44845371736898,1.88720505326679,1333.383,1328.288,3254.666,3251.01,-0.09642561,0.03148675,0.09482598,-1.0681084394455,-0.437178283929825,0.643429338932037,-1.07097597819164,-0.460811043810786,0.662985148161421,1
2.21999740600586,-1.51134550571442,2.4358286857605,1.82528853416443,-1.22386905090202,2.43921971877738,1.90049033365798,1329.159,1328.998,3252.897,3249.961,-0.09608579,0.03181782,0.09380947,-1.07128262519836,-0.43787094950676,0.647563934326172,-1.07501345493598,-0.46254825725983,0.665484538597853,0
2.23999786376953,-1.53282880783081,2.42705750465393,1.83831787109375,-1.24540792547886,2.42995214277345,1.91382392305993,1326.782,1330.088,3249.334,3248.209,-0.09573105,0.03212776,0.09278245,-1.07416844367981,-0.438559889793396,0.651465952396393,-1.07877930973132,-0.464168599372462,0.667815782108711,0
2.2599983215332,-1.55436432361603,2.41827249526978,1.85142147541046,-1.26701939030951,2.42065333321126,1.92720244928693,1324.848,1331.204,3246.48,3245.276,-0.09536567,0.03241671,0.09174741,-1.07677388191223,-0.439245462417603,0.655183255672455,-1.08227207933222,-0.465671440555045,0.66997797287536,0
2.27999877929688,-1.57594633102417,2.40947389602661,1.86459565162659,-1.28869796983554,2.41132564607061,1.9406225227075,1320.784,1332.099,3244.147,3243.914,-0.09499123,0.03268228,0.09071758,-1.07910072803497,-0.43992754817009,0.658709466457367,-1.08549040888332,-0.467056197851165,0.67197027217779,0
2.29999923706055,-1.59756946563721,2.40066170692444,1.8778361082077,-1.31043816248474,2.40197144852433,1.95408073758635,1317.292,1332.848,3241.496,3242.163,-0.09459548,0.03292763,0.08969141,-1.08115208148956,-0.440604001283646,0.662024915218353,-1.08843305191934,-0.468322334941636,0.673791908394614,0
2.31999969482422,-1.61922812461853,2.39183616638184,1.89113867282867,-1.33223444283894,2.39259311800549,1.96757367342642,1314.62,1333.626,3238.4,3239.876,-0.0941731,0.03315545,0.08866829,-1.08293223381042,-0.441270470619202,0.665128588676453,-1.09109887036509,-0.469469362144493,0.675442177003072,0
2.34000015258789,-1.6409170627594,2.38299798965454,1.90449917316437,-1.35408126380187,2.38319304127467,1.98109789631088,1311.89,1334.368,3235.089,3237.802,-0.09372516,0.0333663,0.08765035,-1.08444535732269,-0.441922038793564,0.668025612831116,-1.09348683453544,-0.470496836415,0.676920440579027,0
2.3599967956543,-1.66263103485107,2.37414693832397,1.91791355609894,-1.37596887940059,2.37377541175173,1.99464737301821,1308.833,1335.019,3231.77,3236.027,-0.09325165,0.03356164,0.08663757,-1.08569622039795,-0.442554354667664,0.670721530914307,-1.09559564748259,-0.471404199712748,0.678225896250009,0
2.37999725341797,-1.68436479568481,2.36528372764587,1.9313782453537,-1.39790005743958,2.36433903852774,2.00822381695123,1304.81,1335.413,3229.398,3234.334,-0.09274458,0.03374267,0.08563155,-1.08669030666351,-0.443164706230164,0.673235535621643,-1.09742530100382,-0.472191448508328,0.679358538938131,0
2.39999771118164,-1.70611333847046,2.3564088344574,1.94488859176636,-1.41986502747765,2.35488812555058,2.02182117974142,1302.685,1336.048,3225.179,3232.169,-0.09219917,0.03391516,0.08462435,-1.08742570877075,-0.443744122982025,0.67551463842392,-1.09897466165884,-0.47285809511406,0.680317666989874,0
2.41999816894531,-1.72787141799927,2.34752297401428,1.95844089984894,-1.44185817738692,2.34542508756209,2.03543598721428,1301.224,1336.621,3221.737,3228.716,-0.09162073,0.03407969,0.08361576,-1.08791029453278,-0.444288432598114,0.677612841129303,-1.10024313330221,-0.473403883025206,0.681102911362803,0
2.43999862670898,-1.74963438510895,2.33862686157227,1.97203147411346,-1.46387388420027,2.33595234396796,2.0490647584853,1297.537,1336.918,3218.9,3226.973,-0.09101406,0.03423429,0.08261734,-1.08814525604248,-0.444793373346329,0.679527461528778,-1.10123022817855,-0.473828602374257,0.681713970113108,0
2.45999908447266,-1.77139687538147,2.32972192764282,1.98565626144409,-1.48590651627916,2.32647231790489,2.06270400730194,1294.417,1336.948,3215.951,3224.811,-0.09036744,0.03438268,0.08162546,-1.08813309669495,-0.445253521203995,0.681241691112518,-1.10193556692257,-0.474132089930926,0.682150608395601,0
2.47999954223633,-1.79315447807312,2.32080864906311,1.99931120872498,-1.50795043548148,2.31698743530794,2.07635024338568,1292.367,1336.969,3212.381,3222.122,-0.08967502,0.03452834,0.08063626,-1.08787620067596,-0.445661067962646,0.682748794555664,-1.10235887855907,-0.474314229102152,0.682412658463722,0
2.5,-1.81490230560303,2.31188821792603,2.01299238204956,-1.52999999932945,2.30750012397766,2.08999997377396,1290.524,1336.904,3208.828,3219.277,-0.08893999,0.03467236,0.07964978,-1.08737814426422,-0.4460089802742,0.684064209461212,-1.10250000050292,-0.474374949932098,0.682500019669533,0
2.51999664306641,-1.83663487434387,2.3029625415802,2.02669620513916,-1.55204535801192,2.29801462201262,2.10364710096447,1288.134,1336.675,3205.409,3216.911,-0.08816501,0.03481496,0.07866714,-1.08664131164551,-0.44629094004631,0.6851926445961,-1.10235893238473,-0.47431425226183,0.68241269178437,0
2.53999710083008,-1.85834813117981,2.29403257369995,2.04041910171509,-1.57408927882895,2.2885297387209,2.11729333804778,1285.071,1336.175,3202.493,3214.814,-0.08734369,0.03495821,0.07768717,-1.08566856384277,-0.446501433849335,0.686142027378082,-1.10193567455836,-0.474132136243598,0.68215067502728,0
2.55999755859375,-1.88003742694855,2.28509998321533,2.05415654182434,-1.59612191359838,2.27904971150017,2.13093258853001,1284.126,1335.83,3198.146,3211.772,-0.0864739,0.03510715,0.0766996,-1.08445835113525,-0.446631282567978,0.686877727508545,-1.10123038958312,-0.473828671822132,0.681714070030222,0
2.57999801635742,-1.90169787406921,2.2761664390564,2.06790542602539,-1.6181376241771,2.2695769662859,2.14456136213196,1283.222,1335.398,3194.672,3207.988,-0.08556364,0.03526178,0.07570598,-1.08301544189453,-0.446675926446915,0.68744957447052,-1.10024334841354,-0.473403975581601,0.681103044526962,0
2.59999847412109,-1.92332458496094,2.26723384857178,2.08166241645813,-1.64013077892511,2.26011392621545,2.15817617260023,1280.404,1334.668,3191.738,3205.68,-0.08461715,0.03541997,0.07471485,-1.08133912086487,-0.446630954742432,0.687850654125214,-1.09897493039424,-0.472858210743393,0.680317833349887,0
2.61999893188477,-1.94491314888,2.25830411911011,2.09542369842529,-1.66209575487342,2.25066301069528,2.17177353904914,1278.489,1333.693,3188.565,3202.747,-0.08362326,0.03558574,0.07372069,-1.079430103302,-0.446490883827209,0.688063502311707,-1.09742562325992,-0.472191587166126,0.67935873843001,0
2.63999938964844,-1.96645903587341,2.24937891960144,2.10918545722961,-1.68402693989188,2.24122663446822,2.18534998730279,1277.501,1332.685,3184.985,3199.271,-0.08258089,0.0357608,0.07272064,-1.07728934288025,-0.446248799562454,0.688088536262512,-1.09559602313537,-0.471404361345641,0.67822612879697,0
2.65999984741211,-1.987957239151,2.24046087265015,2.12294411659241,-1.70591873485703,2.23180720668066,2.19890205123703,1276.518,1331.572,3181.359,3195.903,-0.08149432,0.03594554,0.07171522,-1.07491767406464,-0.445898681879044,0.687935292720795,-1.09348683453544,-0.470496836414999,0.676920440579028,0
2.67999649047852,-2.0094039440155,2.23155212402344,2.13669633865356,-1.72776139360717,2.22240892083372,2.2124236975135,1275.255,1330.314,3177.724,3192.876,-0.08036727,0.03614016,0.07070338,-1.07231605052948,-0.445435285568237,0.687606751918793,-1.09109935234628,-0.469469569527535,0.67544247537239,0
2.69999694824219,-2.03079342842102,2.22265529632568,2.15043878555298,-1.74955768413056,2.21303058593937,2.22591663964878,1273,1328.802,3174.886,3190.14,-0.07919709,0.03634533,0.06968438,-1.06948626041412,-0.444855481386185,0.687120497226715,-1.08843358680109,-0.468322565086308,0.673792239511893,0
2.71999740600586,-2.05212187767029,2.21377229690552,2.1641674041748,-1.77129788800495,2.2036763835632,2.23937486147656,1272.884,1327.438,3170.431,3186.591,-0.07798056,0.03656546,0.06864732,-1.06642460823059,-0.444151997566223,0.686430275440216,-1.08549099645889,-0.467056450668518,0.671970635915057,0
2.73999786376953,-2.07338452339172,2.20490574836731,2.17787933349609,-1.79297647980783,2.19434869114016,2.25279494249708,1273.111,1326.045,3166.953,3181.85,-0.07672673,0.03679978,0.06759281,-1.06313443183899,-0.443322747945786,0.685592591762543,-1.08227271937422,-0.465671715947234,0.669978369091845,0
2.7599983215332,-2.09457683563232,2.19605827331543,2.19157123565674,-1.81458795796224,2.18504987584512,2.26617347697213,1271.029,1324.405,3163.943,3178.985,-0.07544363,0.03704521,0.06653172,-1.05961310863495,-0.442365676164627,0.684596359729767,-1.07878000199166,-0.464168897232749,0.667816210650842,0
2.77999877929688,-2.11569404602051,2.18723297119141,2.20523977279663,-1.83612684690458,2.17578229366013,2.27950707526701,1269.947,1322.5,3160.717,3175.389,-0.07412004,0.0373043,0.0654579,-1.05586075782776,-0.441278010606766,0.683423697948456,-1.07501419914593,-0.462548577472581,0.665484999299265,0
2.79999923706055,-2.13673162460327,2.17843151092529,2.21888113021851,-1.85758769925251,2.16654828844162,2.29279236519255,1269.761,1320.622,3156.94,3171.357,-0.07275649,0.03757855,0.06436809,-1.05187690258026,-0.440055817365646,0.682072341442108,-1.07097677406178,-0.460811386251471,0.662985640842947,0
2.81999969482422,-2.15768456459045,2.16965770721436,2.23249220848083,-1.87896509797278,2.15735019098767,2.30602599334712,1269.626,1318.692,3153.358,3167.104,-0.0713578,0.03786706,0.06326312,-1.04766225814819,-0.438696652650833,0.680559933185577,-1.06666929835407,-0.458957999791384,0.660319108186353,0
2.84000015258789,-2.17854881286621,2.16091370582581,2.24606990814209,-1.90025365854909,2.14819031810522,2.31920462645863,1268.756,1316.658,3149.601,3163.73,-0.06993141,0.03816877,0.0621441,-1.04321599006653,-0.437198281288147,0.67887932062149,-1.06209345202774,-0.456989140951513,0.657486441332568,0
2.8599967956543,-2.19931983947754,2.15220260620117,2.25961065292358,-1.9214439980555,2.13907270700516,2.33232245604895,1268.14,1314.516,3146.177,3159.758,-0.06847467,0.03848472,0.06100654,-1.03853917121887,-0.435560375452042,0.677042305469513,-1.05725197237562,-0.454905987512489,0.654489334796247,0
2.87999725341797,-2.21999216079712,2.14352703094482,2.27311158180237,-1.94253888918396,2.12999616467562,2.34538119854648,1266.508,1312.28,3143.163,3156.311,-0.06698489,0.03881409,0.05985226,-1.03363132476807,-0.43378272652626,0.675051152706146,-1.05214490868305,-0.452708560680416,0.651327819087361,0
2.89999771118164,-2.24056220054626,2.13488960266113,2.28656888008118,-1.96352900640172,2.1209647036328,2.35837508100222,1267.385,1310.159,3138.606,3151.669,-0.06546103,0.03916061,0.05867127,-1.02848923206329,-0.431862086057663,0.672864854335785,-1.04677516433438,-0.450398109700476,0.648003691539142,0
2.91999816894531,-2.26102423667908,2.12629389762878,2.29997968673706,-1.98440911693069,2.11198057539494,2.37130086407726,1268.166,1308.084,3134.886,3146.348,-0.06391533,0.03952138,0.05746756,-1.02311491966248,-0.429799169301987,0.670537710189819,-1.04114485287423,-0.447975543971863,0.644518260536375,0
2.93999862670898,-2.28137445449829,2.11774206161499,2.31334090232849,-2.00517403134858,2.10304601282548,2.38415533527198,1266.659,1305.827,3131.469,3142.982,-0.06235792,0.03989274,0.05625083,-1.01750659942627,-0.427595585584641,0.668057262897491,-1.03525619623725,-0.445441819530995,0.640872901562472,0
2.95999908447266,-2.30160808563232,2.1092369556427,2.32664918899536,-2.02581860575671,2.0941632292003,2.39693531026807,1265.803,1303.352,3128.281,3138.75,-0.06077866,0.04027634,0.05501591,-1.01166594028473,-0.425253480672836,0.66541862487793,-1.02911152474823,-0.442797939051516,0.637069057199471,0
2.97999954223633,-2.32171964645386,2.10078144073486,2.33990144729614,-2.04633774394789,2.08533441727499,2.40963763427052,1265.413,1300.943,3124.629,3134.332,-0.05917437,0.04067198,0.05376207,-1.00559234619141,-0.422773241996765,0.662610471248627,-1.022713277122,-0.440044951844293,0.633108237128031,0
3,-2.34170532226563,2.09237813949585,2.35309410095215,-2.06672639957428,2.07656174835205,2.42225918334961,1265.727,1298.554,3120.587,3129.536,-0.05754878,0.04107974,0.05248792,-0.999286234378815,-0.420154958963394,0.659633636474609,-1.01606400046349,-0.437183953857422,0.628992018127441,0
3.01999664306641,-2.36156058311462,2.08403038978577,2.36622405052185,-2.08697572864857,2.06784902775215,2.4347944826559,1265.589,1296.168,3116.65,3125.048,-0.05590987,0.04149775,0.05119561,-0.992748439311981,-0.41740009188652,0.656501114368439,-1.00916768936771,-0.434216663853534,0.624722873042298,0
3.03999710083008,-2.38127994537354,2.07574009895325,2.3792884349823,-2.10708851762775,2.05919505654068,2.44724525713902,1264.061,1293.663,3113.251,3121.377,-0.05425765,0.04192431,0.04988709,-0.98598039150238,-0.414511620998383,0.653221786022186,-1.00202447609459,-0.431143138740389,0.620300883747801,0
3.05999755859375,-2.40085983276367,2.06751036643982,2.39228367805481,-2.12705600675913,2.05060360379452,2.45960608409476,1264.505,1291.263,3108.848,3116.502,-0.05258891,0.04236194,0.04855314,-0.978981614112854,-0.411490678787231,0.649764001369476,-0.994638524886308,-0.427965170275055,0.615728628108227,0
3.07999801635742,-2.42029500007629,2.05934357643127,2.40520691871643,-2.14687337079936,2.04207674568107,2.47187397646763,1264.742,1289,3104.959,3111.233,-0.05091218,0.04280846,0.04719727,-0.971753895282745,-0.408340573310852,0.646163403987885,-0.987012816387451,-0.424684040945629,0.611007951284564,0
3.09999847412109,-2.4395809173584,2.05124235153198,2.41805529594421,-2.16653584520328,2.033616532251,2.4840459847772,1263.545,1286.647,3101.388,3107.016,-0.04923279,0.04326115,0.04582701,-0.964297354221344,-0.4050652384758,0.64241361618042,-0.979150439632689,-0.421301079877433,0.606140765536421,0
3.11999893188477,-2.45871305465698,2.04320907592773,2.43082523345947,-2.18603872829175,2.02522498650551,2.49611919846012,1262.839,1284.172,3097.672,3102.425,-0.04754435,0.04372053,0.0444404,-0.956613838672638,-0.401668101549149,0.638501822948456,-0.971054592046769,-0.41781766283301,0.601129050222034,0
3.13999938964844,-2.47768712043762,2.03524613380432,2.44351387023926,-2.20537738341953,2.01690410346351,2.50809074721212,1262.734,1281.766,3093.662,3097.414,-0.04584738,0.04418603,0.04303715,-0.948705077171326,-0.398151993751526,0.634428083896637,-0.962728579444533,-0.414235212212131,0.595974851798267,0
3.15999984741211,-2.49649858474731,2.02735567092896,2.45611786842346,-2.2245472411431,2.00865584922888,2.51995780232997,1262.42,1279.397,3089.557,3092.641,-0.04414669,0.04465575,0.04161971,-0.94057309627533,-0.394519627094269,0.630197525024414,-0.954175816030892,-0.41055519705179,0.590680283820602,0
3.17999649047852,-2.51514315605164,2.01953983306885,2.46863412857056,-2.2435401949712,2.00048371179835,2.53171534550942,1261.808,1277.027,3085.53,3088.032,-0.04244493,0.04512899,0.04018912,-0.932220578193665,-0.390774726867676,0.625814914703369,-0.9454015193052,-0.406779862296197,0.585248576169681,0
3.19999694824219,-2.53361582756042,2.01180171966553,2.48106002807617,-2.2623590635174,1.99238647840124,2.54336512160655,1260.279,1274.636,3081.975,3083.786,-0.04073997,0.04560392,0.03874756,-0.923650622367859,-0.386921584606171,0.621289551258087,-0.936405971974636,-0.402909329586355,0.579679903854719,0
3.21999740600586,-2.551913022995,2.00414252281189,2.49339151382446,-2.28099585204123,1.98436758895103,2.55490218149615,1260.45,1272.335,3076.999,3079.087,-0.03903076,0.04608287,0.03728719,-0.914864301681519,-0.382962316274643,0.616580009460449,-0.927194566064376,-0.398945918960059,0.573977604796153,0
3.23999786376953,-2.5700306892395,1.99656438827515,2.50562644004822,-2.29944628156995,1.97642888457015,2.56632387629027,1260.947,1270.233,3072.998,3073.044,-0.0373258,0.04656408,0.03580992,-0.905866026878357,-0.378901690244675,0.61174488067627,-0.917771149318993,-0.394891285994308,0.568144060931169,0
3.2599983215332,-2.58796405792236,1.98906934261322,2.51776170730591,-2.31770615117141,1.96857217280235,2.57762760541179,1258.673,1268.113,3069.279,3069.35,-0.03563256,0.04704308,0.03432904,-0.896657109260559,-0.37474462389946,0.606768250465393,-0.908139677873146,-0.390747132903322,0.562181721295578,0
3.27999877929688,-2.60570859909058,1.98165953159332,2.52979445457458,-2.33577134012187,1.96079922667992,2.58881081793642,1257.74,1265.787,3065.366,3064.591,-0.03393826,0.04752218,0.03283791,-0.887242138385773,-0.370495855808258,0.601632952690125,-0.898304216251578,-0.386515208538549,0.556093102023818,0
3.29999923706055,-2.62326073646545,1.97433662414551,2.54172134399414,-2.35363781007389,1.95311178379095,2.59987101393471,1257.625,1263.65,3061.002,3059.312,-0.03224449,0.0480011,0.03133652,-0.877624452114105,-0.366158455610275,0.5963414311409,-0.888268937369113,-0.38219730838866,0.549880786348944,0
3.31999969482422,-2.64061689376831,1.96710181236267,2.55353951454163,-2.37130160722417,1.94551154534655,2.61080574581408,1257.139,1261.582,3056.654,3054.373,-0.03055817,0.0484775,0.02982918,-0.867807567119598,-0.361735999584198,0.590904712677002,-0.878038122530657,-0.377795274579551,0.543547424602645,0
3.33999633789063,-2.6577730178833,1.95995712280273,2.56524610519409,-2.38875555478454,1.93800159931817,2.62161057080077,1255.967,1259.501,3052.607,3049.813,-0.02888145,0.04895028,0.0283191,-0.857796132564545,-0.35723277926445,0.585330367088318,-0.867618167158097,-0.373311858882592,0.53709697585572,0
3.3599967956543,-2.67472505569458,1.95290398597717,2.57683849334717,-2.40600253440574,1.930580705812,2.63228727277387,1254.003,1257.394,3048.781,3045.774,-0.02721111,0.04941825,0.02680763,-0.847594976425171,-0.352653294801712,0.579617619514465,-0.85700959304645,-0.368747285811601,0.530529763124145,0
3.37999725341797,-2.6914689540863,1.94594407081604,2.58831334114075,-2.42303550945299,1.9232518924954,2.64283149572124,1253.991,1255.356,3043.941,3040.733,-0.02554291,0.04988424,0.02528708,-0.837208092212677,-0.348000377416611,0.573740065097809,-0.846218976345105,-0.364104384899943,0.523849857357654,0
3.39999771118164,-2.70800161361694,1.93907833099365,2.59966802597046,-2.43985088596004,1.91601670575165,2.65324101480657,1254.065,1253.561,3039.559,3035.083,-0.02388589,0.05034619,0.02376106,-0.826640069484711,-0.343277812004089,0.567738056182861,-0.835251031898626,-0.359385184813519,0.517060177269636,0
3.41999816894531,-2.72431969642639,1.93230867385864,2.61090016365051,-2.45644516534361,1.90887665092339,2.66351366424015,1252.061,1251.767,3035.636,3031.014,-0.02224752,0.05080062,0.02224008,-0.815895140171051,-0.338490307331085,0.561611533164978,-0.824110582941664,-0.354591760855451,0.510163708672097,0
3.43999862670898,-2.74041938781738,1.92563581466675,2.62200713157654,-2.47281494657125,1.90183319137989,2.67364733862088,1250.373,1249.796,3031.583,3026.861,-0.02062032,0.05124879,0.02072111,-0.80497944355011,-0.333642572164536,0.555343329906464,-0.812802561098952,-0.34972623496609,0.503163504475677,0
3.45999908447266,-2.75629711151123,1.91906106472015,2.63298583030701,-2.48895692832918,1.89488774758421,2.68363999427827,1249.766,1247.949,3027.417,3021.687,-0.01899793,0.05169168,0.01920173,-0.793898582458496,-0.32873809337616,0.54894083738327,-0.801332006385299,-0.344790775723006,0.496062684689628,0
3.47999954223633,-2.77195048332214,1.91258561611176,2.64383387565613,-2.50486791119015,1.88804169616054,2.69348965061443,1248.982,1246.226,3022.997,3016.912,-0.01738725,0.05212758,0.01768649,-0.782657146453857,-0.323779731988907,0.542403995990753,-0.789704067205609,-0.339787598340998,0.488864436421841,0
3.49999618530273,-2.78737568855286,1.906210064888,2.65454864501953,-2.52054183223243,1.88129764581471,2.703192554392,1247.964,1244.476,3018.667,3012.388,-0.01579041,0.05255567,0.01617727,-0.771260857582092,-0.318770676851273,0.535741031169891,-0.777926261338517,-0.334719937510192,0.481573413535413,0
3.51999664306641,-2.80256986618042,1.89993572235107,2.66512799263,-2.53598168290031,1.87465430941181,2.7127505574575,1246.236,1242.763,3014.811,3008.102,-0.0142069,0.0529751,0.01467674,-0.759715974330902,-0.313714861869812,0.528965651988983,-0.765999459475408,-0.329588167864767,0.474190155029786,0
3.53999710083008,-2.81753063201904,1.89376354217529,2.6755690574646,-2.55118156992615,1.86811422266028,2.72216001159753,1245.462,1241.043,3010.111,3003.739,-0.01263563,0.05338728,0.01318125,-0.748028218746185,-0.308615118265152,0.522048473358154,-0.753931367647136,-0.324395605094516,0.466719431305148,0
3.55999755859375,-2.83225464820862,1.88769388198853,2.6858696937561,-2.56613872308604,1.86167857751006,2.73141920191151,1245.077,1239.484,3005.914,2998.521,-0.01107928,0.05379175,0.01169121,-0.736203730106354,-0.3034747838974,0.515026926994324,-0.741727567798258,-0.319144650954242,0.459164697851087,0
3.57999801635742,-2.84673953056335,1.88172793388367,2.6960277557373,-2.58085048488145,1.85534851740854,2.74052648328127,1243.15,1238.007,3001.971,2994.542,-0.009544237,0.05418627,0.01021518,-0.724248051643372,-0.298297554254532,0.507899105548859,-0.72939375026341,-0.313837753835969,0.451529477255809,0
3.59999847412109,-2.86098289489746,1.87586617469788,2.70604085922241,-2.59531431270705,1.84912513636775,2.74948028171299,1241.652,1236.369,2997.925,2990.42,-0.008023571,0.05457151,0.008751037,-0.712168335914612,-0.293087095022202,0.500653088092804,-0.716935713767317,-0.308477408768949,0.443817359206151,0
3.61999893188477,-2.87498235702515,1.87010931968689,2.71590685844421,-2.6095277810186,1.84300947803163,2.75827909567923,1240.905,1234.827,2993.798,2985.672,-0.006515157,0.05494834,0.007297767,-0.699971079826355,-0.287846177816391,0.493297219276428,-0.704359365424783,-0.303066157419654,0.436032000487571,0
3.63999938964844,-2.8887357711792,1.86445760726929,2.7256236076355,-2.6234885835008,1.83700253474321,2.76692149746096,1239.888,1233.372,2989.579,2981.337,-0.005023787,0.05531581,0.005859043,-0.687662243843079,-0.282577127218246,0.485835522413254,-0.691670720740692,-0.297606588091786,0.428177124984152,0
3.65999984741211,-2.90224027633667,1.85891199111938,2.73518919944763,-2.6371945352351,1.83110524661191,2.77540613448951,1238.792,1231.902,2985.533,2977.047,-0.003551059,0.05567337,0.004436208,-0.675248622894287,-0.277282774448395,0.478276193141937,-0.678875903610016,-0.292101335726265,0.420256523678599,0
3.67999649047852,-2.9154953956604,1.85347282886505,2.7446014881134,-2.65064103434641,1.825319593696,2.783730157985,1237.618,1230.458,2981.42,2972.983,-0.002097506,0.05602093,0.003030143,-0.66273707151413,-0.271965980529785,0.470618546009064,-0.665983614869008,-0.28655414404986,0.412275582803033,0
3.69999694824219,-2.9284975528717,1.84814023971558,2.75385904312134,-2.66383127580226,1.81964420129024,2.79189554578451,1235.89,1229.059,2977.71,2969.147,-0.0006625945,0.05635835,0.001642348,-0.650134563446045,-0.266629666090012,0.462877511978149,-0.65299527533123,-0.280965624398954,0.404235181908735,0
3.71999740600586,-2.94124674797058,1.84291458129883,2.76295971870422,-2.67676086214623,1.81408096149726,2.79989957565303,1235.357,1227.636,2973.43,2964.814,0.0007565104,0.05668688,0.000269504,-0.637448132038116,-0.261276304721832,0.455032676458359,-0.639919784131907,-0.275339605822821,0.396140829984331,0
3.73999786376953,-2.95374035835266,1.83779668807983,2.77190208435059,-2.68942811570037,1.808630596175,2.80774120902801,1234.752,1226.372,2969.56,2960.225,0.00215445,0.0570058,-0.001084972,-0.624683797359467,-0.255908071994781,0.447114527225494,-0.626763698705669,-0.269678909802388,0.38799658639423,0
3.7599983215332,-2.96597719192505,1.83278608322144,2.78068447113037,-2.70183149102237,1.80329377028414,2.81541948920704,1233.15,1225.089,2965.647,2956.792,0.003526219,0.05731364,-0.00241602,-0.611848473548889,-0.250527888536453,0.439114898443222,-0.613533684877225,-0.263986404455806,0.379806577601466,0
3.77999877929688,-2.97795629501343,1.82788324356079,2.7893054485321,-2.7139695770734,1.79807109095524,2.82293354268985,1232.148,1223.737,2962.094,2952.607,0.004876873,0.05761157,-0.003726295,-0.598950028419495,-0.245138794183731,0.431044965982437,-0.60023651686137,-0.258265004538452,0.371574997167698,0
3.79999923706055,-2.9896764755249,1.82308840751648,2.79776334762573,-2.72584109938593,1.7929631065561,2.83028258052034,1230.827,1222.472,2958.338,2948.993,0.006205235,0.0578991,-0.005012069,-0.585995495319366,-0.239743247628212,0.422899425029755,-0.586879077262983,-0.252517671442928,0.363306105753209,0
3.81999969482422,-3.001136302948,1.8184015750885,2.80605697631836,-2.73744492223163,1.78797030575888,2.83746589962856,1230.138,1221.163,2954.564,2944.996,0.007512697,0.05817699,-0.006275473,-0.572992324829102,-0.23434342443943,0.41468346118927,-0.573468357077023,-0.246747413199059,0.355004231116903,0
3.83999633789063,-3.01233530044556,1.81382274627686,2.81418514251709,-2.74877791451009,1.78309403578861,2.84448156171422,1229.425,1219.954,2950.829,2941.088,0.008795366,0.05844455,-0.007514375,-0.55994725227356,-0.228941455483437,0.406406819820404,-0.560014026276881,-0.240958390526246,0.346675359432959,0
3.8599967956543,-3.02327251434326,1.80935192108154,2.82214665412903,-2.75984354851568,1.77833280261403,2.85133171629293,1228.007,1218.77,2947.41,2937.705,0.01005114,0.05870126,-0.008726113,-0.546867489814758,-0.223539933562279,0.398079574108124,-0.546518158200277,-0.23515149552379,0.33832077419619,0
3.87999725341797,-3.03394794464111,1.80498898029327,2.82994031906128,-2.77063893010371,1.77368785150474,2.85801457175126,1227.402,1217.509,2943.659,2934.068,0.01128184,0.05894811,-0.009912818,-0.533760964870453,-0.218141317367554,0.389688581228256,-0.532990631455729,-0.229330978680956,0.329946590735853,0
3.89999771118164,-3.04436039924622,1.80073404312134,2.83756542205811,-2.78116350015273,1.7691594230351,2.8645297819664,1226.9,1216.398,2940.261,2930.08,0.01248411,0.05918493,-0.01107342,-0.520634412765503,-0.212748050689697,0.381259173154831,-0.519438870577852,-0.223500034567577,0.321557405192552,0
3.91999816894531,-3.05451059341431,1.79658675193787,2.84502124786377,-2.79141684911929,1.7647476934202,2.87087709341145,1225.611,1215.304,2936.885,2926.986,0.01365377,0.05941064,-0.01220367,-0.507495224475861,-0.207362771034241,0.372786819934845,-0.505870408491346,-0.2176619043907,0.313157880805522,0
